{"type":"FeatureCollection","features":[{"type":"feature","properties":{"country_en":"Austria","name":"Hipping","name_adm0":"Österreich","name_adm1":"Oberösterreich","name_adm2":"Vöcklabruck","name_en":"Hipping"},"geometry":{"type":"Point","coordinates":[13.46581,47.9497]}},{"type":"feature","properties":{"country_en":"Austria","name":"Hochburg","name_adm0":"Österreich","name_adm1":"Oberösterreich","name_adm2":"Braunau am Inn","name_en":"Hochburg-Ach"},"geometry":{"type":"Point","coordinates":[12.87735,48.13001]}},{"type":"feature","properties":{"country_en":"Austria","name":"Holzhausen","name_adm0":"Österreich","name_adm1":"Oberösterreich","name_adm2":"Wels-Land","name_en":"Holzhausen"},"geometry":{"type":"Point","coordinates":[14.09683,48.22295999999999]}},{"type":"feature","properties":{"country_en":"Austria","name":"Waldwinkl","name_adm0":"Österreich","name_adm1":"Salzburg","name_adm2":"Salzburg-Umgebung","name_en":"Winkl"},"geometry":{"type":"Point","coordinates":[13.4,47.816669999999995]}},{"type":"feature","properties":{"country_en":"Austria","name":"Wallnstorf","name_adm0":"Österreich","name_adm1":"Oberösterreich","name_adm2":"Wels-Land","name_en":"Wallnstorf"},"geometry":{"type":"Point","coordinates":[13.93333,48.13333]}},{"type":"feature","properties":{"country_en":"Austria","name":"Weyer Markt","name_adm0":"Österreich","name_adm1":"Oberösterreich","name_adm2":"Steyr-Land","name_en":"Weyer"},"geometry":{"type":"Point","coordinates":[14.66409,47.85717]}},{"type":"feature","properties":{"country_en":"Austria","name":"Wildenau","name_adm0":"Österreich","name_adm1":"Oberösterreich","name_adm2":"Braunau am Inn","name_en":"Wildenau"},"geometry":{"type":"Point","coordinates":[13.31723,48.2062]}},{"type":"feature","properties":{"country_en":"Austria","name":"St. Georgen bei Salzburg","name_adm0":"Österreich","name_adm1":"Salzburg","name_adm2":"Salzburg-Umgebung","name_en":"Skt Georgen"},"geometry":{"type":"Point","coordinates":[12.88499,47.99078]}},{"type":"feature","properties":{"country_en":"Austria","name":"Wiener Neudorf","name_adm0":"Österreich","name_adm1":"Niederösterreich","name_adm2":"Mödling","name_en":"Wiener Neudorf"},"geometry":{"type":"Point","coordinates":[16.31384,48.08278]}},{"type":"feature","properties":{"country_en":"Austria","name":"St. Gilgen","name_adm0":"Österreich","name_adm1":"Salzburg","name_adm2":"Salzburg-Umgebung","name_en":"St. Gilgen"},"geometry":{"type":"Point","coordinates":[13.36667,47.76667]}},{"type":"feature","properties":{"country_en":"Austria","name":"Netzberg","name_adm0":"Österreich","name_adm1":"Oberösterreich","name_adm2":"Freistadt","name_en":"Netzberg"},"geometry":{"type":"Point","coordinates":[14.49964,48.37769]}},{"type":"feature","properties":{"country_en":"Austria","name":"Ulrichsberg","name_adm0":"Österreich","name_adm1":"Oberösterreich","name_adm2":"Rohrbach","name_en":"Ulrichsberg"},"geometry":{"type":"Point","coordinates":[13.910750999999998,48.677077]}},{"type":"feature","properties":{"country_en":"Austria","name":"Obsteig","name_adm0":"Österreich","name_adm1":"Tirol","name_adm2":"Imst","name_en":"Obsteig"},"geometry":{"type":"Point","coordinates":[10.93333,47.3]}},{"type":"feature","properties":{"country_en":"Austria","name":"Badersdorf","name_adm0":"Österreich","name_adm1":"Burgenland","name_adm2":"Oberwart","name_en":"Badersdorf"},"geometry":{"type":"Point","coordinates":[15.98333,47.06667]}},{"type":"feature","properties":{"country_en":"Austria","name":"Deutsch Schützen","name_adm0":"Österreich","name_adm1":"Burgenland","name_adm2":"Oberwart","name_en":"Deutsch Schützen"},"geometry":{"type":"Point","coordinates":[16.42872,47.16258]}},{"type":"feature","properties":{"country_en":"Austria","name":"Duel","name_adm0":"Österreich","name_adm1":"Kärnten","name_adm2":"Villach Land","name_en":"Duel"},"geometry":{"type":"Point","coordinates":[14.01667,46.58333]}},{"type":"feature","properties":{"country_en":"Austria","name":"Feffernitz","name_adm0":"Österreich","name_adm1":"Kärnten","name_adm2":"Villach Land","name_en":"Feffernitz"},"geometry":{"type":"Point","coordinates":[13.7025,46.68667]}},{"type":"feature","properties":{"country_en":"Austria","name":"St. Martin am Techelsberg","name_adm0":"Österreich","name_adm1":"Kärnten","name_adm2":"Klagenfurt Land","name_en":"Techelsberg"},"geometry":{"type":"Point","coordinates":[14.101939999999999,46.658609999999996]}},{"type":"feature","properties":{"country_en":"Austria","name":"Srejach","name_adm0":"Österreich","name_adm1":"Kärnten","name_adm2":"Völkermarkt","name_en":"Srejach"},"geometry":{"type":"Point","coordinates":[14.596970000000002,46.62273999999999]}},{"type":"feature","properties":{"country_en":"Austria","name":"St. Jakob","name_adm0":"Österreich","name_adm1":"Kärnten","name_adm2":"Villach Land","name_en":"St. Jakob"},"geometry":{"type":"Point","coordinates":[14.057219999999997,46.54778]}},{"type":"feature","properties":{"country_en":"Austria","name":"Gainfarn","name_adm0":"Österreich","name_adm1":"Niederösterreich","name_adm2":"Baden","name_en":"Gainfarn"},"geometry":{"type":"Point","coordinates":[16.19368,47.962799999999994]}},{"type":"feature","properties":{"country_en":"Austria","name":"Großwetzdorf","name_adm0":"Österreich","name_adm1":"Niederösterreich","name_adm2":"Hollabrunn","name_en":"Großwetzdorf"},"geometry":{"type":"Point","coordinates":[15.93333,48.5]}},{"type":"feature","properties":{"country_en":"Austria","name":"Gerasdorf am Steinfelde","name_adm0":"Österreich","name_adm1":"Niederösterreich","name_adm2":"Neunkirchen","name_en":"Gerasdorf"},"geometry":{"type":"Point","coordinates":[16.07643,47.78271]}},{"type":"feature","properties":{"country_en":"Austria","name":"Grub an der March","name_adm0":"Österreich","name_adm1":"Niederösterreich","name_adm2":"Gänserndorf","name_en":"Grub"},"geometry":{"type":"Point","coordinates":[16.83333,48.41667]}},{"type":"feature","properties":{"country_en":"Austria","name":"Joching","name_adm0":"Österreich","name_adm1":"Niederösterreich","name_adm2":"Krems Land","name_en":"Joching"},"geometry":{"type":"Point","coordinates":[15.45,48.38333]}},{"type":"feature","properties":{"country_en":"Austria","name":"Karlstein","name_adm0":"Österreich","name_adm1":"Niederösterreich","name_adm2":"Waidhofen an der Thaya","name_en":"Karlstein"},"geometry":{"type":"Point","coordinates":[15.399999999999999,48.88333]}},{"type":"feature","properties":{"country_en":"Austria","name":"Klein-Harras","name_adm0":"Österreich","name_adm1":"Niederösterreich","name_adm2":"Gänserndorf","name_en":"Klein-Harras"},"geometry":{"type":"Point","coordinates":[16.62722,48.46167]}},{"type":"feature","properties":{"country_en":"Austria","name":"Langfeld","name_adm0":"Österreich","name_adm1":"Niederösterreich","name_adm2":"Gmünd","name_en":"Langfeld"},"geometry":{"type":"Point","coordinates":[14.849999999999998,48.68332999999999]}},{"type":"feature","properties":{"country_en":"Austria","name":"Lauterbach","name_adm0":"Österreich","name_adm1":"Niederösterreich","name_adm2":"Gmünd","name_en":"Lauterbach"},"geometry":{"type":"Point","coordinates":[14.766670000000001,48.68332999999999]}},{"type":"feature","properties":{"country_en":"Austria","name":"Mold","name_adm0":"Österreich","name_adm1":"Niederösterreich","name_adm2":"Horn","name_en":"Mold"},"geometry":{"type":"Point","coordinates":[15.700750000000001,48.64227]}},{"type":"feature","properties":{"country_en":"Austria","name":"Neuhaus","name_adm0":"Österreich","name_adm1":"Niederösterreich","name_adm2":"Baden","name_en":"Neuhaus"},"geometry":{"type":"Point","coordinates":[16.04588,47.99520999999999]}},{"type":"feature","properties":{"country_en":"Austria","name":"Möllersdorf","name_adm0":"Österreich","name_adm1":"Niederösterreich","name_adm2":"Baden","name_en":"Möllersdorf"},"geometry":{"type":"Point","coordinates":[16.30508,48.025749999999995]}},{"type":"feature","properties":{"country_en":"Austria","name":"Münichreith am Ostrong","name_adm0":"Österreich","name_adm1":"Niederösterreich","name_adm2":"Melk","name_en":"Münichreith am Ostrong"},"geometry":{"type":"Point","coordinates":[15.116669999999997,48.24999999999999]}},{"type":"feature","properties":{"country_en":"Austria","name":"Nappersdorf","name_adm0":"Österreich","name_adm1":"Niederösterreich","name_adm2":"Hollabrunn","name_en":"Nappersdorf"},"geometry":{"type":"Point","coordinates":[16.18333,48.61667]}},{"type":"feature","properties":{"country_en":"Austria","name":"Windischgarsten","name_adm0":"Österreich","name_adm1":"Oberösterreich","name_adm2":"Kirchdorf an der Krems","name_en":"Windischgarsten"},"geometry":{"type":"Point","coordinates":[14.328059999999999,47.722119]}},{"type":"feature","properties":{"country_en":"Austria","name":"Ramingdorf","name_adm0":"Österreich","name_adm1":"Niederösterreich","name_adm2":"Amstetten","name_en":"Ramingdorf"},"geometry":{"type":"Point","coordinates":[14.449999999999998,48.06667]}},{"type":"feature","properties":{"country_en":"Austria","name":"Trübensee","name_adm0":"Österreich","name_adm1":"Niederösterreich","name_adm2":"Tulln","name_en":"Trübensee"},"geometry":{"type":"Point","coordinates":[16.03333,48.35]}},{"type":"feature","properties":{"country_en":"Austria","name":"Ulrichs","name_adm0":"Österreich","name_adm1":"Niederösterreich","name_adm2":"Gmünd","name_en":"Ulrichs"},"geometry":{"type":"Point","coordinates":[14.933329999999998,48.71667]}},{"type":"feature","properties":{"country_en":"Austria","name":"Unserfrau","name_adm0":"Österreich","name_adm1":"Niederösterreich","name_adm2":"Gmünd","name_en":"Unserfrau"},"geometry":{"type":"Point","coordinates":[14.900000000000002,48.71667]}},{"type":"feature","properties":{"country_en":"Austria","name":"Weinling","name_adm0":"Österreich","name_adm1":"Niederösterreich","name_adm2":"Melk","name_en":"Weinling"},"geometry":{"type":"Point","coordinates":[15.166669999999998,48.33333]}},{"type":"feature","properties":{"country_en":"Austria","name":"Weinzierl bei Krems","name_adm0":"Österreich","name_adm1":"Niederösterreich","name_adm2":"Krems an der Donau Stadt","name_en":"Weinzierl"},"geometry":{"type":"Point","coordinates":[15.882969999999998,48.28593]}},{"type":"feature","properties":{"country_en":"Austria","name":"Zöfing","name_adm0":"Österreich","name_adm1":"Niederösterreich","name_adm2":"Tulln","name_en":"Zöfing"},"geometry":{"type":"Point","coordinates":[16.02167,48.28057]}},{"type":"feature","properties":{"country_en":"Austria","name":"Ampfelwang","name_adm0":"Österreich","name_adm1":"Oberösterreich","name_adm2":"Vöcklabruck","name_en":"Ampflwang"},"geometry":{"type":"Point","coordinates":[13.566669999999998,48.08332999999999]}},{"type":"feature","properties":{"country_en":"Austria","name":"Karling","name_adm0":"Österreich","name_adm1":"Oberösterreich","name_adm2":"Eferding","name_en":"Karling"},"geometry":{"type":"Point","coordinates":[13.99607,48.35123]}},{"type":"feature","properties":{"country_en":"Austria","name":"Kickendorf","name_adm0":"Österreich","name_adm1":"Oberösterreich","name_adm2":"Grieskirchen","name_en":"Kickendorf"},"geometry":{"type":"Point","coordinates":[13.83505,48.24674]}},{"type":"feature","properties":{"country_en":"Austria","name":"Kirchberg bei Mattighofen","name_adm0":"Österreich","name_adm1":"Oberösterreich","name_adm2":"Braunau am Inn","name_en":"Kirchberg"},"geometry":{"type":"Point","coordinates":[13.115189999999998,48.0389]}},{"type":"feature","properties":{"country_en":"Austria","name":"Oberlebing","name_adm0":"Österreich","name_adm1":"Oberösterreich","name_adm2":"Perg","name_en":"Oberlebing"},"geometry":{"type":"Point","coordinates":[14.63336,48.28833]}},{"type":"feature","properties":{"country_en":"Austria","name":"Untergriesbach","name_adm0":"Österreich","name_adm1":"Oberösterreich","name_adm2":"Schärding","name_en":"Untergriesbach"},"geometry":{"type":"Point","coordinates":[13.66725,48.57434]}},{"type":"feature","properties":{"country_en":"Austria","name":"Lengdorf","name_adm0":"Österreich","name_adm1":"Salzburg","name_adm2":"Zell am See","name_en":"Lengdorf"},"geometry":{"type":"Point","coordinates":[12.616669999999997,47.28333]}},{"type":"feature","properties":{"country_en":"Austria","name":"Mitterhofen","name_adm0":"Österreich","name_adm1":"Salzburg","name_adm2":"Zell am See","name_en":"Mitterhofen"},"geometry":{"type":"Point","coordinates":[12.8,47.38333]}},{"type":"feature","properties":{"country_en":"Austria","name":"Litzelsdorf","name_adm0":"Österreich","name_adm1":"Salzburg","name_adm2":"Tamsweg","name_en":"Litzldorf"},"geometry":{"type":"Point","coordinates":[13.79728,47.13626]}},{"type":"feature","properties":{"country_en":"Austria","name":"Krottendorf bei Ligist","name_adm0":"Österreich","name_adm1":"Steiermark","name_adm2":"Voitsberg","name_en":"Krottendorf"},"geometry":{"type":"Point","coordinates":[15.21667,47.01667]}},{"type":"feature","properties":{"country_en":"Austria","name":"Lichendorf","name_adm0":"Österreich","name_adm1":"Steiermark","name_adm2":"Radkersburg","name_en":"Lichendorf"},"geometry":{"type":"Point","coordinates":[15.698329999999999,46.71139]}},{"type":"feature","properties":{"country_en":"Austria","name":"Ludersdorf","name_adm0":"Österreich","name_adm1":"Steiermark","name_adm2":"Weiz","name_en":"Ludersdorf"},"geometry":{"type":"Point","coordinates":[15.68942,47.10332]}},{"type":"feature","properties":{"country_en":"Austria","name":"Ortgraben","name_adm0":"Österreich","name_adm1":"Steiermark","name_adm2":"Hartberg","name_en":"Ortgraben"},"geometry":{"type":"Point","coordinates":[16.05,47.45]}},{"type":"feature","properties":{"country_en":"Austria","name":"Ottendorf bei Gleisdorf","name_adm0":"Österreich","name_adm1":"Steiermark","name_adm2":"Fürstenfeld","name_en":"Ottendorf"},"geometry":{"type":"Point","coordinates":[15.899999999999999,47.05]}},{"type":"feature","properties":{"country_en":"Austria","name":"Stein an der Enns","name_adm0":"Österreich","name_adm1":"Steiermark","name_adm2":"Liezen","name_en":"Stein"},"geometry":{"type":"Point","coordinates":[13.93333,47.43333]}},{"type":"feature","properties":{"country_en":"Austria","name":"Tober","name_adm0":"Österreich","name_adm1":"Steiermark","name_adm2":"Weiz","name_en":"Tober"},"geometry":{"type":"Point","coordinates":[15.483329999999999,47.28333]}},{"type":"feature","properties":{"country_en":"Austria","name":"Unterpurkla","name_adm0":"Österreich","name_adm1":"Steiermark","name_adm2":"Radkersburg","name_en":"Unterpurkla"},"geometry":{"type":"Point","coordinates":[15.907779999999999,46.73389]}},{"type":"feature","properties":{"country_en":"Austria","name":"Weinzettel","name_adm0":"Österreich","name_adm1":"Steiermark","name_adm2":"Graz-Umgebung","name_en":"Weinzettl"},"geometry":{"type":"Point","coordinates":[15.33333,46.93333]}},{"type":"feature","properties":{"country_en":"Austria","name":"Unterburg","name_adm0":"Österreich","name_adm1":"Steiermark","name_adm2":"Liezen","name_en":"Unterburg"},"geometry":{"type":"Point","coordinates":[14.074949999999998,47.52769]}},{"type":"feature","properties":{"country_en":"Austria","name":"Auland","name_adm0":"Österreich","name_adm1":"Tirol","name_adm2":"Innsbruck-Land","name_en":"Auland"},"geometry":{"type":"Point","coordinates":[11.2,47.31667]}},{"type":"feature","properties":{"country_en":"Austria","name":"Durchholzen","name_adm0":"Österreich","name_adm1":"Tirol","name_adm2":"Kufstein","name_en":"Durchholzen"},"geometry":{"type":"Point","coordinates":[12.28333,47.63333]}},{"type":"feature","properties":{"country_en":"Austria","name":"Iselsberg","name_adm0":"Österreich","name_adm1":"Tirol","name_adm2":"Lienz","name_en":"Iselsberg"},"geometry":{"type":"Point","coordinates":[12.849439999999998,46.83806]}},{"type":"feature","properties":{"country_en":"Austria","name":"Krößbach","name_adm0":"Österreich","name_adm1":"Tirol","name_adm2":"Innsbruck-Land","name_en":"Krößbach"},"geometry":{"type":"Point","coordinates":[11.28333,47.08333]}},{"type":"feature","properties":{"country_en":"Austria","name":"Hart im Zillertal","name_adm0":"Österreich","name_adm1":"Tirol","name_adm2":"Schwaz","name_en":"Hart"},"geometry":{"type":"Point","coordinates":[11.87201,47.35231999999999]}},{"type":"feature","properties":{"country_en":"Austria","name":"Lehn","name_adm0":"Österreich","name_adm1":"Tirol","name_adm2":"Imst","name_en":"Lehn"},"geometry":{"type":"Point","coordinates":[10.95,47.08333]}},{"type":"feature","properties":{"country_en":"Austria","name":"Lähn","name_adm0":"Österreich","name_adm1":"Tirol","name_adm2":"Reutte","name_en":"Lähn"},"geometry":{"type":"Point","coordinates":[10.83333,47.41667]}},{"type":"feature","properties":{"country_en":"Austria","name":"Niederhart","name_adm0":"Österreich","name_adm1":"Tirol","name_adm2":"Schwaz","name_en":"Niederhart"},"geometry":{"type":"Point","coordinates":[11.86667,47.35]}},{"type":"feature","properties":{"country_en":"Austria","name":"Oberletzen","name_adm0":"Österreich","name_adm1":"Tirol","name_adm2":"Reutte","name_en":"Oberletzen"},"geometry":{"type":"Point","coordinates":[10.7,47.51667]}},{"type":"feature","properties":{"country_en":"Austria","name":"Unterleins","name_adm0":"Österreich","name_adm1":"Tirol","name_adm2":"Imst","name_en":"Leins"},"geometry":{"type":"Point","coordinates":[10.75,47.18333]}},{"type":"feature","properties":{"country_en":"Austria","name":"Stadl an der Mur","name_adm0":"Österreich","name_adm1":"Steiermark","name_adm2":"Murau","name_en":"Stadl an der Mur"},"geometry":{"type":"Point","coordinates":[13.96667,47.08333]}},{"type":"feature","properties":{"country_en":"Austria","name":"Uttenhofen","name_adm0":"Österreich","name_adm1":"Salzburg","name_adm2":"Zell am See","name_en":"Uttenhofen"},"geometry":{"type":"Point","coordinates":[12.63406,48.25988]}},{"type":"feature","properties":{"country_en":"Austria","name":"Schmieding","name_adm0":"Österreich","name_adm1":"Salzburg","name_adm2":"Zell am See","name_en":"Schmieding"},"geometry":{"type":"Point","coordinates":[13.01139,47.88861]}},{"type":"feature","properties":{"country_en":"Austria","name":"Offensee","name_adm0":"Österreich","name_adm1":"Oberösterreich","name_adm2":"Gmunden","name_en":"Offensee"},"geometry":{"type":"Point","coordinates":[13.838481,47.753059]}},{"type":"feature","properties":{"country_en":"Austria","name":"Iselsberg-stronach","name_adm0":"Österreich","name_adm1":"Tirol","name_adm2":"Lienz","name_en":"Iselsberg-stronach"},"geometry":{"type":"Point","coordinates":[12.85142,46.85719]}},{"type":"feature","properties":{"country_en":"Austria","name":"Kirchberg Linak","name_adm0":"Österreich","name_adm1":"Steiermark","name_adm2":"Graz-Umgebung","name_en":"Kirchberg Linak"},"geometry":{"type":"Point","coordinates":[15.367254999999998,47.069902]}},{"type":"feature","properties":{"country_en":"Austria","name":"Rohrmoos-untertal","name_adm0":"Österreich","name_adm1":"Steiermark","name_adm2":"Liezen","name_en":"Rohrmoos-untertal"},"geometry":{"type":"Point","coordinates":[13.672227,47.383647999999994]}},{"type":"feature","properties":{"country_en":"Austria","name":"Tirol","name_adm0":"Österreich","name_adm1":"Tirol","name_en":"Tyrol"},"geometry":{"type":"Point","coordinates":[11.33333,47.25]}},{"type":"feature","properties":{"country_en":"Austria","name":"Urfahr","name_adm0":"Österreich","name_adm1":"Oberösterreich","name_adm2":"Linz Stadt","name_en":"Urfahr"},"geometry":{"type":"Point","coordinates":[14.266669999999998,48.316669999999995]}},{"type":"feature","properties":{"country_en":"Austria","name":"Elixhausen","name_adm0":"Österreich","name_adm1":"Salzburg","name_adm2":"Salzburg-Umgebung","name_en":"Elixhausen"},"geometry":{"type":"Point","coordinates":[12.692399999999997,47.90053]}},{"type":"feature","properties":{"country_en":"Austria","name":"Forstau","name_adm0":"Österreich","name_adm1":"Salzburg","name_adm2":"Skt. Johann im Pongau","name_en":"Forstau"},"geometry":{"type":"Point","coordinates":[14.266669999999998,47.93333]}},{"type":"feature","properties":{"country_en":"Austria","name":"Oberschoderlee","name_adm0":"Österreich","name_adm1":"Niederösterreich","name_adm2":"Mistelbach","name_en":"Oberschoderlee"},"geometry":{"type":"Point","coordinates":[16.33389,48.648059999999994]}},{"type":"feature","properties":{"country_en":"Austria","name":"Pfaffendorf","name_adm0":"Österreich","name_adm1":"Oberösterreich","name_adm2":"Wels-Land","name_en":"Pfaffendorf"},"geometry":{"type":"Point","coordinates":[13.91719,48.192069999999994]}},{"type":"feature","properties":{"country_en":"Austria","name":"Pfannberg","name_adm0":"Österreich","name_adm1":"Steiermark","name_adm2":"Graz-Umgebung","name_en":"Pfannberg"},"geometry":{"type":"Point","coordinates":[15.349999999999998,47.25]}},{"type":"feature","properties":{"country_en":"Austria","name":"Völkendorf","name_adm0":"Österreich","name_adm1":"Kärnten","name_adm2":"Villach Stadt","name_en":"Völkendorf"},"geometry":{"type":"Point","coordinates":[13.833329999999998,46.61667]}},{"type":"feature","properties":{"country_en":"Austria","name":"Aichereben","name_adm0":"Österreich","name_adm1":"Oberösterreich","name_adm2":"Vöcklabruck","name_en":"Aichereben"},"geometry":{"type":"Point","coordinates":[13.49748,47.84404]}},{"type":"feature","properties":{"country_en":"Austria","name":"Lilienfeld","name_adm0":"Österreich","name_adm1":"Niederösterreich","name_adm2":"Lilienfeld","name_en":"Lilienfeld"},"geometry":{"type":"Point","coordinates":[15.58722,47.9939]}},{"type":"feature","properties":{"country_en":"Austria","name":"Gallneukirchen","name_adm0":"Österreich","name_adm1":"Oberösterreich","name_adm2":"Urfahr-Umgebung","name_en":"Gallneukirchen"},"geometry":{"type":"Point","coordinates":[14.416039999999999,48.353629999999995]}},{"type":"feature","properties":{"country_en":"Austria","name":"Rauris","name_adm0":"Österreich","name_adm1":"Salzburg","name_adm2":"Zell am See","name_en":"Rauris"},"geometry":{"type":"Point","coordinates":[12.99459,47.22656]}},{"type":"feature","properties":{"country_en":"Austria","name":"Zell am See","name_adm0":"Österreich","name_adm1":"Salzburg","name_adm2":"Zell am See","name_en":"Zell am See"},"geometry":{"type":"Point","coordinates":[12.8185,47.32489]}},{"type":"feature","properties":{"country_en":"Austria","name":"Zeltweg","name_adm0":"Österreich","name_adm1":"Steiermark","name_adm2":"Judenburg","name_en":"Zeltweg"},"geometry":{"type":"Point","coordinates":[14.749999999999998,47.18333]}},{"type":"feature","properties":{"country_en":"Austria","name":"Kitzeck im Sausal","name_adm0":"Österreich","name_adm1":"Steiermark","name_adm2":"Leibnitz","name_en":"Kitzeck im Sausal"},"geometry":{"type":"Point","coordinates":[15.45524,46.77931999999999]}},{"type":"feature","properties":{"country_en":"Austria","name":"Spielberg bei Knittelfeld","name_adm0":"Österreich","name_adm1":"Steiermark","name_adm2":"Knittelfeld","name_en":"Spielberg bei Knittelfeld"},"geometry":{"type":"Point","coordinates":[14.78333,47.21666999999999]}},{"type":"feature","properties":{"country_en":"Austria","name":"Schwendau","name_adm0":"Österreich","name_adm1":"Tirol","name_adm2":"Schwaz","name_en":"Schwendau"},"geometry":{"type":"Point","coordinates":[11.820859999999998,47.18524]}},{"type":"feature","properties":{"country_en":"Austria","name":"Riezlern","name_adm0":"Österreich","name_adm1":"Vorarlberg","name_adm2":"Bregenz","name_en":"Kirche"},"geometry":{"type":"Point","coordinates":[10.18227,47.35051]}},{"type":"feature","properties":{"country_en":"Austria","name":"Loipersdorf bei Fürstenfeld","name_adm0":"Österreich","name_adm1":"Steiermark","name_adm2":"Fürstenfeld","name_en":"Loipersdorf bei Fürstenfeld"},"geometry":{"type":"Point","coordinates":[16.099999999999998,47]}},{"type":"feature","properties":{"country_en":"Austria","name":"Grimmenstein","name_adm0":"Österreich","name_adm1":"Niederösterreich","name_adm2":"Neunkirchen","name_en":"Grimmenstein"},"geometry":{"type":"Point","coordinates":[16.13333,47.61667]}},{"type":"feature","properties":{"country_en":"Austria","name":"Falkenstein","name_adm0":"Österreich","name_adm1":"Niederösterreich","name_adm2":"Mistelbach","name_en":"Falkenstein"},"geometry":{"type":"Point","coordinates":[16.58333,48.71667]}},{"type":"feature","properties":{"country_en":"Austria","name":"Litschau","name_adm0":"Österreich","name_adm1":"Niederösterreich","name_adm2":"Gmünd","name_en":"Litschau"},"geometry":{"type":"Point","coordinates":[15.05,48.93333]}},{"type":"feature","properties":{"country_en":"Austria","name":"Schrattenthal","name_adm0":"Österreich","name_adm1":"Niederösterreich","name_adm2":"Hollabrunn","name_en":"Schrattenthal"},"geometry":{"type":"Point","coordinates":[15.899999999999999,48.7]}},{"type":"feature","properties":{"country_en":"Austria","name":"Waidhofen an der Ybbs","name_adm0":"Österreich","name_adm1":"Niederösterreich","name_adm2":"Waidhofen an der Ybbs Stadt","name_en":"Waidhofen an der Ybbs"},"geometry":{"type":"Point","coordinates":[14.77996,47.9563]}},{"type":"feature","properties":{"country_en":"Austria","name":"Hellmonsödt","name_adm0":"Österreich","name_adm1":"Oberösterreich","name_adm2":"Urfahr-Umgebung","name_en":"Hellmonsödt"},"geometry":{"type":"Point","coordinates":[14.3,48.43333]}},{"type":"feature","properties":{"country_en":"Austria","name":"Herzogsdorf","name_adm0":"Österreich","name_adm1":"Oberösterreich","name_adm2":"Urfahr-Umgebung","name_en":"Herzogsdorf"},"geometry":{"type":"Point","coordinates":[14.1128,48.43011]}},{"type":"feature","properties":{"country_en":"Austria","name":"Pennewang","name_adm0":"Österreich","name_adm1":"Oberösterreich","name_adm2":"Wels-Land","name_en":"Pennewang"},"geometry":{"type":"Point","coordinates":[13.85447,48.12948]}},{"type":"feature","properties":{"country_en":"Austria","name":"Gmunden","name_adm0":"Österreich","name_adm1":"Oberösterreich","name_adm2":"Gmunden","name_en":"Gmunden"},"geometry":{"type":"Point","coordinates":[13.79909,47.919219999999996]}},{"type":"feature","properties":{"country_en":"Austria","name":"Grieskirchen","name_adm0":"Österreich","name_adm1":"Oberösterreich","name_adm2":"Grieskirchen","name_en":"Grieskirchen"},"geometry":{"type":"Point","coordinates":[13.82792,48.23359]}},{"type":"feature","properties":{"country_en":"Austria","name":"Freistadt","name_adm0":"Österreich","name_adm1":"Oberösterreich","name_adm2":"Freistadt","name_en":"Freistadt"},"geometry":{"type":"Point","coordinates":[14.501440000000002,48.50398]}},{"type":"feature","properties":{"country_en":"Austria","name":"St. Lorenz","name_adm0":"Österreich","name_adm1":"Oberösterreich","name_adm2":"Vöcklabruck","name_en":"St. Lorenz"},"geometry":{"type":"Point","coordinates":[13.36667,47.816669999999995]}},{"type":"feature","properties":{"country_en":"Austria","name":"Wolfsegg am Hausruck","name_adm0":"Österreich","name_adm1":"Oberösterreich","name_adm2":"Vöcklabruck","name_en":"Wolfsegg am Hausruck"},"geometry":{"type":"Point","coordinates":[13.672739999999997,48.10669]}},{"type":"feature","properties":{"country_en":"Austria","name":"St. Ruprecht an der Raab","name_adm0":"Österreich","name_adm1":"Steiermark","name_adm2":"Weiz","name_en":"St. Ruprecht an der Raab"},"geometry":{"type":"Point","coordinates":[15.662560000000001,47.15336]}},{"type":"feature","properties":{"country_en":"Austria","name":"Seggauberg","name_adm0":"Österreich","name_adm1":"Steiermark","name_adm2":"Leibnitz","name_en":"Seggauberg"},"geometry":{"type":"Point","coordinates":[15.524,46.758129999999994]}},{"type":"feature","properties":{"country_en":"Austria","name":"Vorderlanersbach","name_adm0":"Österreich","name_adm1":"Tirol","name_adm2":"Schwaz","name_en":"Vorderlanersbach"},"geometry":{"type":"Point","coordinates":[11.74353,47.16223]}},{"type":"feature","properties":{"country_en":"Austria","name":"Ramsau","name_adm0":"Österreich","name_adm1":"Steiermark","name_adm2":"Liezen","name_en":"Ramsau am Dachstein"},"geometry":{"type":"Point","coordinates":[13.65545,47.4215]}},{"type":"feature","properties":{"country_en":"Austria","name":"Reisenberg","name_adm0":"Österreich","name_adm1":"Niederösterreich","name_adm2":"Baden","name_en":"Reisenberg"},"geometry":{"type":"Point","coordinates":[15.483329999999999,48.58333]}},{"type":"feature","properties":{"country_en":"Austria","name":"Hirschwang","name_adm0":"Österreich","name_adm1":"Niederösterreich","name_adm2":"Neunkirchen","name_en":"Hirschwang an der Rax"},"geometry":{"type":"Point","coordinates":[15.81139,47.70526]}},{"type":"feature","properties":{"country_en":"Austria","name":"Maria Ellend","name_adm0":"Österreich","name_adm1":"Niederösterreich","name_adm2":"Bruck an der Leitha","name_en":"Maria Ellend"},"geometry":{"type":"Point","coordinates":[16.68333,48.1]}},{"type":"feature","properties":{"country_en":"Austria","name":"Yspertal","name_adm0":"Österreich","name_adm1":"Niederösterreich","name_adm2":"Melk","name_en":"Yspertal"},"geometry":{"type":"Point","coordinates":[15.059831,48.34309999999999]}},{"type":"feature","properties":{"country_en":"Austria","name":"Trimmelkam","name_adm0":"Österreich","name_adm1":"Oberösterreich","name_adm2":"Braunau am Inn","name_en":"Trimmelkamm"},"geometry":{"type":"Point","coordinates":[12.86667,48.03333]}},{"type":"feature","properties":{"country_en":"Austria","name":"Neuhofen","name_adm0":"Österreich","name_adm1":"Salzburg","name_adm2":"Salzburg-Umgebung","name_en":"Neuhofen"},"geometry":{"type":"Point","coordinates":[13.17862,47.85533]}},{"type":"feature","properties":{"country_en":"Austria","name":"Seekirchen Markt","name_adm0":"Österreich","name_adm1":"Salzburg","name_adm2":"Salzburg-Umgebung","name_en":"Seekirchen"},"geometry":{"type":"Point","coordinates":[13.142502,47.903843]}},{"type":"feature","properties":{"country_en":"Austria","name":"St. Nikolai im Sölktal","name_adm0":"Österreich","name_adm1":"Steiermark","name_adm2":"Liezen","name_en":"Skt Nikolai"},"geometry":{"type":"Point","coordinates":[14.055762,47.311413]}},{"type":"feature","properties":{"country_en":"Austria","name":"Rosenau","name_adm0":"Österreich","name_adm1":"Niederösterreich","name_adm2":"Amstetten","name_en":"Rosenau am Sonntagberg"},"geometry":{"type":"Point","coordinates":[14.73927,48.00778]}},{"type":"feature","properties":{"country_en":"Austria","name":"Rustenfeld","name_adm0":"Österreich","name_adm1":"Niederösterreich","name_adm2":"Wien-Umgebung","name_en":"Rustenfeld"},"geometry":{"type":"Point","coordinates":[16.39111,48.11806]}},{"type":"feature","properties":{"country_en":"Austria","name":"Gmundnerberg","name_adm0":"Österreich","name_adm1":"Oberösterreich","name_adm2":"Gmunden","name_en":"Gmundnerberg"},"geometry":{"type":"Point","coordinates":[13.74475,47.90898]}},{"type":"feature","properties":{"country_en":"Austria","name":"Schwelzer-Siedlung","name_adm0":"Österreich","name_adm1":"Salzburg","name_adm2":"Salzburg-Umgebung","name_en":"Schweizersiedlung"},"geometry":{"type":"Point","coordinates":[12.993059999999998,47.77611]}},{"type":"feature","properties":{"country_en":"Austria","name":"Loig","name_adm0":"Österreich","name_adm1":"Salzburg","name_adm2":"Salzburg-Umgebung","name_en":"Loig"},"geometry":{"type":"Point","coordinates":[12.99694,47.78806]}},{"type":"feature","properties":{"country_en":"Austria","name":"Mils bei Solbad Hall","name_adm0":"Österreich","name_adm1":"Tirol","name_adm2":"Innsbruck-Land","name_en":"Mils"},"geometry":{"type":"Point","coordinates":[11.53333,47.28333]}},{"type":"feature","properties":{"country_en":"Austria","name":"Stans","name_adm0":"Österreich","name_adm1":"Tirol","name_adm2":"Schwaz","name_en":"Stans"},"geometry":{"type":"Point","coordinates":[11.71667,47.36667]}},{"type":"feature","properties":{"country_en":"Austria","name":"Luising","name_adm0":"Österreich","name_adm1":"Burgenland","name_adm2":"Güssing","name_en":"Luising"},"geometry":{"type":"Point","coordinates":[16.48333,47.01667]}},{"type":"feature","properties":{"country_en":"Austria","name":"St. Martin am Silberberg","name_adm0":"Österreich","name_adm1":"Kärnten","name_adm2":"Skt. Veit an der Glan","name_en":"Skt Martin"},"geometry":{"type":"Point","coordinates":[14.547219999999998,46.98694]}},{"type":"feature","properties":{"country_en":"Austria","name":"Lehen","name_adm0":"Österreich","name_adm1":"Niederösterreich","name_adm2":"Melk","name_en":"Lehen"},"geometry":{"type":"Point","coordinates":[15.26413,48.22999]}},{"type":"feature","properties":{"country_en":"Austria","name":"Lichteck","name_adm0":"Österreich","name_adm1":"Niederösterreich","name_adm2":"Zwettl","name_en":"Lichteck"},"geometry":{"type":"Point","coordinates":[15.05,48.41667]}},{"type":"feature","properties":{"country_en":"Austria","name":"Ybbs an der Donau","name_adm0":"Österreich","name_adm1":"Niederösterreich","name_adm2":"Melk","name_en":"Ybbs an der Donau"},"geometry":{"type":"Point","coordinates":[15.085068999999999,48.17712]}},{"type":"feature","properties":{"country_en":"Austria","name":"Marbach an der Donau","name_adm0":"Österreich","name_adm1":"Niederösterreich","name_adm2":"Melk","name_en":"Marbach an der Donau"},"geometry":{"type":"Point","coordinates":[15.148943999999998,48.214235]}},{"type":"feature","properties":{"country_en":"Austria","name":"St. Oswald","name_adm0":"Österreich","name_adm1":"Oberösterreich","name_adm2":"Freistadt","name_en":"St. Oswald"},"geometry":{"type":"Point","coordinates":[15.03333,48.26667]}},{"type":"feature","properties":{"country_en":"Austria","name":"Lasaberg","name_adm0":"Österreich","name_adm1":"Salzburg","name_adm2":"Tamsweg","name_en":"Lasaberg"},"geometry":{"type":"Point","coordinates":[13.833329999999998,47.099999999999994]}},{"type":"feature","properties":{"country_en":"Austria","name":"Erlsberg","name_adm0":"Österreich","name_adm1":"Steiermark","name_adm2":"Liezen","name_en":"Erlsberg"},"geometry":{"type":"Point","coordinates":[14.13333,47.46667]}},{"type":"feature","properties":{"country_en":"Austria","name":"Jenbach","name_adm0":"Österreich","name_adm1":"Tirol","name_adm2":"Schwaz","name_en":"Jenbach"},"geometry":{"type":"Point","coordinates":[11.77245,47.39173]}},{"type":"feature","properties":{"country_en":"Austria","name":"Forchtenstein","name_adm0":"Österreich","name_adm1":"Burgenland","name_adm2":"Mattersburg","name_en":"Forchtenstein"},"geometry":{"type":"Point","coordinates":[16.34525,47.71160999999999]}},{"type":"feature","properties":{"country_en":"Austria","name":"Lüsens","name_adm0":"Österreich","name_adm1":"Tirol","name_adm2":"Innsbruck-Land","name_en":"Lüsens"},"geometry":{"type":"Point","coordinates":[11.13333,47.13333]}},{"type":"feature","properties":{"country_en":"Austria","name":"Salzburg","name_adm0":"Österreich","name_adm1":"Salzburg","name_adm2":"Salzburg Stadt","name_en":"Salzburg"},"geometry":{"type":"Point","coordinates":[13.045443,47.79873299999999]}},{"type":"feature","properties":{"country_en":"Austria","name":"Hardegg","name_adm0":"Österreich","name_adm1":"Niederösterreich","name_adm2":"Hollabrunn","name_en":"Hardegg"},"geometry":{"type":"Point","coordinates":[15.85,48.85]}},{"type":"feature","properties":{"country_en":"Austria","name":"Redlham","name_adm0":"Österreich","name_adm1":"Oberösterreich","name_adm2":"Vöcklabruck","name_en":"Redlham"},"geometry":{"type":"Point","coordinates":[13.73333,48.01667]}},{"type":"feature","properties":{"country_en":"Austria","name":"Gösseling","name_adm0":"Österreich","name_adm1":"Kärnten","name_adm2":"Klagenfurt Stadt","name_en":"Gösseling"},"geometry":{"type":"Point","coordinates":[14.483330000000002,46.76666999999999]}},{"type":"feature","properties":{"country_en":"Austria","name":"Neustift im Mühlkreis","name_adm0":"Österreich","name_adm1":"Oberösterreich","name_adm2":"Rohrbach","name_en":"Neustift im Mühlkreis"},"geometry":{"type":"Point","coordinates":[13.756429999999998,48.52882999999999]}},{"type":"feature","properties":{"country_en":"Austria","name":"Scheibbs","name_adm0":"Österreich","name_adm1":"Niederösterreich","name_adm2":"Scheibbs","name_en":"Scheibbs"},"geometry":{"type":"Point","coordinates":[15.16817,48.00473999999999]}},{"type":"feature","properties":{"country_en":"Austria","name":"Gupf","name_adm0":"Österreich","name_adm1":"Kärnten","name_adm2":"Klagenfurt Land","name_en":"Gupf"},"geometry":{"type":"Point","coordinates":[14.38333,46.51667]}},{"type":"feature","properties":{"country_en":"Austria","name":"Wartberg ob der Aist","name_adm0":"Österreich","name_adm1":"Oberösterreich","name_adm2":"Freistadt","name_en":"Wartberg ob der Aist"},"geometry":{"type":"Point","coordinates":[14.518405,48.34006999999999]}},{"type":"feature","properties":{"country_en":"Austria","name":"Weißenkirchen im Attergau","name_adm0":"Österreich","name_adm1":"Oberösterreich","name_adm2":"Vöcklabruck","name_en":"Weißenkirchen im Attergau"},"geometry":{"type":"Point","coordinates":[13.3991785,47.967767]}},{"type":"feature","properties":{"country_en":"Austria","name":"Miedlingsdorf","name_adm0":"Österreich","name_adm1":"Burgenland","name_adm2":"Oberwart","name_en":"Miedlingsdorf"},"geometry":{"type":"Point","coordinates":[16.31667,47.26666999999999]}},{"type":"feature","properties":{"country_en":"Austria","name":"Buchhalm","name_adm0":"Österreich","name_adm1":"Kärnten","name_adm2":"Völkermarkt","name_en":"Buchhalm"},"geometry":{"type":"Point","coordinates":[14.640559999999999,46.60639]}},{"type":"feature","properties":{"country_en":"Austria","name":"Buchheim","name_adm0":"Österreich","name_adm1":"Kärnten","name_adm2":"Villach Land","name_en":"Buchheim"},"geometry":{"type":"Point","coordinates":[13.99361,46.56917]}},{"type":"feature","properties":{"country_en":"Austria","name":"Buchholz","name_adm0":"Österreich","name_adm1":"Kärnten","name_adm2":"Villach Land","name_en":"Buchholz"},"geometry":{"type":"Point","coordinates":[13.855,46.703889999999994]}},{"type":"feature","properties":{"country_en":"Austria","name":"Althodis","name_adm0":"Österreich","name_adm1":"Burgenland","name_adm2":"Oberwart","name_en":"Althodis"},"geometry":{"type":"Point","coordinates":[16.37675,47.31421]}},{"type":"feature","properties":{"country_en":"Austria","name":"Dobersdorf","name_adm0":"Österreich","name_adm1":"Burgenland","name_adm2":"Jennersdorf","name_en":"Dobersdorf"},"geometry":{"type":"Point","coordinates":[16.13333,47.01667]}},{"type":"feature","properties":{"country_en":"Austria","name":"Agsdorf","name_adm0":"Österreich","name_adm1":"Kärnten","name_adm2":"Feldkirchen","name_en":"Agsdorf"},"geometry":{"type":"Point","coordinates":[14.15,46.73333]}},{"type":"feature","properties":{"country_en":"Austria","name":"Innerfragant","name_adm0":"Österreich","name_adm1":"Kärnten","name_adm2":"Spittal an der Drau","name_en":"Innerfragant"},"geometry":{"type":"Point","coordinates":[13.05833,46.96528]}},{"type":"feature","properties":{"country_en":"Austria","name":"Kaltschach","name_adm0":"Österreich","name_adm1":"Kärnten","name_adm2":"Villach Land","name_en":"Kaltschach"},"geometry":{"type":"Point","coordinates":[13.95,46.61667]}},{"type":"feature","properties":{"country_en":"Austria","name":"Ludmannsdorf","name_adm0":"Österreich","name_adm1":"Kärnten","name_adm2":"Klagenfurt Land","name_en":"Ludmannsdorf"},"geometry":{"type":"Point","coordinates":[14.06667,47.099999999999994]}},{"type":"feature","properties":{"country_en":"Austria","name":"Mallenitzen","name_adm0":"Österreich","name_adm1":"Kärnten","name_adm2":"Villach Land","name_en":"Mallenitzen"},"geometry":{"type":"Point","coordinates":[13.987779999999999,46.54917]}},{"type":"feature","properties":{"country_en":"Austria","name":"Kamp","name_adm0":"Österreich","name_adm1":"Kärnten","name_adm2":"Wolfsberg","name_en":"Kamp"},"geometry":{"type":"Point","coordinates":[14.92194,46.88444]}},{"type":"feature","properties":{"country_en":"Austria","name":"Oberberg","name_adm0":"Österreich","name_adm1":"Kärnten","name_adm2":"Spittal an der Drau","name_en":"Oberberg"},"geometry":{"type":"Point","coordinates":[13.11667,46.76666999999999]}},{"type":"feature","properties":{"country_en":"Austria","name":"Kleindiex","name_adm0":"Österreich","name_adm1":"Kärnten","name_adm2":"Völkermarkt","name_en":"Kleindiex"},"geometry":{"type":"Point","coordinates":[14.733329999999999,46.63333]}},{"type":"feature","properties":{"country_en":"Austria","name":"Reinfelsdorf","name_adm0":"Österreich","name_adm1":"Kärnten","name_adm2":"Wolfsberg","name_en":"Reinfelsdorf"},"geometry":{"type":"Point","coordinates":[14.81667,46.81667]}},{"type":"feature","properties":{"country_en":"Austria","name":"Remschenig","name_adm0":"Österreich","name_adm1":"Kärnten","name_adm2":"Völkermarkt","name_en":"Remschenig"},"geometry":{"type":"Point","coordinates":[14.63333,46.46667]}},{"type":"feature","properties":{"country_en":"Austria","name":"Reßnig","name_adm0":"Österreich","name_adm1":"Kärnten","name_adm2":"Klagenfurt Land","name_en":"Reßnig"},"geometry":{"type":"Point","coordinates":[14.28333,46.53333]}},{"type":"feature","properties":{"country_en":"Austria","name":"Rottenstein","name_adm0":"Österreich","name_adm1":"Kärnten","name_adm2":"Klagenfurt Land","name_en":"Rottenstein"},"geometry":{"type":"Point","coordinates":[14.41667,46.56667]}},{"type":"feature","properties":{"country_en":"Austria","name":"Ruden","name_adm0":"Österreich","name_adm1":"Kärnten","name_adm2":"Völkermarkt","name_en":"Ruden"},"geometry":{"type":"Point","coordinates":[15.58333,46.983329999999995]}},{"type":"feature","properties":{"country_en":"Austria","name":"St. Johann im Rosental","name_adm0":"Österreich","name_adm1":"Kärnten","name_adm2":"Klagenfurt Land","name_en":"Skt Johann"},"geometry":{"type":"Point","coordinates":[14.2,46.53333]}},{"type":"feature","properties":{"country_en":"Austria","name":"Weissberg","name_adm0":"Österreich","name_adm1":"Kärnten","name_adm2":"Skt. Veit an der Glan","name_en":"Weisberg"},"geometry":{"type":"Point","coordinates":[14.10778,46.90028]}},{"type":"feature","properties":{"country_en":"Austria","name":"Mösern","name_adm0":"Österreich","name_adm1":"Kärnten","name_adm2":"Wolfsberg","name_en":"Mösern"},"geometry":{"type":"Point","coordinates":[14.866669999999997,46.76666999999999]}},{"type":"feature","properties":{"country_en":"Austria","name":"Winkl","name_adm0":"Österreich","name_adm1":"Kärnten","name_adm2":"Villach Land","name_en":"Winkl"},"geometry":{"type":"Point","coordinates":[14.01667,46.55]}},{"type":"feature","properties":{"country_en":"Austria","name":"Zojach","name_adm0":"Österreich","name_adm1":"Kärnten","name_adm2":"Skt. Veit an der Glan","name_en":"Zojach"},"geometry":{"type":"Point","coordinates":[14.21667,46.78333]}},{"type":"feature","properties":{"country_en":"Austria","name":"Allentsteig","name_adm0":"Österreich","name_adm1":"Niederösterreich","name_adm2":"Zwettl","name_en":"Allentsteig"},"geometry":{"type":"Point","coordinates":[15.33333,47.73333]}},{"type":"feature","properties":{"country_en":"Austria","name":"Allhang","name_adm0":"Österreich","name_adm1":"Niederösterreich","name_adm2":"Wien-Umgebung","name_en":"Allhang"},"geometry":{"type":"Point","coordinates":[16.13565,48.2416]}},{"type":"feature","properties":{"country_en":"Austria","name":"Aschelberg","name_adm0":"Österreich","name_adm1":"Niederösterreich","name_adm2":"Melk","name_en":"Aschelberg"},"geometry":{"type":"Point","coordinates":[15.2,48.33333]}},{"type":"feature","properties":{"country_en":"Austria","name":"Asperhofen","name_adm0":"Österreich","name_adm1":"Niederösterreich","name_adm2":"Skt. Pölten Land","name_en":"Asperhofen"},"geometry":{"type":"Point","coordinates":[16.266669999999998,48.71667]}},{"type":"feature","properties":{"country_en":"Austria","name":"Pogöriach","name_adm0":"Österreich","name_adm1":"Kärnten","name_adm2":"Villach Land","name_en":"Pogöriach"},"geometry":{"type":"Point","coordinates":[13.9,46.55]}},{"type":"feature","properties":{"country_en":"Austria","name":"Pogöriach","name_adm0":"Österreich","name_adm1":"Kärnten","name_adm2":"Villach Land","name_en":"Pogöriach"},"geometry":{"type":"Point","coordinates":[13.65611,46.68861]}},{"type":"feature","properties":{"country_en":"Austria","name":"Bruck am Ostrong","name_adm0":"Österreich","name_adm1":"Niederösterreich","name_adm2":"Melk","name_en":"Bruck"},"geometry":{"type":"Point","coordinates":[15.166669999999998,48.28333]}},{"type":"feature","properties":{"country_en":"Austria","name":"Etzelsreith","name_adm0":"Österreich","name_adm1":"Niederösterreich","name_adm2":"Horn","name_en":"Etzelsreith"},"geometry":{"type":"Point","coordinates":[15.6,48.74999999999999]}},{"type":"feature","properties":{"country_en":"Austria","name":"Etzen","name_adm0":"Österreich","name_adm1":"Niederösterreich","name_adm2":"Zwettl","name_en":"Etzen"},"geometry":{"type":"Point","coordinates":[15.03333,48.56667]}},{"type":"feature","properties":{"country_en":"Austria","name":"St. Marxen","name_adm0":"Österreich","name_adm1":"Kärnten","name_adm2":"Völkermarkt","name_en":"St. Marxen"},"geometry":{"type":"Point","coordinates":[14.616669999999997,46.63333]}},{"type":"feature","properties":{"country_en":"Austria","name":"Gallbrunn","name_adm0":"Österreich","name_adm1":"Niederösterreich","name_adm2":"Bruck an der Leitha","name_en":"Gallbrunn"},"geometry":{"type":"Point","coordinates":[16.63333,48.05]}},{"type":"feature","properties":{"country_en":"Austria","name":"Garmanns","name_adm0":"Österreich","name_adm1":"Niederösterreich","name_adm2":"Mistelbach","name_en":"Garmanns"},"geometry":{"type":"Point","coordinates":[16.46667,48.55]}},{"type":"feature","properties":{"country_en":"Austria","name":"St. Ulrich","name_adm0":"Österreich","name_adm1":"Kärnten","name_adm2":"Wolfsberg","name_en":"St. Ulrich"},"geometry":{"type":"Point","coordinates":[14.900000000000002,46.76666999999999]}},{"type":"feature","properties":{"country_en":"Austria","name":"Guntrams","name_adm0":"Österreich","name_adm1":"Niederösterreich","name_adm2":"Neunkirchen","name_en":"Guntrams"},"geometry":{"type":"Point","coordinates":[16.149999999999995,47.71667]}},{"type":"feature","properties":{"country_en":"Austria","name":"Teuchl","name_adm0":"Österreich","name_adm1":"Kärnten","name_adm2":"Spittal an der Drau","name_en":"Teuchl"},"geometry":{"type":"Point","coordinates":[13.23389,46.87472]}},{"type":"feature","properties":{"country_en":"Austria","name":"Tratten","name_adm0":"Österreich","name_adm1":"Kärnten","name_adm2":"Hermagor","name_en":"Tratten"},"geometry":{"type":"Point","coordinates":[13.53861,46.62583]}},{"type":"feature","properties":{"country_en":"Austria","name":"Hohenruppersdorf","name_adm0":"Österreich","name_adm1":"Niederösterreich","name_adm2":"Gänserndorf","name_en":"Hohenruppersdorf"},"geometry":{"type":"Point","coordinates":[16.516669999999998,48.74999999999999]}},{"type":"feature","properties":{"country_en":"Austria","name":"Hirschengarten","name_adm0":"Österreich","name_adm1":"Niederösterreich","name_adm2":"Wien-Umgebung","name_en":"Hirschengarten"},"geometry":{"type":"Point","coordinates":[16.14304,48.25846]}},{"type":"feature","properties":{"country_en":"Austria","name":"Hüttendorf","name_adm0":"Österreich","name_adm1":"Niederösterreich","name_adm2":"Mistelbach","name_en":"Hüttendorf"},"geometry":{"type":"Point","coordinates":[16.533329999999996,48.55]}},{"type":"feature","properties":{"country_en":"Austria","name":"Isper","name_adm0":"Österreich","name_adm1":"Niederösterreich","name_adm2":"Melk","name_en":"Ysper"},"geometry":{"type":"Point","coordinates":[15.05,48.28333]}},{"type":"feature","properties":{"country_en":"Austria","name":"Vorderkrems","name_adm0":"Österreich","name_adm1":"Kärnten","name_adm2":"Spittal an der Drau","name_en":"Vorderkrems"},"geometry":{"type":"Point","coordinates":[13.66,46.96278]}},{"type":"feature","properties":{"country_en":"Austria","name":"Waidisch","name_adm0":"Österreich","name_adm1":"Kärnten","name_adm2":"Klagenfurt Land","name_en":"Waidisch"},"geometry":{"type":"Point","coordinates":[14.350000000000001,46.5]}},{"type":"feature","properties":{"country_en":"Austria","name":"Karlsdorf","name_adm0":"Österreich","name_adm1":"Niederösterreich","name_adm2":"Hollabrunn","name_en":"Karlsdorf"},"geometry":{"type":"Point","coordinates":[16.01667,48.7]}},{"type":"feature","properties":{"country_en":"Austria","name":"Karlstift","name_adm0":"Österreich","name_adm1":"Niederösterreich","name_adm2":"Gmünd","name_en":"Karlstift"},"geometry":{"type":"Point","coordinates":[14.749999999999998,48.58333]}},{"type":"feature","properties":{"country_en":"Austria","name":"Kettlasbrunn","name_adm0":"Österreich","name_adm1":"Niederösterreich","name_adm2":"Mistelbach","name_en":"Kettlasbrunn"},"geometry":{"type":"Point","coordinates":[16.65,48.55]}},{"type":"feature","properties":{"country_en":"Austria","name":"Watzelsdorf","name_adm0":"Österreich","name_adm1":"Kärnten","name_adm2":"Völkermarkt","name_en":"Watzelsdorf"},"geometry":{"type":"Point","coordinates":[14.66667,46.65]}},{"type":"feature","properties":{"country_en":"Austria","name":"Kogelsbach","name_adm0":"Österreich","name_adm1":"Niederösterreich","name_adm2":"Amstetten","name_en":"Kogelsbach"},"geometry":{"type":"Point","coordinates":[14.916670000000002,47.83333]}},{"type":"feature","properties":{"country_en":"Austria","name":"Weindorf","name_adm0":"Österreich","name_adm1":"Kärnten","name_adm2":"Skt. Veit an der Glan","name_en":"Weindorf"},"geometry":{"type":"Point","coordinates":[14.464619999999998,46.78602]}},{"type":"feature","properties":{"country_en":"Austria","name":"Zelsach","name_adm0":"Österreich","name_adm1":"Kärnten","name_adm2":"Spittal an der Drau","name_en":"Zelsach"},"geometry":{"type":"Point","coordinates":[13.47,46.855]}},{"type":"feature","properties":{"country_en":"Austria","name":"Srallach","name_adm0":"Österreich","name_adm1":"Kärnten","name_adm2":"Klagenfurt Land","name_en":"Sallach"},"geometry":{"type":"Point","coordinates":[14.03333,46.7]}},{"type":"feature","properties":{"country_en":"Austria","name":"Matzles","name_adm0":"Österreich","name_adm1":"Niederösterreich","name_adm2":"Waidhofen an der Thaya","name_en":"Matzles"},"geometry":{"type":"Point","coordinates":[15.332369999999997,48.80811]}},{"type":"feature","properties":{"country_en":"Austria","name":"Anzendorf","name_adm0":"Österreich","name_adm1":"Niederösterreich","name_adm2":"Melk","name_en":"Anzendorf"},"geometry":{"type":"Point","coordinates":[15.354419999999998,48.191379999999995]}},{"type":"feature","properties":{"country_en":"Austria","name":"Ardagger Stift","name_adm0":"Österreich","name_adm1":"Niederösterreich","name_adm2":"Amstetten","name_en":"Stift Ardagger"},"geometry":{"type":"Point","coordinates":[14.833329999999998,48.15]}},{"type":"feature","properties":{"country_en":"Austria","name":"Attenreith","name_adm0":"Österreich","name_adm1":"Niederösterreich","name_adm2":"Krems Land","name_en":"Attenreith"},"geometry":{"type":"Point","coordinates":[15.33333,48.46667]}},{"type":"feature","properties":{"country_en":"Austria","name":"Böhmhöf","name_adm0":"Österreich","name_adm1":"Niederösterreich","name_adm2":"Zwettl","name_en":"Böhmhöf"},"geometry":{"type":"Point","coordinates":[15.1613,48.57127]}},{"type":"feature","properties":{"country_en":"Austria","name":"Ochsenburg","name_adm0":"Österreich","name_adm1":"Niederösterreich","name_adm2":"Skt. Pölten Stadt","name_en":"Ochsenburg"},"geometry":{"type":"Point","coordinates":[15.633329999999999,48.13333]}},{"type":"feature","properties":{"country_en":"Austria","name":"Neuwald","name_adm0":"Österreich","name_adm1":"Niederösterreich","name_adm2":"Lilienfeld","name_en":"Neuwald"},"geometry":{"type":"Point","coordinates":[15.513730000000002,47.74821]}},{"type":"feature","properties":{"country_en":"Austria","name":"Niederfladnitz","name_adm0":"Österreich","name_adm1":"Niederösterreich","name_adm2":"Hollabrunn","name_en":"Niederfladnitz"},"geometry":{"type":"Point","coordinates":[15.88333,48.78333]}},{"type":"feature","properties":{"country_en":"Austria","name":"Orthof","name_adm0":"Österreich","name_adm1":"Niederösterreich","name_adm2":"Neunkirchen","name_en":"Orthof"},"geometry":{"type":"Point","coordinates":[15.79336,47.662609999999994]}},{"type":"feature","properties":{"country_en":"Austria","name":"Oyenhausen","name_adm0":"Österreich","name_adm1":"Niederösterreich","name_adm2":"Baden","name_en":"Oeynhausen"},"geometry":{"type":"Point","coordinates":[16.29187,47.98532999999999]}},{"type":"feature","properties":{"country_en":"Austria","name":"Pielach","name_adm0":"Österreich","name_adm1":"Niederösterreich","name_adm2":"Melk","name_en":"Pielach"},"geometry":{"type":"Point","coordinates":[15.3718,48.22722]}},{"type":"feature","properties":{"country_en":"Austria","name":"Roggenreith","name_adm0":"Österreich","name_adm1":"Niederösterreich","name_adm2":"Zwettl","name_en":"Roggenreith"},"geometry":{"type":"Point","coordinates":[15.18333,48.38333]}},{"type":"feature","properties":{"country_en":"Austria","name":"Enzersdorf bei Staatz","name_adm0":"Österreich","name_adm1":"Niederösterreich","name_adm2":"Mistelbach","name_en":"Ernsdorf"},"geometry":{"type":"Point","coordinates":[16.5,48.66667]}},{"type":"feature","properties":{"country_en":"Austria","name":"Eppenberg","name_adm0":"Österreich","name_adm1":"Niederösterreich","name_adm2":"Krems Land","name_en":"Eppenberg"},"geometry":{"type":"Point","coordinates":[15.349999999999998,48.48333]}},{"type":"feature","properties":{"country_en":"Austria","name":"Schlag","name_adm0":"Österreich","name_adm1":"Niederösterreich","name_adm2":"Gmünd","name_en":"Schlag"},"geometry":{"type":"Point","coordinates":[14.999999999999998,48.95]}},{"type":"feature","properties":{"country_en":"Austria","name":"Schönbichl","name_adm0":"Österreich","name_adm1":"Niederösterreich","name_adm2":"Amstetten","name_en":"Pittersberg"},"geometry":{"type":"Point","coordinates":[14.900000000000002,48.1]}},{"type":"feature","properties":{"country_en":"Austria","name":"Totzenbach","name_adm0":"Österreich","name_adm1":"Niederösterreich","name_adm2":"Skt. Pölten Land","name_en":"Totzenbach"},"geometry":{"type":"Point","coordinates":[15.81001,48.20305]}},{"type":"feature","properties":{"country_en":"Austria","name":"Tradigistdorf","name_adm0":"Österreich","name_adm1":"Niederösterreich","name_adm2":"Skt. Pölten Land","name_en":"Tradigistdorf"},"geometry":{"type":"Point","coordinates":[15.461879999999999,48.03138]}},{"type":"feature","properties":{"country_en":"Austria","name":"Tresdorf","name_adm0":"Österreich","name_adm1":"Niederösterreich","name_adm2":"Korneuburg","name_en":"Tresdorf"},"geometry":{"type":"Point","coordinates":[16.35,48.38333]}},{"type":"feature","properties":{"country_en":"Austria","name":"Untermixnitz","name_adm0":"Österreich","name_adm1":"Niederösterreich","name_adm2":"Horn","name_en":"Untermixnitz"},"geometry":{"type":"Point","coordinates":[15.83333,48.74999999999999]}},{"type":"feature","properties":{"country_en":"Austria","name":"Unterparschenbrunn","name_adm0":"Österreich","name_adm1":"Niederösterreich","name_adm2":"Korneuburg","name_en":"Unterparschenbrunn"},"geometry":{"type":"Point","coordinates":[16.11667,48.45]}},{"type":"feature","properties":{"country_en":"Austria","name":"Watzmanns","name_adm0":"Österreich","name_adm1":"Niederösterreich","name_adm2":"Gmünd","name_en":"Watzmanns"},"geometry":{"type":"Point","coordinates":[14.883329999999999,48.633329999999994]}},{"type":"feature","properties":{"country_en":"Austria","name":"Wilfleinsdorf","name_adm0":"Österreich","name_adm1":"Niederösterreich","name_adm2":"Bruck an der Leitha","name_en":"Wilfleinsdorf"},"geometry":{"type":"Point","coordinates":[16.71667,48.01667]}},{"type":"feature","properties":{"country_en":"Austria","name":"Grossharmanns","name_adm0":"Österreich","name_adm1":"Niederösterreich","name_adm2":"Waidhofen an der Thaya","name_en":"Grossharmanns"},"geometry":{"type":"Point","coordinates":[15.299999999999999,48.916669999999996]}},{"type":"feature","properties":{"country_en":"Austria","name":"Gruberau","name_adm0":"Österreich","name_adm1":"Niederösterreich","name_adm2":"Mödling","name_en":"Gruberau"},"geometry":{"type":"Point","coordinates":[16.09995,48.11677]}},{"type":"feature","properties":{"country_en":"Austria","name":"Altenhof","name_adm0":"Österreich","name_adm1":"Oberösterreich","name_adm2":"Rohrbach","name_en":"Altenhof"},"geometry":{"type":"Point","coordinates":[13.78333,48.5]}},{"type":"feature","properties":{"country_en":"Austria","name":"Baumgartenberg","name_adm0":"Österreich","name_adm1":"Oberösterreich","name_adm2":"Perg","name_en":"Baumgartenberg"},"geometry":{"type":"Point","coordinates":[14.74365,48.20866]}},{"type":"feature","properties":{"country_en":"Austria","name":"Bichlwimm","name_adm0":"Österreich","name_adm1":"Oberösterreich","name_adm2":"Wels-Land","name_en":"Bichlwimm"},"geometry":{"type":"Point","coordinates":[13.96667,48.16667]}},{"type":"feature","properties":{"country_en":"Austria","name":"Heinreichs bei Weitra","name_adm0":"Österreich","name_adm1":"Niederösterreich","name_adm2":"Gmünd","name_en":"Heinreichs"},"geometry":{"type":"Point","coordinates":[14.833329999999998,48.73333]}},{"type":"feature","properties":{"country_en":"Austria","name":"Heinrichsberg","name_adm0":"Österreich","name_adm1":"Niederösterreich","name_adm2":"Melk","name_en":"Heinrichsberg"},"geometry":{"type":"Point","coordinates":[15.381889999999999,48.10537]}},{"type":"feature","properties":{"country_en":"Austria","name":"Enzenkirchen","name_adm0":"Österreich","name_adm1":"Oberösterreich","name_adm2":"Schärding","name_en":"Enzenkirchen"},"geometry":{"type":"Point","coordinates":[13.64828,48.38812]}},{"type":"feature","properties":{"country_en":"Austria","name":"Holzing","name_adm0":"Österreich","name_adm1":"Niederösterreich","name_adm2":"Melk","name_en":"Holzing"},"geometry":{"type":"Point","coordinates":[15.133329999999999,48.15]}},{"type":"feature","properties":{"country_en":"Austria","name":"Hypolz","name_adm0":"Österreich","name_adm1":"Niederösterreich","name_adm2":"Zwettl","name_en":"Hypolz"},"geometry":{"type":"Point","coordinates":[14.973209999999998,48.56633]}},{"type":"feature","properties":{"country_en":"Austria","name":"Fürling","name_adm0":"Österreich","name_adm1":"Oberösterreich","name_adm2":"Freistadt","name_en":"Fürling"},"geometry":{"type":"Point","coordinates":[14.629579999999999,48.45015]}},{"type":"feature","properties":{"country_en":"Austria","name":"Gaflenz","name_adm0":"Österreich","name_adm1":"Oberösterreich","name_adm2":"Steyr-Land","name_en":"Gaflenz"},"geometry":{"type":"Point","coordinates":[14.71667,47.88333]}},{"type":"feature","properties":{"country_en":"Austria","name":"Kamp","name_adm0":"Österreich","name_adm1":"Niederösterreich","name_adm2":"Krems Land","name_en":"Kamp"},"geometry":{"type":"Point","coordinates":[15.75,48.43333]}},{"type":"feature","properties":{"country_en":"Austria","name":"Gerersdorf","name_adm0":"Österreich","name_adm1":"Oberösterreich","name_adm2":"Linz-Land","name_en":"Gerersdorf"},"geometry":{"type":"Point","coordinates":[14.1655,48.22341]}},{"type":"feature","properties":{"country_en":"Austria","name":"Grasberg","name_adm0":"Österreich","name_adm1":"Oberösterreich","name_adm2":"Gmunden","name_en":"Grasberg"},"geometry":{"type":"Point","coordinates":[13.72995,47.88065999999999]}},{"type":"feature","properties":{"country_en":"Austria","name":"Greinerschlag","name_adm0":"Österreich","name_adm1":"Oberösterreich","name_adm2":"Freistadt","name_en":"Greinerschlag"},"geometry":{"type":"Point","coordinates":[14.82081,48.4464]}},{"type":"feature","properties":{"country_en":"Austria","name":"Julbach","name_adm0":"Österreich","name_adm1":"Oberösterreich","name_adm2":"Rohrbach","name_en":"Julbach"},"geometry":{"type":"Point","coordinates":[13.86518,48.66087]}},{"type":"feature","properties":{"country_en":"Austria","name":"Kallham","name_adm0":"Österreich","name_adm1":"Oberösterreich","name_adm2":"Grieskirchen","name_en":"Kallham"},"geometry":{"type":"Point","coordinates":[13.71085,48.28491]}},{"type":"feature","properties":{"country_en":"Austria","name":"kasten","name_adm0":"Österreich","name_adm1":"Oberösterreich","name_adm2":"Vöcklabruck","name_en":"kasten"},"geometry":{"type":"Point","coordinates":[13.66667,47.93333]}},{"type":"feature","properties":{"country_en":"Austria","name":"Kematen am Innbach","name_adm0":"Österreich","name_adm1":"Oberösterreich","name_adm2":"Grieskirchen","name_en":"Kematen"},"geometry":{"type":"Point","coordinates":[13.858739999999997,48.17645]}},{"type":"feature","properties":{"country_en":"Austria","name":"Kniewas","name_adm0":"Österreich","name_adm1":"Oberösterreich","name_adm2":"Kirchdorf an der Krems","name_en":"Kniewas"},"geometry":{"type":"Point","coordinates":[14.16667,47.78333]}},{"type":"feature","properties":{"country_en":"Austria","name":"Lauterbach","name_adm0":"Österreich","name_adm1":"Oberösterreich","name_adm2":"Kirchdorf an der Krems","name_en":"Lauterbach"},"geometry":{"type":"Point","coordinates":[14.09756,47.905269999999994]}},{"type":"feature","properties":{"country_en":"Austria","name":"Mettmach","name_adm0":"Österreich","name_adm1":"Oberösterreich","name_adm2":"Ried im Innkreis","name_en":"Mettmach"},"geometry":{"type":"Point","coordinates":[13.343669999999998,48.17313]}},{"type":"feature","properties":{"country_en":"Austria","name":"Kurzschwarza","name_adm0":"Österreich","name_adm1":"Niederösterreich","name_adm2":"Gmünd","name_en":"Kurzschwarza"},"geometry":{"type":"Point","coordinates":[15.116669999999997,48.76667]}},{"type":"feature","properties":{"country_en":"Austria","name":"Leitsberg","name_adm0":"Österreich","name_adm1":"Niederösterreich","name_adm2":"Skt. Pölten Land","name_en":"Leitsberg"},"geometry":{"type":"Point","coordinates":[15.896869999999998,48.15985]}},{"type":"feature","properties":{"country_en":"Austria","name":"Pichlern","name_adm0":"Österreich","name_adm1":"Oberösterreich","name_adm2":"Steyr-Land","name_en":"Pichlern"},"geometry":{"type":"Point","coordinates":[14.32197,48.02541]}},{"type":"feature","properties":{"country_en":"Austria","name":"Pöndorf","name_adm0":"Österreich","name_adm1":"Oberösterreich","name_adm2":"Vöcklabruck","name_en":"Pöndorf"},"geometry":{"type":"Point","coordinates":[13.37036,47.99584]}},{"type":"feature","properties":{"country_en":"Austria","name":"Meires","name_adm0":"Österreich","name_adm1":"Niederösterreich","name_adm2":"Waidhofen an der Thaya","name_en":"Meires"},"geometry":{"type":"Point","coordinates":[15.28333,48.78333]}},{"type":"feature","properties":{"country_en":"Austria","name":"Puchkirchen","name_adm0":"Österreich","name_adm1":"Oberösterreich","name_adm2":"Vöcklabruck","name_en":"Puchkirchen"},"geometry":{"type":"Point","coordinates":[13.566669999999998,48.03333]}},{"type":"feature","properties":{"country_en":"Austria","name":"Rading","name_adm0":"Österreich","name_adm1":"Oberösterreich","name_adm2":"Kirchdorf an der Krems","name_en":"Rading"},"geometry":{"type":"Point","coordinates":[14.30832,47.7354]}},{"type":"feature","properties":{"country_en":"Austria","name":"Radingdorf","name_adm0":"Österreich","name_adm1":"Oberösterreich","name_adm2":"Freistadt","name_en":"Radingdorf"},"geometry":{"type":"Point","coordinates":[14.47457,48.36138]}},{"type":"feature","properties":{"country_en":"Austria","name":"Regau","name_adm0":"Österreich","name_adm1":"Oberösterreich","name_adm2":"Kirchdorf an der Krems","name_en":"Regau"},"geometry":{"type":"Point","coordinates":[14.13743,48.07498]}},{"type":"feature","properties":{"country_en":"Austria","name":"St. Martin","name_adm0":"Österreich","name_adm1":"Oberösterreich","name_adm2":"Linz-Land","name_en":"Sankt Martin bei Traun"},"geometry":{"type":"Point","coordinates":[14.26781,48.23091]}},{"type":"feature","properties":{"country_en":"Austria","name":"Mühlbach","name_adm0":"Österreich","name_adm1":"Niederösterreich","name_adm2":"Gmünd","name_en":"Mühlbach"},"geometry":{"type":"Point","coordinates":[14.866669999999997,48.633329999999994]}},{"type":"feature","properties":{"country_en":"Austria","name":"Steinbach an der Steyr","name_adm0":"Österreich","name_adm1":"Oberösterreich","name_adm2":"Kirchdorf an der Krems","name_en":"Steinbach"},"geometry":{"type":"Point","coordinates":[14.26935,47.97079]}},{"type":"feature","properties":{"country_en":"Austria","name":"Dorf","name_adm0":"Österreich","name_adm1":"Salzburg","name_adm2":"Skt. Johann im Pongau","name_en":"Dorf"},"geometry":{"type":"Point","coordinates":[13.25,47.45]}},{"type":"feature","properties":{"country_en":"Austria","name":"Patzmannsdorf","name_adm0":"Österreich","name_adm1":"Niederösterreich","name_adm2":"Mistelbach","name_en":"Patzmannsdorf"},"geometry":{"type":"Point","coordinates":[16.266669999999998,48.633329999999994]}},{"type":"feature","properties":{"country_en":"Austria","name":"Hinterkleinarl","name_adm0":"Österreich","name_adm1":"Salzburg","name_adm2":"Skt. Johann im Pongau","name_en":"Hinterkleinarl"},"geometry":{"type":"Point","coordinates":[13.326069999999998,47.25698]}},{"type":"feature","properties":{"country_en":"Austria","name":"Hagenau","name_adm0":"Österreich","name_adm1":"Salzburg","name_adm2":"Salzburg-Umgebung","name_en":"Hagenau"},"geometry":{"type":"Point","coordinates":[13.033329999999998,47.83333]}},{"type":"feature","properties":{"country_en":"Austria","name":"Irrsdorf","name_adm0":"Österreich","name_adm1":"Salzburg","name_adm2":"Salzburg-Umgebung","name_en":"Irrsdorf"},"geometry":{"type":"Point","coordinates":[13.28333,47.96667]}},{"type":"feature","properties":{"country_en":"Austria","name":"Unteresch","name_adm0":"Österreich","name_adm1":"Salzburg","name_adm2":"Salzburg-Umgebung","name_en":"Unteresch"},"geometry":{"type":"Point","coordinates":[12.63887,46.9844]}},{"type":"feature","properties":{"country_en":"Austria","name":"Unterweißburg","name_adm0":"Österreich","name_adm1":"Salzburg","name_adm2":"Tamsweg","name_en":"Unterweißburg"},"geometry":{"type":"Point","coordinates":[13.6,47.099999999999994]}},{"type":"feature","properties":{"country_en":"Austria","name":"Dobrein","name_adm0":"Österreich","name_adm1":"Steiermark","name_adm2":"Mürzzuschlag","name_en":"Dobrein"},"geometry":{"type":"Point","coordinates":[15.46667,47.68333]}},{"type":"feature","properties":{"country_en":"Austria","name":"Erdwegen","name_adm0":"Österreich","name_adm1":"Steiermark","name_adm2":"Hartberg","name_en":"Erdwegen"},"geometry":{"type":"Point","coordinates":[15.95,47.35]}},{"type":"feature","properties":{"country_en":"Austria","name":"Sarning","name_adm0":"Österreich","name_adm1":"Niederösterreich","name_adm2":"Waidhofen an der Thaya","name_en":"Sarning"},"geometry":{"type":"Point","coordinates":[15.21667,48.83333]}},{"type":"feature","properties":{"country_en":"Austria","name":"Furrach","name_adm0":"Österreich","name_adm1":"Steiermark","name_adm2":"Liezen","name_en":"Furrach"},"geometry":{"type":"Point","coordinates":[14.15,47.43333]}},{"type":"feature","properties":{"country_en":"Austria","name":"Furth","name_adm0":"Österreich","name_adm1":"Steiermark","name_adm2":"Deutschlandsberg","name_en":"Furth"},"geometry":{"type":"Point","coordinates":[15.233329999999999,46.85]}},{"type":"feature","properties":{"country_en":"Austria","name":"Großpesendorf","name_adm0":"Österreich","name_adm1":"Steiermark","name_adm2":"Weiz","name_en":"Großpesendorf"},"geometry":{"type":"Point","coordinates":[15.766669999999998,47.14999999999999]}},{"type":"feature","properties":{"country_en":"Austria","name":"Kittenberg","name_adm0":"Österreich","name_adm1":"Steiermark","name_adm2":"Leibnitz","name_en":"Kittenberg"},"geometry":{"type":"Point","coordinates":[15.499999999999998,46.78333]}},{"type":"feature","properties":{"country_en":"Austria","name":"Klaus","name_adm0":"Österreich","name_adm1":"Steiermark","name_adm2":"Liezen","name_en":"Klaus"},"geometry":{"type":"Point","coordinates":[14.999999999999998,47.73333]}},{"type":"feature","properties":{"country_en":"Austria","name":"Muggendorf","name_adm0":"Österreich","name_adm1":"Steiermark","name_adm2":"Feldbach","name_en":"Muggendorf"},"geometry":{"type":"Point","coordinates":[15.86667,46.81667]}},{"type":"feature","properties":{"country_en":"Austria","name":"Mürzhofen","name_adm0":"Österreich","name_adm1":"Steiermark","name_adm2":"Mürzzuschlag","name_en":"Mürzhofen"},"geometry":{"type":"Point","coordinates":[15.316670000000002,47.23333]}},{"type":"feature","properties":{"country_en":"Austria","name":"Neutillmitsch","name_adm0":"Österreich","name_adm1":"Steiermark","name_adm2":"Leibnitz","name_en":"Neutillmitsch"},"geometry":{"type":"Point","coordinates":[15.53333,46.81667]}},{"type":"feature","properties":{"country_en":"Austria","name":"Oberaich","name_adm0":"Österreich","name_adm1":"Steiermark","name_adm2":"Bruck an der Mur","name_en":"Oberaich"},"geometry":{"type":"Point","coordinates":[14.41423,46.80165]}},{"type":"feature","properties":{"country_en":"Austria","name":"Oberfahrenbach","name_adm0":"Österreich","name_adm1":"Steiermark","name_adm2":"Leibnitz","name_en":"Oberfahrenbach"},"geometry":{"type":"Point","coordinates":[15.46667,46.71666999999999]}},{"type":"feature","properties":{"country_en":"Austria","name":"Rettenbach","name_adm0":"Österreich","name_adm1":"Steiermark","name_adm2":"Leibnitz","name_en":"Rettenbach"},"geometry":{"type":"Point","coordinates":[15.516669999999998,46.75]}},{"type":"feature","properties":{"country_en":"Austria","name":"Pöllauberg","name_adm0":"Österreich","name_adm1":"Steiermark","name_adm2":"Hartberg","name_en":"Pöllauberg"},"geometry":{"type":"Point","coordinates":[15.766669999999998,46.85]}},{"type":"feature","properties":{"country_en":"Austria","name":"Preg","name_adm0":"Österreich","name_adm1":"Steiermark","name_adm2":"Knittelfeld","name_en":"Preg"},"geometry":{"type":"Point","coordinates":[14.916670000000002,47.26666999999999]}},{"type":"feature","properties":{"country_en":"Austria","name":"Waiden","name_adm0":"Österreich","name_adm1":"Niederösterreich","name_adm2":"Horn","name_en":"Waiden"},"geometry":{"type":"Point","coordinates":[15.46667,48.68332999999999]}},{"type":"feature","properties":{"country_en":"Austria","name":"Waidmannsfeld","name_adm0":"Österreich","name_adm1":"Niederösterreich","name_adm2":"Wiener Neustadt Land","name_en":"Waidmannsfeld"},"geometry":{"type":"Point","coordinates":[15.981159999999997,47.87042]}},{"type":"feature","properties":{"country_en":"Austria","name":"St. Erhard","name_adm0":"Österreich","name_adm1":"Steiermark","name_adm2":"Bruck an der Mur","name_en":"St. Erhard"},"geometry":{"type":"Point","coordinates":[15.45,47.38333]}},{"type":"feature","properties":{"country_en":"Austria","name":"Sommersgut","name_adm0":"Österreich","name_adm1":"Steiermark","name_adm2":"Hartberg","name_en":"Sommersgut"},"geometry":{"type":"Point","coordinates":[15.799999999999999,47.43333]}},{"type":"feature","properties":{"country_en":"Austria","name":"Wanzenau","name_adm0":"Österreich","name_adm1":"Niederösterreich","name_adm2":"Horn","name_en":"Wanzenau"},"geometry":{"type":"Point","coordinates":[15.6,48.61667]}},{"type":"feature","properties":{"country_en":"Austria","name":"Unterscheffau","name_adm0":"Österreich","name_adm1":"Salzburg","name_adm2":"Hallein","name_en":"Unterscheffau"},"geometry":{"type":"Point","coordinates":[12.697999999999999,47.922]}},{"type":"feature","properties":{"country_en":"Austria","name":"Angath","name_adm0":"Österreich","name_adm1":"Tirol","name_adm2":"Kufstein","name_en":"Angath"},"geometry":{"type":"Point","coordinates":[12.066669999999998,47.5]}},{"type":"feature","properties":{"country_en":"Austria","name":"Anras","name_adm0":"Österreich","name_adm1":"Tirol","name_adm2":"Lienz","name_en":"Anras"},"geometry":{"type":"Point","coordinates":[12.56083,46.77389]}},{"type":"feature","properties":{"country_en":"Austria","name":"Wenten","name_adm0":"Österreich","name_adm1":"Niederösterreich","name_adm2":"Amstetten","name_en":"Wenten"},"geometry":{"type":"Point","coordinates":[14.766670000000001,47.76667]}},{"type":"feature","properties":{"country_en":"Austria","name":"Breitenwang","name_adm0":"Österreich","name_adm1":"Tirol","name_adm2":"Reutte","name_en":"Breitenwang"},"geometry":{"type":"Point","coordinates":[10.73333,47.483329999999995]}},{"type":"feature","properties":{"country_en":"Austria","name":"Brennbichl","name_adm0":"Österreich","name_adm1":"Tirol","name_adm2":"Imst","name_en":"Brennbichl"},"geometry":{"type":"Point","coordinates":[10.75,47.21666999999999]}},{"type":"feature","properties":{"country_en":"Austria","name":"Bruggen","name_adm0":"Österreich","name_adm1":"Tirol","name_adm2":"Lienz","name_en":"Bruggen"},"geometry":{"type":"Point","coordinates":[12.37972,46.91639]}},{"type":"feature","properties":{"country_en":"Austria","name":"Wielands","name_adm0":"Österreich","name_adm1":"Niederösterreich","name_adm2":"Zwettl","name_en":"Wielands"},"geometry":{"type":"Point","coordinates":[15.133329999999999,48.5]}},{"type":"feature","properties":{"country_en":"Austria","name":"Habichen","name_adm0":"Österreich","name_adm1":"Tirol","name_adm2":"Imst","name_en":"Habichen"},"geometry":{"type":"Point","coordinates":[10.9,47.18333]}},{"type":"feature","properties":{"country_en":"Austria","name":"Kleinboden","name_adm0":"Österreich","name_adm1":"Tirol","name_adm2":"Schwaz","name_en":"Kleinboden"},"geometry":{"type":"Point","coordinates":[11.85,47.33333]}},{"type":"feature","properties":{"country_en":"Austria","name":"Pirchhütt","name_adm0":"Österreich","name_adm1":"Tirol","name_adm2":"Imst","name_en":"Untergurgl"},"geometry":{"type":"Point","coordinates":[11.03333,46.88333]}},{"type":"feature","properties":{"country_en":"Austria","name":"Rauth","name_adm0":"Österreich","name_adm1":"Tirol","name_adm2":"Reutte","name_en":"Rauth"},"geometry":{"type":"Point","coordinates":[10.61667,47.46667]}},{"type":"feature","properties":{"country_en":"Austria","name":"Reith bei Kitzbühel","name_adm0":"Österreich","name_adm1":"Tirol","name_adm2":"Kitzbühel","name_en":"Reith"},"geometry":{"type":"Point","coordinates":[12.56667,47.46667]}},{"type":"feature","properties":{"country_en":"Austria","name":"Rinnen","name_adm0":"Österreich","name_adm1":"Tirol","name_adm2":"Reutte","name_en":"Rinnen"},"geometry":{"type":"Point","coordinates":[10.71899,47.40507]}},{"type":"feature","properties":{"country_en":"Austria","name":"St. Gertraudi","name_adm0":"Österreich","name_adm1":"Tirol","name_adm2":"Kufstein","name_en":"St. Gertraudi"},"geometry":{"type":"Point","coordinates":[11.85,47.41667]}},{"type":"feature","properties":{"country_en":"Austria","name":"Stummerberg","name_adm0":"Österreich","name_adm1":"Tirol","name_adm2":"Schwaz","name_en":"Stummerberg"},"geometry":{"type":"Point","coordinates":[11.916669999999998,47.28333]}},{"type":"feature","properties":{"country_en":"Austria","name":"Brederis","name_adm0":"Österreich","name_adm1":"Vorarlberg","name_adm2":"Feldkirch","name_en":"Brederis"},"geometry":{"type":"Point","coordinates":[9.60789,47.27772]}},{"type":"feature","properties":{"country_en":"Austria","name":"Jetzmund","name_adm0":"Österreich","name_adm1":"Vorarlberg","name_adm2":"Bludenz","name_en":"Jetzmund"},"geometry":{"type":"Point","coordinates":[9.866669999999997,47.099999999999994]}},{"type":"feature","properties":{"country_en":"Austria","name":"Zöbring","name_adm0":"Österreich","name_adm1":"Niederösterreich","name_adm2":"Melk","name_en":"Zöbring"},"geometry":{"type":"Point","coordinates":[15.149999999999999,48.316669999999995]}},{"type":"feature","properties":{"country_en":"Austria","name":"Marul","name_adm0":"Österreich","name_adm1":"Vorarlberg","name_adm2":"Bludenz","name_en":"Marul"},"geometry":{"type":"Point","coordinates":[9.866669999999997,47.2]}},{"type":"feature","properties":{"country_en":"Austria","name":"Andling","name_adm0":"Österreich","name_adm1":"Oberösterreich","name_adm2":"Grieskirchen","name_en":"Andling"},"geometry":{"type":"Point","coordinates":[13.809729999999998,48.36748]}},{"type":"feature","properties":{"country_en":"Austria","name":"Eggerding","name_adm0":"Österreich","name_adm1":"Oberösterreich","name_adm2":"Schärding","name_en":"Eggerding"},"geometry":{"type":"Point","coordinates":[13.477129999999999,48.34901]}},{"type":"feature","properties":{"country_en":"Austria","name":"Eggerding","name_adm0":"Österreich","name_adm1":"Oberösterreich","name_adm2":"Grieskirchen","name_en":"Eggerding"},"geometry":{"type":"Point","coordinates":[13.73333,48.13333]}},{"type":"feature","properties":{"country_en":"Austria","name":"Freudenthal","name_adm0":"Österreich","name_adm1":"Oberösterreich","name_adm2":"Freistadt","name_en":"Freudenthal"},"geometry":{"type":"Point","coordinates":[14.43552,48.53332]}},{"type":"feature","properties":{"country_en":"Austria","name":"Freundorf","name_adm0":"Österreich","name_adm1":"Oberösterreich","name_adm2":"Rohrbach","name_en":"Freundorf"},"geometry":{"type":"Point","coordinates":[13.89273,48.7041]}},{"type":"feature","properties":{"country_en":"Austria","name":"Harrau","name_adm0":"Österreich","name_adm1":"Oberösterreich","name_adm2":"Rohrbach","name_en":"Harrau"},"geometry":{"type":"Point","coordinates":[13.845689999999998,48.483729999999994]}},{"type":"feature","properties":{"country_en":"Austria","name":"Heiligenberg","name_adm0":"Österreich","name_adm1":"Oberösterreich","name_adm2":"Grieskirchen","name_en":"Heiligenberg"},"geometry":{"type":"Point","coordinates":[13.82037,48.35494]}},{"type":"feature","properties":{"country_en":"Austria","name":"Heiligenleithen","name_adm0":"Österreich","name_adm1":"Oberösterreich","name_adm2":"Kirchdorf an der Krems","name_en":"Heiligenleithen"},"geometry":{"type":"Point","coordinates":[14.0074,47.94273999999999]}},{"type":"feature","properties":{"country_en":"Austria","name":"Innernsee","name_adm0":"Österreich","name_adm1":"Oberösterreich","name_adm2":"Grieskirchen","name_en":"Innernsee"},"geometry":{"type":"Point","coordinates":[13.69317,48.21364]}},{"type":"feature","properties":{"country_en":"Austria","name":"Radkersburg","name_adm0":"Österreich","name_adm1":"Steiermark","name_adm2":"Radkersburg","name_en":"Radkersburg"},"geometry":{"type":"Point","coordinates":[15.994376999999998,46.775611]}},{"type":"feature","properties":{"country_en":"Austria","name":"Lacken","name_adm0":"Österreich","name_adm1":"Oberösterreich","name_adm2":"Urfahr-Umgebung","name_en":"Lacken"},"geometry":{"type":"Point","coordinates":[14.08944,48.38222]}},{"type":"feature","properties":{"country_en":"Austria","name":"Loibersdorf","name_adm0":"Österreich","name_adm1":"Oberösterreich","name_adm2":"Steyr-Land","name_en":"Loibersdorf"},"geometry":{"type":"Point","coordinates":[14.350000000000001,48.06667]}},{"type":"feature","properties":{"country_en":"Austria","name":"Neuhofen im Innkreis","name_adm0":"Österreich","name_adm1":"Oberösterreich","name_adm2":"Ried im Innkreis","name_en":"Neuhofen"},"geometry":{"type":"Point","coordinates":[13.4725,48.19052]}},{"type":"feature","properties":{"country_en":"Austria","name":"Niederunterstetten","name_adm0":"Österreich","name_adm1":"Oberösterreich","name_adm2":"Grieskirchen","name_en":"Unterstetten"},"geometry":{"type":"Point","coordinates":[13.76667,48.24999999999999]}},{"type":"feature","properties":{"country_en":"Austria","name":"Niederwaldkirchen","name_adm0":"Österreich","name_adm1":"Oberösterreich","name_adm2":"Rohrbach","name_en":"Niederwaldkirchen"},"geometry":{"type":"Point","coordinates":[14.085499999999998,48.45044]}},{"type":"feature","properties":{"country_en":"Austria","name":"Nußbach","name_adm0":"Österreich","name_adm1":"Oberösterreich","name_adm2":"Kirchdorf an der Krems","name_en":"Nußbach"},"geometry":{"type":"Point","coordinates":[14.16387,47.97246]}},{"type":"feature","properties":{"country_en":"Austria","name":"Oberhörnbach","name_adm0":"Österreich","name_adm1":"Oberösterreich","name_adm2":"Perg","name_en":"Oberhörnbach"},"geometry":{"type":"Point","coordinates":[14.793260000000002,48.22822]}},{"type":"feature","properties":{"country_en":"Austria","name":"Piberschlag","name_adm0":"Österreich","name_adm1":"Oberösterreich","name_adm2":"Rohrbach","name_en":"Piberschlag"},"geometry":{"type":"Point","coordinates":[14.17442,48.56337]}},{"type":"feature","properties":{"country_en":"Austria","name":"Pühret","name_adm0":"Österreich","name_adm1":"Oberösterreich","name_adm2":"Vöcklabruck","name_en":"Pühret"},"geometry":{"type":"Point","coordinates":[13.8329,48.20746]}},{"type":"feature","properties":{"country_en":"Austria","name":"Rath","name_adm0":"Österreich","name_adm1":"Oberösterreich","name_adm2":"Linz-Land","name_en":"Rath"},"geometry":{"type":"Point","coordinates":[14.166179999999999,48.09471]}},{"type":"feature","properties":{"country_en":"Austria","name":"Rutzenham","name_adm0":"Österreich","name_adm1":"Oberösterreich","name_adm2":"Vöcklabruck","name_en":"Rutzenham"},"geometry":{"type":"Point","coordinates":[12.79279,47.98714]}},{"type":"feature","properties":{"country_en":"Austria","name":"Rutzing","name_adm0":"Österreich","name_adm1":"Oberösterreich","name_adm2":"Linz-Land","name_en":"Rutzing"},"geometry":{"type":"Point","coordinates":[14.18524,48.20511]}},{"type":"feature","properties":{"country_en":"Austria","name":"Sachsenberg","name_adm0":"Österreich","name_adm1":"Oberösterreich","name_adm2":"Schärding","name_en":"Sachsenberg"},"geometry":{"type":"Point","coordinates":[13.45748,48.48857]}},{"type":"feature","properties":{"country_en":"Austria","name":"Salaberg","name_adm0":"Österreich","name_adm1":"Oberösterreich","name_adm2":"Rohrbach","name_en":"Salaberg"},"geometry":{"type":"Point","coordinates":[13.936409999999999,48.59523]}},{"type":"feature","properties":{"country_en":"Austria","name":"Schönleithen","name_adm0":"Österreich","name_adm1":"Oberösterreich","name_adm2":"Eferding","name_en":"Schönleithen"},"geometry":{"type":"Point","coordinates":[14.01667,48.4]}},{"type":"feature","properties":{"country_en":"Austria","name":"Strass","name_adm0":"Österreich","name_adm1":"Oberösterreich","name_adm2":"Grieskirchen","name_en":"Strass"},"geometry":{"type":"Point","coordinates":[13.6309,48.22196]}},{"type":"feature","properties":{"country_en":"Austria","name":"Weeg","name_adm0":"Österreich","name_adm1":"Oberösterreich","name_adm2":"Schärding","name_en":"Weeg"},"geometry":{"type":"Point","coordinates":[13.61667,48.51667]}},{"type":"feature","properties":{"country_en":"Austria","name":"Zupfing","name_adm0":"Österreich","name_adm1":"Oberösterreich","name_adm2":"Grieskirchen","name_en":"Zupfing"},"geometry":{"type":"Point","coordinates":[13.67094,48.24817]}},{"type":"feature","properties":{"country_en":"Austria","name":"Aigelsbrunn","name_adm0":"Österreich","name_adm1":"Salzburg","name_adm2":"Salzburg-Umgebung","name_en":"Aigelsbrunn"},"geometry":{"type":"Point","coordinates":[13.299999999999999,47.98333]}},{"type":"feature","properties":{"country_en":"Austria","name":"Laderding","name_adm0":"Österreich","name_adm1":"Salzburg","name_adm2":"Skt. Johann im Pongau","name_en":"Laderding"},"geometry":{"type":"Point","coordinates":[13.11667,47.2]}},{"type":"feature","properties":{"country_en":"Austria","name":"Matzing","name_adm0":"Österreich","name_adm1":"Salzburg","name_adm2":"Salzburg-Umgebung","name_en":"Matzing"},"geometry":{"type":"Point","coordinates":[13.06667,47.95]}},{"type":"feature","properties":{"country_en":"Austria","name":"Obernberg","name_adm0":"Österreich","name_adm1":"Salzburg","name_adm2":"Salzburg-Umgebung","name_en":"Obernberg"},"geometry":{"type":"Point","coordinates":[13.11667,47.96667]}},{"type":"feature","properties":{"country_en":"Austria","name":"Viehausen","name_adm0":"Österreich","name_adm1":"Salzburg","name_adm2":"Salzburg-Umgebung","name_en":"Viehhausen"},"geometry":{"type":"Point","coordinates":[12.98333,47.78333]}},{"type":"feature","properties":{"country_en":"Austria","name":"Altenhof","name_adm0":"Österreich","name_adm1":"Steiermark","name_adm2":"Weiz","name_en":"Altenhof"},"geometry":{"type":"Point","coordinates":[15.53333,47.21666999999999]}},{"type":"feature","properties":{"country_en":"Austria","name":"Attendorf","name_adm0":"Österreich","name_adm1":"Steiermark","name_adm2":"Graz-Umgebung","name_en":"Attendorf"},"geometry":{"type":"Point","coordinates":[14.63333,46.68333]}},{"type":"feature","properties":{"country_en":"Austria","name":"Bodendorf","name_adm0":"Österreich","name_adm1":"Steiermark","name_adm2":"Murau","name_en":"Bodendorf"},"geometry":{"type":"Point","coordinates":[14.05472,47.11]}},{"type":"feature","properties":{"country_en":"Austria","name":"Gabraun","name_adm0":"Österreich","name_adm1":"Steiermark","name_adm2":"Bruck an der Mur","name_en":"Gabraun"},"geometry":{"type":"Point","coordinates":[15.366669999999997,47.38333]}},{"type":"feature","properties":{"country_en":"Austria","name":"Moos","name_adm0":"Österreich","name_adm1":"Steiermark","name_adm2":"Deutschlandsberg","name_en":"Moos"},"geometry":{"type":"Point","coordinates":[15.249999999999998,46.76666999999999]}},{"type":"feature","properties":{"country_en":"Austria","name":"Obertillmitsch","name_adm0":"Österreich","name_adm1":"Steiermark","name_adm2":"Leibnitz","name_en":"Ober Tilmitsch"},"geometry":{"type":"Point","coordinates":[15.53333,46.8]}},{"type":"feature","properties":{"country_en":"Austria","name":"Pöllau bei Gleisdorf","name_adm0":"Österreich","name_adm1":"Steiermark","name_adm2":"Weiz","name_en":"Pöllau bei Gleisdorf"},"geometry":{"type":"Point","coordinates":[15.799999999999999,47.06667]}},{"type":"feature","properties":{"country_en":"Austria","name":"Pöls an der Wieserbahn","name_adm0":"Österreich","name_adm1":"Steiermark","name_adm2":"Graz-Umgebung","name_en":"Pöls an der Wieserbahn"},"geometry":{"type":"Point","coordinates":[15.399999999999999,46.88333]}},{"type":"feature","properties":{"country_en":"Austria","name":"Schäffern","name_adm0":"Österreich","name_adm1":"Steiermark","name_adm2":"Hartberg","name_en":"Schäffern"},"geometry":{"type":"Point","coordinates":[16.13333,46.9]}},{"type":"feature","properties":{"country_en":"Austria","name":"Aich","name_adm0":"Österreich","name_adm1":"Oberösterreich","name_adm2":"Ried im Innkreis","name_en":"Aich"},"geometry":{"type":"Point","coordinates":[13.73051,48.06040999999999]}},{"type":"feature","properties":{"country_en":"Austria","name":"Aichberg","name_adm0":"Österreich","name_adm1":"Oberösterreich","name_adm2":"Schärding","name_en":"Aichberg-Buchen"},"geometry":{"type":"Point","coordinates":[14.099719999999998,48.25694]}},{"type":"feature","properties":{"country_en":"Austria","name":"Aichet","name_adm0":"Österreich","name_adm1":"Oberösterreich","name_adm2":"Vöcklabruck","name_en":"Aichet"},"geometry":{"type":"Point","coordinates":[13.686559999999998,48.35613]}},{"type":"feature","properties":{"country_en":"Austria","name":"Aigen","name_adm0":"Österreich","name_adm1":"Oberösterreich","name_adm2":"Braunau am Inn","name_en":"Aigen"},"geometry":{"type":"Point","coordinates":[13.259729999999998,48.30729]}},{"type":"feature","properties":{"country_en":"Austria","name":"Aigen","name_adm0":"Österreich","name_adm1":"Oberösterreich","name_adm2":"Vöcklabruck","name_en":"Aigen"},"geometry":{"type":"Point","coordinates":[13.53333,47.7]}},{"type":"feature","properties":{"country_en":"Austria","name":"Aigen","name_adm0":"Österreich","name_adm1":"Niederösterreich","name_adm2":"Amstetten","name_en":"Aigen"},"geometry":{"type":"Point","coordinates":[15.3618,48.09241]}},{"type":"feature","properties":{"country_en":"Austria","name":"An der Stadlhütte","name_adm0":"Österreich","name_adm1":"Niederösterreich","name_adm2":"Wien-Umgebung","name_en":"An der Stadlhütte"},"geometry":{"type":"Point","coordinates":[16.12484,48.18193999999999]}},{"type":"feature","properties":{"country_en":"Austria","name":"Anger","name_adm0":"Österreich","name_adm1":"Niederösterreich","name_adm2":"Scheibbs","name_en":"Anger"},"geometry":{"type":"Point","coordinates":[14.63333,47.85]}},{"type":"feature","properties":{"country_en":"Austria","name":"Anger","name_adm0":"Österreich","name_adm1":"Steiermark","name_adm2":"Liezen","name_en":"Anger"},"geometry":{"type":"Point","coordinates":[13.81667,47.6]}},{"type":"feature","properties":{"country_en":"Austria","name":"Atzmanning","name_adm0":"Österreich","name_adm1":"Oberösterreich","name_adm2":"Schärding","name_en":"Atzmanning"},"geometry":{"type":"Point","coordinates":[12.50671,48.31609]}},{"type":"feature","properties":{"country_en":"Austria","name":"Au","name_adm0":"Österreich","name_adm1":"Oberösterreich","name_adm2":"Steyr-Land","name_en":"Au"},"geometry":{"type":"Point","coordinates":[14.733329999999999,48]}},{"type":"feature","properties":{"country_en":"Austria","name":"Au","name_adm0":"Österreich","name_adm1":"Oberösterreich","name_adm2":"Urfahr-Umgebung","name_en":"Au"},"geometry":{"type":"Point","coordinates":[14.09611,48.33667]}},{"type":"feature","properties":{"country_en":"Austria","name":"Au","name_adm0":"Österreich","name_adm1":"Salzburg","name_adm2":"Salzburg-Umgebung","name_en":"Au"},"geometry":{"type":"Point","coordinates":[13.06667,47.7]}},{"type":"feature","properties":{"country_en":"Austria","name":"Aufeld","name_adm0":"Österreich","name_adm1":"Niederösterreich","name_adm2":"Bruck an der Leitha","name_en":"Aufeld"},"geometry":{"type":"Point","coordinates":[16.516669999999998,48.43333]}},{"type":"feature","properties":{"country_en":"Austria","name":"Badstuben","name_adm0":"Österreich","name_adm1":"Oberösterreich","name_adm2":"Vöcklabruck","name_en":"Badstuben"},"geometry":{"type":"Point","coordinates":[13.65,47.58332999999999]}},{"type":"feature","properties":{"country_en":"Austria","name":"Berg","name_adm0":"Österreich","name_adm1":"Oberösterreich","name_adm2":"Gmunden","name_en":"Berg"},"geometry":{"type":"Point","coordinates":[14.05,47.93333]}},{"type":"feature","properties":{"country_en":"Austria","name":"Bergen","name_adm0":"Österreich","name_adm1":"Burgenland","name_adm2":"Güssing","name_en":"Bergen"},"geometry":{"type":"Point","coordinates":[15.666669999999998,46.91667]}},{"type":"feature","properties":{"country_en":"Austria","name":"Bsuch","name_adm0":"Österreich","name_adm1":"Salzburg","name_adm2":"Zell am See","name_en":"Bsuch"},"geometry":{"type":"Point","coordinates":[12.47883,48.08036]}},{"type":"feature","properties":{"country_en":"Austria","name":"Dietenberg","name_adm0":"Österreich","name_adm1":"Steiermark","name_adm2":"Voitsberg","name_en":"Dietenberg"},"geometry":{"type":"Point","coordinates":[15.48444,46.8475]}},{"type":"feature","properties":{"country_en":"Austria","name":"Dolintschach","name_adm0":"Österreich","name_adm1":"Kärnten","name_adm2":"Villach Land","name_en":"Dolintschach"},"geometry":{"type":"Point","coordinates":[14.01667,46.55]}},{"type":"feature","properties":{"country_en":"Austria","name":"Dürnberg","name_adm0":"Österreich","name_adm1":"Steiermark","name_adm2":"Murau","name_en":"Dürnberg"},"geometry":{"type":"Point","coordinates":[14.78333,47.28333]}},{"type":"feature","properties":{"country_en":"Austria","name":"Dürwagersbach","name_adm0":"Österreich","name_adm1":"Steiermark","name_adm2":"Graz-Umgebung","name_en":"Dürwagersbach"},"geometry":{"type":"Point","coordinates":[15.53333,47.03332999999999]}},{"type":"feature","properties":{"country_en":"Austria","name":"Eberdorf","name_adm0":"Österreich","name_adm1":"Kärnten","name_adm2":"Skt. Veit an der Glan","name_en":"Eberdorf"},"geometry":{"type":"Point","coordinates":[14.45131,46.895509999999994]}},{"type":"feature","properties":{"country_en":"Austria","name":"Edelhof","name_adm0":"Österreich","name_adm1":"Niederösterreich","name_adm2":"Amstetten","name_en":"Edelhof"},"geometry":{"type":"Point","coordinates":[15.22242,48.60641]}},{"type":"feature","properties":{"country_en":"Austria","name":"Edelsgraben","name_adm0":"Österreich","name_adm1":"Steiermark","name_adm2":"Feldbach","name_en":"Edelsgraben"},"geometry":{"type":"Point","coordinates":[15.93333,46.93333]}},{"type":"feature","properties":{"country_en":"Austria","name":"Ehersdorf","name_adm0":"Österreich","name_adm1":"Oberösterreich","name_adm2":"Braunau am Inn","name_en":"Ehersdorf"},"geometry":{"type":"Point","coordinates":[12.831709999999998,48.31333]}},{"type":"feature","properties":{"country_en":"Austria","name":"Weinberg","name_adm0":"Österreich","name_adm1":"Steiermark","name_adm2":"Hartberg","name_en":"Weinberg"},"geometry":{"type":"Point","coordinates":[15.816669999999998,47.2]}},{"type":"feature","properties":{"country_en":"Austria","name":"Weinberg","name_adm0":"Österreich","name_adm1":"Steiermark","name_adm2":"Graz-Umgebung","name_en":"Weinberg"},"geometry":{"type":"Point","coordinates":[15.46667,47.13333]}},{"type":"feature","properties":{"country_en":"Austria","name":"Wernersdorf","name_adm0":"Österreich","name_adm1":"Steiermark","name_adm2":"Deutschlandsberg","name_en":"Wernersdorf"},"geometry":{"type":"Point","coordinates":[15.766669999999998,47]}},{"type":"feature","properties":{"country_en":"Austria","name":"Wetzelberg","name_adm0":"Österreich","name_adm1":"Steiermark","name_adm2":"Weiz","name_en":"Wetzelberg"},"geometry":{"type":"Point","coordinates":[15.86667,47.46667]}},{"type":"feature","properties":{"country_en":"Austria","name":"Windischbühel","name_adm0":"Österreich","name_adm1":"Steiermark","name_adm2":"Leoben","name_en":"Windischbühel"},"geometry":{"type":"Point","coordinates":[14.96667,47.4]}},{"type":"feature","properties":{"country_en":"Austria","name":"Eigelsberg","name_adm0":"Österreich","name_adm1":"Oberösterreich","name_adm2":"Braunau am Inn","name_en":"Eigelsberg"},"geometry":{"type":"Point","coordinates":[12.938069999999998,49.09852]}},{"type":"feature","properties":{"country_en":"Austria","name":"Etzelbach","name_adm0":"Österreich","name_adm1":"Oberösterreich","name_adm2":"Schärding","name_en":"Etzelbach"},"geometry":{"type":"Point","coordinates":[14.30167,48.37333]}},{"type":"feature","properties":{"country_en":"Austria","name":"Falkenberg","name_adm0":"Österreich","name_adm1":"Oberösterreich","name_adm2":"Rohrbach","name_en":"Falkenberg"},"geometry":{"type":"Point","coordinates":[14.08333,47.5]}},{"type":"feature","properties":{"country_en":"Austria","name":"Freundorf","name_adm0":"Österreich","name_adm1":"Oberösterreich","name_adm2":"Schärding","name_en":"Freundorf"},"geometry":{"type":"Point","coordinates":[13.558329999999998,48.50083]}},{"type":"feature","properties":{"country_en":"Austria","name":"Fricken","name_adm0":"Österreich","name_adm1":"Tirol","name_adm2":"Reutte","name_en":"Fricken"},"geometry":{"type":"Point","coordinates":[10.46611,47.51361]}},{"type":"feature","properties":{"country_en":"Austria","name":"Fronberg","name_adm0":"Österreich","name_adm1":"Oberösterreich","name_adm2":"Grieskirchen","name_en":"Fronberg"},"geometry":{"type":"Point","coordinates":[14.02122,48.24943]}},{"type":"feature","properties":{"country_en":"Austria","name":"Fuchsluken","name_adm0":"Österreich","name_adm1":"Steiermark","name_adm2":"Liezen","name_en":"Fuchsluken"},"geometry":{"type":"Point","coordinates":[14.21667,47.55]}},{"type":"feature","properties":{"country_en":"Austria","name":"Glanz","name_adm0":"Österreich","name_adm1":"Kärnten","name_adm2":"Spittal an der Drau","name_en":"Glanz"},"geometry":{"type":"Point","coordinates":[12.68333,46.86193999999999]}},{"type":"feature","properties":{"country_en":"Austria","name":"Glashütten","name_adm0":"Österreich","name_adm1":"Oberösterreich","name_adm2":"Urfahr-Umgebung","name_en":"Glashütten"},"geometry":{"type":"Point","coordinates":[14.30528,48.48056]}},{"type":"feature","properties":{"country_en":"Austria","name":"Hals","name_adm0":"Österreich","name_adm1":"Oberösterreich","name_adm2":"Urfahr-Umgebung","name_en":"Hals"},"geometry":{"type":"Point","coordinates":[14.19322,48.40206]}},{"type":"feature","properties":{"country_en":"Austria","name":"Hamet","name_adm0":"Österreich","name_adm1":"Oberösterreich","name_adm2":"Rohrbach","name_en":"Hameth"},"geometry":{"type":"Point","coordinates":[13.81778,48.50139]}},{"type":"feature","properties":{"country_en":"Austria","name":"Hofötz","name_adm0":"Österreich","name_adm1":"Oberösterreich","name_adm2":"Schärding","name_en":"Hofötz"},"geometry":{"type":"Point","coordinates":[13.45611,48.518609999999995]}},{"type":"feature","properties":{"country_en":"Austria","name":"Hofrotte","name_adm0":"Österreich","name_adm1":"Niederösterreich","name_adm2":"Scheibbs","name_en":"Hofrotte"},"geometry":{"type":"Point","coordinates":[15.366669999999997,47.95]}},{"type":"feature","properties":{"country_en":"Austria","name":"Hofstätten","name_adm0":"Österreich","name_adm1":"Steiermark","name_adm2":"Graz-Umgebung","name_en":"Hofstätten"},"geometry":{"type":"Point","coordinates":[15.86667,46.88333]}},{"type":"feature","properties":{"country_en":"Austria","name":"Hörbach","name_adm0":"Österreich","name_adm1":"Oberösterreich","name_adm2":"Grieskirchen","name_en":"Hörbach"},"geometry":{"type":"Point","coordinates":[13.758659999999999,48.12749]}},{"type":"feature","properties":{"country_en":"Austria","name":"Hörgas","name_adm0":"Österreich","name_adm1":"Steiermark","name_adm2":"Voitsberg","name_en":"Hörgas"},"geometry":{"type":"Point","coordinates":[15.299999999999999,47.14999999999999]}},{"type":"feature","properties":{"country_en":"Austria","name":"Hörgstberg","name_adm0":"Österreich","name_adm1":"Niederösterreich","name_adm2":"Melk","name_en":"Hörgstberg"},"geometry":{"type":"Point","coordinates":[14.983329999999999,48.18333]}},{"type":"feature","properties":{"country_en":"Austria","name":"Kappligen","name_adm0":"Österreich","name_adm1":"Oberösterreich","name_adm2":"Vöcklabruck","name_en":"Kappligen"},"geometry":{"type":"Point","coordinates":[13.9,48.15]}},{"type":"feature","properties":{"country_en":"Austria","name":"Karnitzen","name_adm0":"Österreich","name_adm1":"Kärnten","name_adm2":"Hermagor","name_en":"Karnitzen"},"geometry":{"type":"Point","coordinates":[13.61861,46.70611]}},{"type":"feature","properties":{"country_en":"Austria","name":"Katzenberg","name_adm0":"Österreich","name_adm1":"Oberösterreich","name_adm2":"Vöcklabruck","name_en":"Katzenberg"},"geometry":{"type":"Point","coordinates":[13.30101,48.29416]}},{"type":"feature","properties":{"country_en":"Austria","name":"Katzing","name_adm0":"Österreich","name_adm1":"Oberösterreich","name_adm2":"Linz-Land","name_en":"Katzing"},"geometry":{"type":"Point","coordinates":[14.19391,48.29500999999999]}},{"type":"feature","properties":{"country_en":"Austria","name":"Bobojach","name_adm0":"Österreich","name_adm1":"Tirol","name_adm2":"Lienz","name_en":"Bobojach"},"geometry":{"type":"Point","coordinates":[12.4,47.01667]}},{"type":"feature","properties":{"country_en":"Austria","name":"Bockern","name_adm0":"Österreich","name_adm1":"Tirol","name_adm2":"Kitzbühel","name_en":"Bockern"},"geometry":{"type":"Point","coordinates":[12.28847,47.45418]}},{"type":"feature","properties":{"country_en":"Austria","name":"Kleinreith","name_adm0":"Österreich","name_adm1":"Oberösterreich","name_adm2":"Gmunden","name_en":"Kleinreith"},"geometry":{"type":"Point","coordinates":[13.64184,48.27633999999999]}},{"type":"feature","properties":{"country_en":"Austria","name":"Kletzenberg","name_adm0":"Österreich","name_adm1":"Steiermark","name_adm2":"Liezen","name_en":"Kletzenberg"},"geometry":{"type":"Point","coordinates":[14.500000000000002,47.6]}},{"type":"feature","properties":{"country_en":"Austria","name":"Latein","name_adm0":"Österreich","name_adm1":"Salzburg","name_adm2":"Salzburg-Umgebung","name_en":"Latein"},"geometry":{"type":"Point","coordinates":[13.73333,47.78333]}},{"type":"feature","properties":{"country_en":"Austria","name":"Leitersdorf","name_adm0":"Österreich","name_adm1":"Steiermark","name_adm2":"Deutschlandsberg","name_en":"Leitersdorf"},"geometry":{"type":"Point","coordinates":[15.43333,46.85]}},{"type":"feature","properties":{"country_en":"Austria","name":"Lichtenhag","name_adm0":"Österreich","name_adm1":"Oberösterreich","name_adm2":"Urfahr-Umgebung","name_en":"Lichtenhag"},"geometry":{"type":"Point","coordinates":[14.17554,48.376549999999995]}},{"type":"feature","properties":{"country_en":"Austria","name":"Lichtenhof","name_adm0":"Österreich","name_adm1":"Steiermark","name_adm2":"Deutschlandsberg","name_en":"Lichtenhof"},