{"type":"FeatureCollection","features":[{"type":"feature","properties":{"country_en":"Belgium","name":"St.-Mard","name_adm0":"Belgique","name_adm1":"Luxembourg","name_adm2":"Virton","name_en":"St.-Mard"},"geometry":{"type":"Point","coordinates":[5.53427,49.55403]}},{"type":"feature","properties":{"country_en":"Belgium","name":"Thuin","name_adm0":"Belgique","name_adm1":"Hainaut","name_adm2":"Thuin","name_en":"Thuin"},"geometry":{"type":"Point","coordinates":[4.316999999999999,50.35]}},{"type":"feature","properties":{"country_en":"Belgium","name":"Balgerhoek","name_adm0":"Belgique","name_adm1":"Oost-Vlaanderen","name_adm2":"Eeklo","name_en":"Balgerhoeke"},"geometry":{"type":"Point","coordinates":[3.52364,51.20231999999999]}},{"type":"feature","properties":{"country_en":"Belgium","name":"Bierges","name_adm0":"Belgique","name_adm1":"Brabant Wallon","name_adm2":"Nivelles","name_en":"Bierges"},"geometry":{"type":"Point","coordinates":[4.58658,50.71143]}},{"type":"feature","properties":{"country_en":"Belgium","name":"Dessel","name_adm0":"Belgique","name_adm1":"Antwerpen","name_adm2":"Turnhout","name_en":"Desschel"},"geometry":{"type":"Point","coordinates":[5.11448,51.23855]}},{"type":"feature","properties":{"country_en":"Belgium","name":"Eke","name_adm0":"Belgique","name_adm1":"Oost-Vlaanderen","name_adm2":"Gent","name_en":"Eecke"},"geometry":{"type":"Point","coordinates":[3.6396,50.95929]}},{"type":"feature","properties":{"country_en":"Belgium","name":"Erps-Kwerps","name_adm0":"Belgique","name_adm1":"Vlaams Brabant","name_adm2":"Leuven","name_en":"Erps-Querbs"},"geometry":{"type":"Point","coordinates":[4.55984,50.90119]}},{"type":"feature","properties":{"country_en":"Belgium","name":"Erpe","name_adm0":"Belgique","name_adm1":"Oost-Vlaanderen","name_adm2":"Aalst","name_en":"Erpe"},"geometry":{"type":"Point","coordinates":[3.9721899999999994,50.93565]}},{"type":"feature","properties":{"country_en":"Belgium","name":"Feluy","name_adm0":"Belgique","name_adm1":"Hainaut","name_adm2":"Charleroi","name_en":"Feluy"},"geometry":{"type":"Point","coordinates":[4.25098,50.56258]}},{"type":"feature","properties":{"country_en":"Belgium","name":"Heffen","name_adm0":"Belgique","name_adm1":"Antwerpen","name_adm2":"Mechelen","name_en":"Heffen"},"geometry":{"type":"Point","coordinates":[4.415989999999999,51.047219999999996]}},{"type":"feature","properties":{"country_en":"Belgium","name":"Hollogne-sur-Geer","name_adm0":"Belgique","name_adm1":"Liège","name_adm2":"Waremme","name_en":"Hollogne-sur-Geer"},"geometry":{"type":"Point","coordinates":[5.20428,50.676539999999996]}},{"type":"feature","properties":{"country_en":"Belgium","name":"Huy","name_adm0":"Belgique","name_adm1":"Liège","name_adm2":"Huy","name_en":"Huy"},"geometry":{"type":"Point","coordinates":[5.23284,50.51894]}},{"type":"feature","properties":{"country_en":"Belgium","name":"Huldenberg","name_adm0":"Belgique","name_adm1":"Vlaams Brabant","name_adm2":"Leuven","name_en":"Huldenberg"},"geometry":{"type":"Point","coordinates":[4.5831,50.78939]}},{"type":"feature","properties":{"country_en":"Belgium","name":"Lierneux","name_adm0":"Belgique","name_adm1":"Liège","name_adm2":"Verviers","name_en":"Lieurneux"},"geometry":{"type":"Point","coordinates":[5.7923599999999995,50.28477]}},{"type":"feature","properties":{"country_en":"Belgium","name":"Niel-bij-St.-Truiden","name_adm0":"Belgique","name_adm1":"Limburg","name_adm2":"Hasselt","name_en":"Niel-St-Trond"},"geometry":{"type":"Point","coordinates":[5.14204,50.740399999999994]}},{"type":"feature","properties":{"country_en":"Belgium","name":"Recogne","name_adm0":"Belgique","name_adm1":"Luxembourg","name_adm2":"Bastogne","name_en":"Recogne"},"geometry":{"type":"Point","coordinates":[5.73658,50.05229]}},{"type":"feature","properties":{"country_en":"Belgium","name":"Raversijde","name_adm0":"Belgique","name_adm1":"West-Vlaanderen","name_adm2":"Oostende","name_en":"Raversyde"},"geometry":{"type":"Point","coordinates":[2.8619999999999997,51.2058]}},{"type":"feature","properties":{"country_en":"Belgium","name":"Sart Tilman","name_adm0":"Belgique","name_adm1":"Liège","name_adm2":"Liège","name_en":"Sart Tilman"},"geometry":{"type":"Point","coordinates":[5.57104,50.590579999999996]}},{"type":"feature","properties":{"country_en":"Belgium","name":"Stabroek","name_adm0":"Belgique","name_adm1":"Antwerpen","name_adm2":"Antwerpen","name_en":"Stabroeck"},"geometry":{"type":"Point","coordinates":[4.37127,51.33189]}},{"type":"feature","properties":{"country_en":"Belgium","name":"Sinaai","name_adm0":"Belgique","name_adm1":"Oost-Vlaanderen","name_adm2":"St.-Niklaas","name_en":"Sinay"},"geometry":{"type":"Point","coordinates":[4.04087,51.15789]}},{"type":"feature","properties":{"country_en":"Belgium","name":"St-Jans-molenbeek","name_adm0":"Belgique","name_adm1":"Région de Bruxelles-Capitale","name_adm2":"Brussel Hoofdstad","name_en":"St-Jans-molenbeek"},"geometry":{"type":"Point","coordinates":[4.31667,50.85]}},{"type":"feature","properties":{"country_en":"Belgium","name":"Rumes","name_adm0":"Belgique","name_adm1":"Hainaut","name_adm2":"Tournai","name_en":"Rumes"},"geometry":{"type":"Point","coordinates":[3.304867,50.552952]}},{"type":"feature","properties":{"country_en":"Belgium","name":"Mortier","name_adm0":"Belgique","name_adm1":"Liège","name_adm2":"Liège","name_en":"Mortier"},"geometry":{"type":"Point","coordinates":[5.74327,50.68428]}},{"type":"feature","properties":{"country_en":"Belgium","name":"Mortinsart","name_adm0":"Belgique","name_adm1":"Luxembourg","name_adm2":"Virton","name_en":"Mortinsart"},"geometry":{"type":"Point","coordinates":[5.58701,49.70558]}},{"type":"feature","properties":{"country_en":"Belgium","name":"Moskou","name_adm0":"Belgique","name_adm1":"West-Vlaanderen","name_adm2":"Diksmuide","name_en":"Moscou"},"geometry":{"type":"Point","coordinates":[2.95842,51.06288]}},{"type":"feature","properties":{"country_en":"Belgium","name":"Roanne","name_adm0":"Belgique","name_adm1":"Liège","name_adm2":"Verviers","name_en":"Roanne"},"geometry":{"type":"Point","coordinates":[5.874339999999999,50.41711999999999]}},{"type":"feature","properties":{"country_en":"Belgium","name":"Serville","name_adm0":"Belgique","name_adm1":"Namur","name_adm2":"Dinant","name_en":"Serville"},"geometry":{"type":"Point","coordinates":[4.78016,50.25031]}},{"type":"feature","properties":{"country_en":"Belgium","name":"Fleurus","name_adm0":"Belgique","name_adm1":"Hainaut","name_adm2":"Charleroi","name_en":"Fleurus"},"geometry":{"type":"Point","coordinates":[4.549541,50.482528]}},{"type":"feature","properties":{"country_en":"Belgium","name":"Heers","name_adm0":"Belgique","name_adm1":"Limburg","name_adm2":"Tongeren","name_en":"Heers"},"geometry":{"type":"Point","coordinates":[5.300951,50.753657999999994]}},{"type":"feature","properties":{"country_en":"Belgium","name":"Estinnes","name_adm0":"Belgique","name_adm1":"Hainaut","name_adm2":"Thuin","name_en":"Estinnes"},"geometry":{"type":"Point","coordinates":[4.096420499999999,50.399654999999996]}},{"type":"feature","properties":{"country_en":"Belgium","name":"Rouvroy","name_adm0":"Belgique","name_adm1":"Luxembourg","name_adm2":"Virton","name_en":"Rouvroy"},"geometry":{"type":"Point","coordinates":[5.474452,49.508601999999996]}},{"type":"feature","properties":{"country_en":"Belgium","name":"Barriere de Champlon","name_adm0":"Belgique","name_adm1":"Luxembourg","name_adm2":"Marche-en-Famenne","name_en":"Barriere de Champlon"},"geometry":{"type":"Point","coordinates":[5.3,50.08333]}},{"type":"feature","properties":{"country_en":"Belgium","name":"Aalst St.-Pieter","name_adm0":"Belgique","name_adm1":"Oost-Vlaanderen","name_adm2":"Gent","name_en":"Aalst-Saint Pierre"},"geometry":{"type":"Point","coordinates":[3.71632,51.03055]}},{"type":"feature","properties":{"country_en":"Belgium","name":"Amel","name_adm0":"Belgique","name_adm1":"Liège","name_adm2":"Verviers","name_en":"Amel"},"geometry":{"type":"Point","coordinates":[5.30225,50.84582]}},{"type":"feature","properties":{"country_en":"Belgium","name":"Arbre","name_adm0":"Belgique","name_adm1":"Namur","name_adm2":"Namur","name_en":"Arbre"},"geometry":{"type":"Point","coordinates":[4.82137,50.36611]}},{"type":"feature","properties":{"country_en":"Belgium","name":"Arbre","name_adm0":"Belgique","name_adm1":"Hainaut","name_adm2":"Ath","name_en":"Arbre"},"geometry":{"type":"Point","coordinates":[3.8151699999999997,50.61037]}},{"type":"feature","properties":{"country_en":"Belgium","name":"Balen","name_adm0":"Belgique","name_adm1":"Antwerpen","name_adm2":"Turnhout","name_en":"Baelen"},"geometry":{"type":"Point","coordinates":[5.17027,51.16837]}},{"type":"feature","properties":{"country_en":"Belgium","name":"Bailleul","name_adm0":"Belgique","name_adm1":"Hainaut","name_adm2":"Tournai","name_en":"Bailleul"},"geometry":{"type":"Point","coordinates":[3.31927,50.66908999999999]}},{"type":"feature","properties":{"country_en":"Belgium","name":"Beauwelz","name_adm0":"Belgique","name_adm1":"Hainaut","name_adm2":"Thuin","name_en":"Beauwelz"},"geometry":{"type":"Point","coordinates":[4.15678,50.0143]}},{"type":"feature","properties":{"country_en":"Belgium","name":"Bellevaux","name_adm0":"Belgique","name_adm1":"Luxembourg","name_adm2":"Neufchâteau","name_en":"Bellevaux"},"geometry":{"type":"Point","coordinates":[5.11041,49.84033999999999]}},{"type":"feature","properties":{"country_en":"Belgium","name":"Beaumont","name_adm0":"Belgique","name_adm1":"Hainaut","name_adm2":"Thuin","name_en":"Beaumont"},"geometry":{"type":"Point","coordinates":[4.239259999999999,50.23699]}},{"type":"feature","properties":{"country_en":"Belgium","name":"Beth","name_adm0":"Belgique","name_adm1":"Luxembourg","name_adm2":"Neufchâteau","name_en":"Beth"},"geometry":{"type":"Point","coordinates":[5.12058,49.94309]}},{"type":"feature","properties":{"country_en":"Belgium","name":"Bevingen","name_adm0":"Belgique","name_adm1":"Limburg","name_adm2":"Hasselt","name_en":"Bevinghen"},"geometry":{"type":"Point","coordinates":[5.17674,50.79766]}},{"type":"feature","properties":{"country_en":"Belgium","name":"Bon Air","name_adm0":"Belgique","name_adm1":"Région de Bruxelles-Capitale","name_adm2":"Brussel Hoofdstad","name_en":"Bon Air"},"geometry":{"type":"Point","coordinates":[4.48212,50.59885]}},{"type":"feature","properties":{"country_en":"Belgium","name":"Bomal","name_adm0":"Belgique","name_adm1":"Brabant Wallon","name_adm2":"Nivelles","name_en":"Bomal"},"geometry":{"type":"Point","coordinates":[4.873189999999999,50.67005]}},{"type":"feature","properties":{"country_en":"Belgium","name":"Bonnerue","name_adm0":"Belgique","name_adm1":"Luxembourg","name_adm2":"Bastogne","name_en":"Bonnerue"},"geometry":{"type":"Point","coordinates":[5.7229,50.11813999999999]}},{"type":"feature","properties":{"country_en":"Belgium","name":"Breedveld","name_adm0":"Belgique","name_adm1":"Vlaams Brabant","name_adm2":"Halle-Vilvoorde","name_en":"Breedveld"},"geometry":{"type":"Point","coordinates":[4.27227,50.75609]}},{"type":"feature","properties":{"country_en":"Belgium","name":"Briquemont","name_adm0":"Belgique","name_adm1":"Namur","name_adm2":"Dinant","name_en":"Briquemont"},"geometry":{"type":"Point","coordinates":[5.14395,50.1808]}},{"type":"feature","properties":{"country_en":"Belgium","name":"Brûly-de-Pesche","name_adm0":"Belgique","name_adm1":"Namur","name_adm2":"Philippeville","name_en":"Brûly-de-Pesche"},"geometry":{"type":"Point","coordinates":[4.46465,50.00206]}},{"type":"feature","properties":{"country_en":"Belgium","name":"Brumagne","name_adm0":"Belgique","name_adm1":"Namur","name_adm2":"Namur","name_en":"Brumagne"},"geometry":{"type":"Point","coordinates":[4.95089,50.476729999999996]}},{"type":"feature","properties":{"country_en":"Belgium","name":"Celles","name_adm0":"Belgique","name_adm1":"Namur","name_adm2":"Dinant","name_en":"Cellers"},"geometry":{"type":"Point","coordinates":[5.006589999999999,50.23046]}},{"type":"feature","properties":{"country_en":"Belgium","name":"Champs","name_adm0":"Belgique","name_adm1":"Luxembourg","name_adm2":"Bastogne","name_en":"Champs"},"geometry":{"type":"Point","coordinates":[5.668859999999999,50.03956]}},{"type":"feature","properties":{"country_en":"Belgium","name":"Crisnée","name_adm0":"Belgique","name_adm1":"Liège","name_adm2":"Waremme","name_en":"Crisnée"},"geometry":{"type":"Point","coordinates":[5.39802,50.71703]}},{"type":"feature","properties":{"country_en":"Belgium","name":"Courcelles","name_adm0":"Belgique","name_adm1":"Hainaut","name_adm2":"Charleroi","name_en":"Courcelles"},"geometry":{"type":"Point","coordinates":[4.3747,50.46379]}},{"type":"feature","properties":{"country_en":"Belgium","name":"Curfox","name_adm0":"Belgique","name_adm1":"Luxembourg","name_adm2":"Neufchâteau","name_en":"Curfoz"},"geometry":{"type":"Point","coordinates":[5.066669999999999,49.81667]}},{"type":"feature","properties":{"country_en":"Belgium","name":"Eichem","name_adm0":"Belgique","name_adm1":"Oost-Vlaanderen","name_adm2":"Aalst","name_en":"Eychem"},"geometry":{"type":"Point","coordinates":[3.99014,50.8268]}},{"type":"feature","properties":{"country_en":"Belgium","name":"Eerselingen","name_adm0":"Belgique","name_adm1":"Antwerpen","name_adm2":"Turnhout","name_en":"Eerselingen"},"geometry":{"type":"Point","coordinates":[4.91616,51.2052]}},{"type":"feature","properties":{"country_en":"Belgium","name":"Eghezée","name_adm0":"Belgique","name_adm1":"Namur","name_adm2":"Namur","name_en":"Eghezée"},"geometry":{"type":"Point","coordinates":[4.91175,50.590759999999996]}},{"type":"feature","properties":{"country_en":"Belgium","name":"Erneuville","name_adm0":"Belgique","name_adm1":"Luxembourg","name_adm2":"Marche-en-Famenne","name_en":"Erneuville"},"geometry":{"type":"Point","coordinates":[5.54951,50.11293]}},{"type":"feature","properties":{"country_en":"Belgium","name":"Essen","name_adm0":"Belgique","name_adm1":"Antwerpen","name_adm2":"Antwerpen","name_en":"Esschen"},"geometry":{"type":"Point","coordinates":[4.45393,51.46272]}},{"type":"feature","properties":{"country_en":"Belgium","name":"Flostoy","name_adm0":"Belgique","name_adm1":"Namur","name_adm2":"Dinant","name_en":"Flostoy"},"geometry":{"type":"Point","coordinates":[5.18371,50.38946]}},{"type":"feature","properties":{"country_en":"Belgium","name":"Ganshoren","name_adm0":"Belgique","name_adm1":"Région de Bruxelles-Capitale","name_adm2":"Brussel Hoofdstad","name_en":"Ganshoren"},"geometry":{"type":"Point","coordinates":[4.315309999999999,50.87065]}},{"type":"feature","properties":{"country_en":"Belgium","name":"Géromont","name_adm0":"Belgique","name_adm1":"Liège","name_adm2":"Verviers","name_en":"Géromont"},"geometry":{"type":"Point","coordinates":[6.05539,50.41147]}},{"type":"feature","properties":{"country_en":"Belgium","name":"Froidville","name_adm0":"Belgique","name_adm1":"Liège","name_adm2":"Verviers","name_en":"Froidville"},"geometry":{"type":"Point","coordinates":[5.764139999999999,50.38206999999999]}},{"type":"feature","properties":{"country_en":"Belgium","name":"Graty","name_adm0":"Belgique","name_adm1":"Hainaut","name_adm2":"Soignies","name_en":"Graty"},"geometry":{"type":"Point","coordinates":[3.9962399999999993,50.63172]}},{"type":"feature","properties":{"country_en":"Belgium","name":"Gribomont","name_adm0":"Belgique","name_adm1":"Luxembourg","name_adm2":"Neufchâteau","name_en":"Gribomont"},"geometry":{"type":"Point","coordinates":[5.3243,49.82166]}},{"type":"feature","properties":{"country_en":"Belgium","name":"Guelff","name_adm0":"Belgique","name_adm1":"Luxembourg","name_adm2":"Arlon","name_en":"Guelff"},"geometry":{"type":"Point","coordinates":[5.7596,49.60703]}},{"type":"feature","properties":{"country_en":"Belgium","name":"Grimbiémont","name_adm0":"Belgique","name_adm1":"Luxembourg","name_adm2":"Marche-en-Famenne","name_en":"Grimbiémont"},"geometry":{"type":"Point","coordinates":[5.425339999999999,50.20681]}},{"type":"feature","properties":{"country_en":"Belgium","name":"Groenendijk","name_adm0":"Belgique","name_adm1":"West-Vlaanderen","name_adm2":"Veurne","name_en":"Groenendijk"},"geometry":{"type":"Point","coordinates":[2.7143299999999995,51.131919999999994]}},{"type":"feature","properties":{"country_en":"Belgium","name":"Haute Pré","name_adm0":"Belgique","name_adm1":"Liège","name_adm2":"Liège","name_en":"Haut Pre"},"geometry":{"type":"Point","coordinates":[5.53428,50.60171]}},{"type":"feature","properties":{"country_en":"Belgium","name":"Herlinval","name_adm0":"Belgique","name_adm1":"Luxembourg","name_adm2":"Marche-en-Famenne","name_en":"Herlinval"},"geometry":{"type":"Point","coordinates":[5.63796,50.11395]}},{"type":"feature","properties":{"country_en":"Belgium","name":"Herstappe","name_adm0":"Belgique","name_adm1":"Limburg","name_adm2":"Tongeren","name_en":"Herstappe"},"geometry":{"type":"Point","coordinates":[5.42659,50.72614999999999]}},{"type":"feature","properties":{"country_en":"Belgium","name":"Heyd","name_adm0":"Belgique","name_adm1":"Luxembourg","name_adm2":"Marche-en-Famenne","name_en":"Heyd"},"geometry":{"type":"Point","coordinates":[5.5625,50.34623]}},{"type":"feature","properties":{"country_en":"Belgium","name":"Herent","name_adm0":"Belgique","name_adm1":"Limburg","name_adm2":"Maaseik","name_en":"Herent"},"geometry":{"type":"Point","coordinates":[5.4433,51.20054]}},{"type":"feature","properties":{"country_en":"Belgium","name":"Hermalle-sous-Huy","name_adm0":"Belgique","name_adm1":"Liège","name_adm2":"Huy","name_en":"Hermalle-sous-Huy"},"geometry":{"type":"Point","coordinates":[5.3639,50.5592]}},{"type":"feature","properties":{"country_en":"Belgium","name":"Hérisson","name_adm0":"Belgique","name_adm1":"Namur","name_adm2":"Dinant","name_en":"Hérisson"},"geometry":{"type":"Point","coordinates":[4.88612,49.89173]}},{"type":"feature","properties":{"country_en":"Belgium","name":"Houx","name_adm0":"Belgique","name_adm1":"Namur","name_adm2":"Dinant","name_en":"Houx"},"geometry":{"type":"Point","coordinates":[4.89853,50.30221999999999]}},{"type":"feature","properties":{"country_en":"Belgium","name":"Hubermont","name_adm0":"Belgique","name_adm1":"Luxembourg","name_adm2":"Marche-en-Famenne","name_en":"Hubermont"},"geometry":{"type":"Point","coordinates":[5.62563,50.142179999999996]}},{"type":"feature","properties":{"country_en":"Belgium","name":"Howardries","name_adm0":"Belgique","name_adm1":"Hainaut","name_adm2":"Tournai","name_en":"Howardries"},"geometry":{"type":"Point","coordinates":[3.35599,50.50652]}},{"type":"feature","properties":{"country_en":"Belgium","name":"Hove","name_adm0":"Belgique","name_adm1":"Antwerpen","name_adm2":"Antwerpen","name_en":"Hove"},"geometry":{"type":"Point","coordinates":[4.4707,51.15446]}},{"type":"feature","properties":{"country_en":"Belgium","name":"Jehay-Bodegnée","name_adm0":"Belgique","name_adm1":"Liège","name_adm2":"Huy","name_en":"Jehay"},"geometry":{"type":"Point","coordinates":[5.3238199999999996,50.5731]}},{"type":"feature","properties":{"country_en":"Belgium","name":"Jenneret","name_adm0":"Belgique","name_adm1":"Luxembourg","name_adm2":"Marche-en-Famenne","name_en":"Jenneret"},"geometry":{"type":"Point","coordinates":[5.44563,50.4123]}},{"type":"feature","properties":{"country_en":"Belgium","name":"Jodenville","name_adm0":"Belgique","name_adm1":"Luxembourg","name_adm2":"Bastogne","name_en":"Jodenville"},"geometry":{"type":"Point","coordinates":[5.61151,49.96912]}},{"type":"feature","properties":{"country_en":"Belgium","name":"Kalevoet","name_adm0":"Belgique","name_adm1":"Vlaams Brabant","name_adm2":"Halle-Vilvoorde","name_en":"Kalevoet"},"geometry":{"type":"Point","coordinates":[4.32424,50.78656]}},{"type":"feature","properties":{"country_en":"Belgium","name":"Kesterbeek","name_adm0":"Belgique","name_adm1":"Vlaams Brabant","name_adm2":"Halle-Vilvoorde","name_en":"Kesterbeek"},"geometry":{"type":"Point","coordinates":[4.29432,50.7566]}},{"type":"feature","properties":{"country_en":"Belgium","name":"Kerkem","name_adm0":"Belgique","name_adm1":"Oost-Vlaanderen","name_adm2":"Oudenaarde","name_en":"Kerkhem"},"geometry":{"type":"Point","coordinates":[3.64911,50.79723]}},{"type":"feature","properties":{"country_en":"Belgium","name":"Kerkhoven","name_adm0":"Belgique","name_adm1":"Limburg","name_adm2":"Maaseik","name_en":"Kerkhoven"},"geometry":{"type":"Point","coordinates":[5.26466,51.16232]}},{"type":"feature","properties":{"country_en":"Belgium","name":"Koksijde","name_adm0":"Belgique","name_adm1":"West-Vlaanderen","name_adm2":"Veurne","name_en":"Coxyde"},"geometry":{"type":"Point","coordinates":[2.63772,51.11642]}},{"type":"feature","properties":{"country_en":"Belgium","name":"Knokke","name_adm0":"Belgique","name_adm1":"West-Vlaanderen","name_adm2":"Diksmuide","name_en":"Knocke"},"geometry":{"type":"Point","coordinates":[2.79788,50.97519]}},{"type":"feature","properties":{"country_en":"Belgium","name":"Kreupel","name_adm0":"Belgique","name_adm1":"West-Vlaanderen","name_adm2":"Kortrijk","name_en":"Kreupel"},"geometry":{"type":"Point","coordinates":[3.3361799999999997,50.80139]}},{"type":"feature","properties":{"country_en":"Belgium","name":"Krinkelt","name_adm0":"Belgique","name_adm1":"Liège","name_adm2":"Verviers","name_en":"Krinkelt"},"geometry":{"type":"Point","coordinates":[6.2974,50.43093999999999]}},{"type":"feature","properties":{"country_en":"Belgium","name":"L'Escaillère","name_adm0":"Belgique","name_adm1":"Hainaut","name_adm2":"Thuin","name_en":"L'Escaillère"},"geometry":{"type":"Point","coordinates":[4.43067,49.94503]}},{"type":"feature","properties":{"country_en":"Belgium","name":"Kouter","name_adm0":"Belgique","name_adm1":"Vlaams Brabant","name_adm2":"Halle-Vilvoorde","name_en":"Kouter"},"geometry":{"type":"Point","coordinates":[4.023429999999999,51.0635]}},{"type":"feature","properties":{"country_en":"Belgium","name":"Kortenberg","name_adm0":"Belgique","name_adm1":"Vlaams Brabant","name_adm2":"Leuven","name_en":"Kortenberg"},"geometry":{"type":"Point","coordinates":[4.54353,50.88982]}},{"type":"feature","properties":{"country_en":"Belgium","name":"Leuze","name_adm0":"Belgique","name_adm1":"Hainaut","name_adm2":"Tournai","name_en":"Leuze-en-hainaut"},"geometry":{"type":"Point","coordinates":[3.6,50.6]}},{"type":"feature","properties":{"country_en":"Belgium","name":"Lomré","name_adm0":"Belgique","name_adm1":"Luxembourg","name_adm2":"Bastogne","name_en":"Lomré"},"geometry":{"type":"Point","coordinates":[5.83416,50.20243]}},{"type":"feature","properties":{"country_en":"Belgium","name":"Longeau","name_adm0":"Belgique","name_adm1":"Luxembourg","name_adm2":"Arlon","name_en":"Longeau"},"geometry":{"type":"Point","coordinates":[5.83262,49.57734]}},{"type":"feature","properties":{"country_en":"Belgium","name":"Longlier","name_adm0":"Belgique","name_adm1":"Luxembourg","name_adm2":"Neufchâteau","name_en":"Longlier"},"geometry":{"type":"Point","coordinates":[5.45009,49.85384]}},{"type":"feature","properties":{"country_en":"Belgium","name":"Magoster","name_adm0":"Belgique","name_adm1":"Luxembourg","name_adm2":"Marche-en-Famenne","name_en":"Magoster"},"geometry":{"type":"Point","coordinates":[5.52996,50.25185]}},{"type":"feature","properties":{"country_en":"Belgium","name":"Marche-les-Dames","name_adm0":"Belgique","name_adm1":"Namur","name_adm2":"Namur","name_en":"Marche-les-Dames"},"geometry":{"type":"Point","coordinates":[4.959669999999999,50.48585]}},{"type":"feature","properties":{"country_en":"Belgium","name":"Malmaison","name_adm0":"Belgique","name_adm1":"Luxembourg","name_adm2":"Bastogne","name_en":"Malmaison"},"geometry":{"type":"Point","coordinates":[5.69962,49.89723]}},{"type":"feature","properties":{"country_en":"Belgium","name":"Meeswijk","name_adm0":"Belgique","name_adm1":"Limburg","name_adm2":"Tongeren","name_en":"Meeswyck"},"geometry":{"type":"Point","coordinates":[5.74808,50.99998]}},{"type":"feature","properties":{"country_en":"Belgium","name":"Mertenne","name_adm0":"Belgique","name_adm1":"Namur","name_adm2":"Philippeville","name_en":"Mertenne"},"geometry":{"type":"Point","coordinates":[4.365549999999999,50.26322]}},{"type":"feature","properties":{"country_en":"Belgium","name":"Moensberg","name_adm0":"Belgique","name_adm1":"Vlaams Brabant","name_adm2":"Halle-Vilvoorde","name_en":"Moensberg"},"geometry":{"type":"Point","coordinates":[4.27897,51.17090999999999]}},{"type":"feature","properties":{"country_en":"Belgium","name":"Moerbeke","name_adm0":"Belgique","name_adm1":"Oost-Vlaanderen","name_adm2":"Gent","name_en":"Moerbeke-Waas"},"geometry":{"type":"Point","coordinates":[3.9300100000000002,51.17409]}},{"type":"feature","properties":{"country_en":"Belgium","name":"Messancy","name_adm0":"Belgique","name_adm1":"Luxembourg","name_adm2":"Arlon","name_en":"Messancy"},"geometry":{"type":"Point","coordinates":[5.81878,49.592]}},{"type":"feature","properties":{"country_en":"Belgium","name":"Montleban","name_adm0":"Belgique","name_adm1":"Luxembourg","name_adm2":"Bastogne","name_en":"Montleban"},"geometry":{"type":"Point","coordinates":[5.83544,50.18955]}},{"type":"feature","properties":{"country_en":"Belgium","name":"Monville","name_adm0":"Belgique","name_adm1":"Luxembourg","name_adm2":"Marche-en-Famenne","name_en":"Monville"},"geometry":{"type":"Point","coordinates":[5.43128,50.28618]}},{"type":"feature","properties":{"country_en":"Belgium","name":"Mourcourt","name_adm0":"Belgique","name_adm1":"Hainaut","name_adm2":"Tournai","name_en":"Mourcourt"},"geometry":{"type":"Point","coordinates":[3.4446799999999995,50.65322]}},{"type":"feature","properties":{"country_en":"Belgium","name":"Mürringen","name_adm0":"Belgique","name_adm1":"Liège","name_adm2":"Verviers","name_en":"Murrange"},"geometry":{"type":"Point","coordinates":[6.301689999999999,50.4077]}},{"type":"feature","properties":{"country_en":"Belgium","name":"Neerheylissem","name_adm0":"Belgique","name_adm1":"Brabant Wallon","name_adm2":"Nivelles","name_en":"Helecine"},"geometry":{"type":"Point","coordinates":[4.9883,50.75839]}},{"type":"feature","properties":{"country_en":"Belgium","name":"Ninove","name_adm0":"Belgique","name_adm1":"Oost-Vlaanderen","name_adm2":"Aalst","name_en":"Ninove"},"geometry":{"type":"Point","coordinates":[4.02657,50.82776]}},{"type":"feature","properties":{"country_en":"Belgium","name":"Nil-St.-Vincent-Saint-Martin","name_adm0":"Belgique","name_adm1":"Brabant Wallon","name_adm2":"Nivelles","name_en":"Nil-St.-Vincent-Saint-Martin"},"geometry":{"type":"Point","coordinates":[4.68172,50.64330999999999]}},{"type":"feature","properties":{"country_en":"Belgium","name":"Niverlée","name_adm0":"Belgique","name_adm1":"Namur","name_adm2":"Philippeville","name_en":"Niverlée"},"geometry":{"type":"Point","coordinates":[4.70225,50.11797]}},{"type":"feature","properties":{"country_en":"Belgium","name":"Ophoven","name_adm0":"Belgique","name_adm1":"Limburg","name_adm2":"Maaseik","name_en":"Ophoven"},"geometry":{"type":"Point","coordinates":[5.569679999999999,51.08221]}},{"type":"feature","properties":{"country_en":"Belgium","name":"Ophem","name_adm0":"Belgique","name_adm1":"Vlaams Brabant","name_adm2":"Leuven","name_en":"Oppem"},"geometry":{"type":"Point","coordinates":[4.654819999999999,50.83498]}},{"type":"feature","properties":{"country_en":"Belgium","name":"Opwijk","name_adm0":"Belgique","name_adm1":"Vlaams Brabant","name_adm2":"Halle-Vilvoorde","name_en":"Opwyck"},"geometry":{"type":"Point","coordinates":[4.18442,50.96724]}},{"type":"feature","properties":{"country_en":"Belgium","name":"Petitvoir","name_adm0":"Belgique","name_adm1":"Luxembourg","name_adm2":"Neufchâteau","name_en":"Petitvoir"},"geometry":{"type":"Point","coordinates":[5.37376,49.84328]}},{"type":"feature","properties":{"country_en":"Belgium","name":"Platluis","name_adm0":"Belgique","name_adm1":"Antwerpen","name_adm2":"Antwerpen","name_en":"Platluis"},"geometry":{"type":"Point","coordinates":[4.33333,51.37833]}},{"type":"feature","properties":{"country_en":"Belgium","name":"Plombières","name_adm0":"Belgique","name_adm1":"Liège","name_adm2":"Verviers","name_en":"Plombières"},"geometry":{"type":"Point","coordinates":[5.95922,50.73656]}},{"type":"feature","properties":{"country_en":"Belgium","name":"Radelange","name_adm0":"Belgique","name_adm1":"Luxembourg","name_adm2":"Arlon","name_en":"Radelange"},"geometry":{"type":"Point","coordinates":[5.7232199999999995,49.842119999999994]}},{"type":"feature","properties":{"country_en":"Belgium","name":"Ramegnies","name_adm0":"Belgique","name_adm1":"Hainaut","name_adm2":"Ath","name_en":"Rameignies"},"geometry":{"type":"Point","coordinates":[3.63476,50.5442]}},{"type":"feature","properties":{"country_en":"Belgium","name":"Rivage","name_adm0":"Belgique","name_adm1":"Liège","name_adm2":"Verviers","name_en":"Rivage"},"geometry":{"type":"Point","coordinates":[5.96696,50.41822]}},{"type":"feature","properties":{"country_en":"Belgium","name":"Revogne","name_adm0":"Belgique","name_adm1":"Namur","name_adm2":"Dinant","name_en":"Revogne"},"geometry":{"type":"Point","coordinates":[5.04568,50.09395]}},{"type":"feature","properties":{"country_en":"Belgium","name":"Rijnrode","name_adm0":"Belgique","name_adm1":"Vlaams Brabant","name_adm2":"Leuven","name_en":"Rynrode"},"geometry":{"type":"Point","coordinates":[5.03608,50.93296]}},{"type":"feature","properties":{"country_en":"Belgium","name":"Roeulx","name_adm0":"Belgique","name_adm1":"Hainaut","name_adm2":"Soignies","name_en":"Le Roeulx"},"geometry":{"type":"Point","coordinates":[4.11163,50.50365]}},{"type":"feature","properties":{"country_en":"Belgium","name":"Roodebeek","name_adm0":"Belgique","name_adm1":"Région de Bruxelles-Capitale","name_adm2":"Brussel Hoofdstad","name_en":"Roodebeek"},"geometry":{"type":"Point","coordinates":[4.417489999999999,50.84580999999999]}},{"type":"feature","properties":{"country_en":"Belgium","name":"Rumes","name_adm0":"Belgique","name_adm1":"Hainaut","name_adm2":"Tournai","name_en":"Rumes"},"geometry":{"type":"Point","coordinates":[3.3053499999999993,50.55449999999999]}},{"type":"feature","properties":{"country_en":"Belgium","name":"Rulles","name_adm0":"Belgique","name_adm1":"Luxembourg","name_adm2":"Virton","name_en":"Rulles"},"geometry":{"type":"Point","coordinates":[5.5596,49.71805]}},{"type":"feature","properties":{"country_en":"Belgium","name":"Russeignies","name_adm0":"Belgique","name_adm1":"Hainaut","name_adm2":"Tournai","name_en":"Rozenaken"},"geometry":{"type":"Point","coordinates":[3.53155,50.74452]}},{"type":"feature","properties":{"country_en":"Belgium","name":"Sauheid","name_adm0":"Belgique","name_adm1":"Liège","name_adm2":"Liège","name_en":"Sauheid"},"geometry":{"type":"Point","coordinates":[5.6,50.6]}},{"type":"feature","properties":{"country_en":"Belgium","name":"Senonchamps","name_adm0":"Belgique","name_adm1":"Luxembourg","name_adm2":"Bastogne","name_en":"Senonchamps"},"geometry":{"type":"Point","coordinates":[5.65856,50.00079]}},{"type":"feature","properties":{"country_en":"Belgium","name":"Serinchamps","name_adm0":"Belgique","name_adm1":"Namur","name_adm2":"Dinant","name_en":"Serinchamps"},"geometry":{"type":"Point","coordinates":[5.23018,50.231339999999996]}},{"type":"feature","properties":{"country_en":"Belgium","name":"Speelberg","name_adm0":"Belgique","name_adm1":"Vlaams Brabant","name_adm2":"Halle-Vilvoorde","name_en":"Speelberg"},"geometry":{"type":"Point","coordinates":[4.77726,50.91321]}},{"type":"feature","properties":{"country_en":"Belgium","name":"St. Gilles","name_adm0":"Belgique","name_adm1":"Liège","name_adm2":"Liège","name_en":"St. Gilles"},"geometry":{"type":"Point","coordinates":[5.54561,50.62807]}},{"type":"feature","properties":{"country_en":"Belgium","name":"Spixhe","name_adm0":"Belgique","name_adm1":"Liège","name_adm2":"Verviers","name_en":"Spixhe"},"geometry":{"type":"Point","coordinates":[5.82026,50.52112]}},{"type":"feature","properties":{"country_en":"Belgium","name":"St.-Jacobs-Kapelle","name_adm0":"Belgique","name_adm1":"West-Vlaanderen","name_adm2":"Diksmuide","name_en":"St-Jacques-Cappelle"},"geometry":{"type":"Point","coordinates":[2.8345,51.01667]}},{"type":"feature","properties":{"country_en":"Belgium","name":"St.-Amands","name_adm0":"Belgique","name_adm1":"Antwerpen","name_adm2":"Mechelen","name_en":"St-Amand"},"geometry":{"type":"Point","coordinates":[4.20957,51.05644999999999]}},{"type":"feature","properties":{"country_en":"Belgium","name":"Tavigny","name_adm0":"Belgique","name_adm1":"Luxembourg","name_adm2":"Bastogne","name_en":"Tavigny"},"geometry":{"type":"Point","coordinates":[5.83786,50.10847]}},{"type":"feature","properties":{"country_en":"Belgium","name":"Te Hamme","name_adm0":"Belgique","name_adm1":"Vlaams Brabant","name_adm2":"Halle-Vilvoorde","name_en":"Te Hamme"},"geometry":{"type":"Point","coordinates":[4.14638,50.81499]}},{"type":"feature","properties":{"country_en":"Belgium","name":"Tereiken","name_adm0":"Belgique","name_adm1":"Limburg","name_adm2":"Tongeren","name_en":"Tereiken"},"geometry":{"type":"Point","coordinates":[5.28691,50.83066]}},{"type":"feature","properties":{"country_en":"Belgium","name":"Vaux-sur-Sûre","name_adm0":"Belgique","name_adm1":"Luxembourg","name_adm2":"Bastogne","name_en":"Vaux-sur-Sûre"},"geometry":{"type":"Point","coordinates":[5.578479999999999,49.910999999999994]}},{"type":"feature","properties":{"country_en":"Belgium","name":"Tubize","name_adm0":"Belgique","name_adm1":"Brabant Wallon","name_adm2":"Nivelles","name_en":"Tubeke"},"geometry":{"type":"Point","coordinates":[4.2009,50.69059]}},{"type":"feature","properties":{"country_en":"Belgium","name":"Trois-Fontaines","name_adm0":"Belgique","name_adm1":"Région de Bruxelles-Capitale","name_adm2":"Brussel Hoofdstad","name_en":"Trois-Fontaines"},"geometry":{"type":"Point","coordinates":[4.79432,50.12558]}},{"type":"feature","properties":{"country_en":"Belgium","name":"Trognée","name_adm0":"Belgique","name_adm1":"Liège","name_adm2":"Waremme","name_en":"Truielingen"},"geometry":{"type":"Point","coordinates":[5.1242,50.68691]}},{"type":"feature","properties":{"country_en":"Belgium","name":"Vaulx","name_adm0":"Belgique","name_adm1":"Hainaut","name_adm2":"Thuin","name_en":"Vaulx-lez-Chimay"},"geometry":{"type":"Point","coordinates":[4.36509,50.06166]}},{"type":"feature","properties":{"country_en":"Belgium","name":"Vaux","name_adm0":"Belgique","name_adm1":"Luxembourg","name_adm2":"Bastogne","name_en":"Vaux"},"geometry":{"type":"Point","coordinates":[5.75409,50.07659]}},{"type":"feature","properties":{"country_en":"Belgium","name":"Villers-sur-Lesse","name_adm0":"Belgique","name_adm1":"Namur","name_adm2":"Dinant","name_en":"Villers-sur-Lesse"},"geometry":{"type":"Point","coordinates":[5.1129,50.15276]}},{"type":"feature","properties":{"country_en":"Belgium","name":"Verre","name_adm0":"Belgique","name_adm1":"Namur","name_adm2":"Dinant","name_en":"Ver"},"geometry":{"type":"Point","coordinates":[5.05687,50.19775]}},{"type":"feature","properties":{"country_en":"Belgium","name":"Vosselaar","name_adm0":"Belgique","name_adm1":"Antwerpen","name_adm2":"Turnhout","name_en":"Vosselaer"},"geometry":{"type":"Point","coordinates":[4.8896,51.30856]}},{"type":"feature","properties":{"country_en":"Belgium","name":"Vorselaar","name_adm0":"Belgique","name_adm1":"Antwerpen","name_adm2":"Turnhout","name_en":"Vorsselaer"},"geometry":{"type":"Point","coordinates":[4.77259,51.20243]}},{"type":"feature","properties":{"country_en":"Belgium","name":"Walhain-St.-Paul","name_adm0":"Belgique","name_adm1":"Brabant Wallon","name_adm2":"Nivelles","name_en":"Walhain"},"geometry":{"type":"Point","coordinates":[4.694769999999999,50.61679999999999]}},{"type":"feature","properties":{"country_en":"Belgium","name":"Wambeek","name_adm0":"Belgique","name_adm1":"Vlaams Brabant","name_adm2":"Halle-Vilvoorde","name_en":"Wambeek"},"geometry":{"type":"Point","coordinates":[4.50517,50.91992]}},{"type":"feature","properties":{"country_en":"Belgium","name":"Wancennes","name_adm0":"Belgique","name_adm1":"Namur","name_adm2":"Dinant","name_en":"Wancennes"},"geometry":{"type":"Point","coordinates":[4.96131,50.09137]}},{"type":"feature","properties":{"country_en":"Belgium","name":"Warnant","name_adm0":"Belgique","name_adm1":"Namur","name_adm2":"Dinant","name_en":"Warnant"},"geometry":{"type":"Point","coordinates":[4.84274,50.32327]}},{"type":"feature","properties":{"country_en":"Belgium","name":"Watrinsart","name_adm0":"Belgique","name_adm1":"Luxembourg","name_adm2":"Virton","name_en":"Watrinsart"},"geometry":{"type":"Point","coordinates":[5.20415,49.71417]}},{"type":"feature","properties":{"country_en":"Belgium","name":"Wattermal","name_adm0":"Belgique","name_adm1":"Luxembourg","name_adm2":"Bastogne","name_en":"Wathermal"},"geometry":{"type":"Point","coordinates":[5.98224,50.18067]}},{"type":"feature","properties":{"country_en":"Belgium","name":"Wattripont","name_adm0":"Belgique","name_adm1":"Hainaut","name_adm2":"Ath","name_en":"Wattripont"},"geometry":{"type":"Point","coordinates":[3.55,50.71667]}},{"type":"feature","properties":{"country_en":"Belgium","name":"Wayaux","name_adm0":"Belgique","name_adm1":"Hainaut","name_adm2":"Charleroi","name_en":"Wayaux"},"geometry":{"type":"Point","coordinates":[4.47324,50.48957]}},{"type":"feature","properties":{"country_en":"Belgium","name":"Wasseiges","name_adm0":"Belgique","name_adm1":"Liège","name_adm2":"Waremme","name_en":"Wasseiges"},"geometry":{"type":"Point","coordinates":[5.005279999999999,50.62186]}},{"type":"feature","properties":{"country_en":"Belgium","name":"Wolkrange","name_adm0":"Belgique","name_adm1":"Luxembourg","name_adm2":"Arlon","name_en":"Wolkrange"},"geometry":{"type":"Point","coordinates":[5.79877,49.62882]}},{"type":"feature","properties":{"country_en":"Belgium","name":"Wulveringem","name_adm0":"Belgique","name_adm1":"West-Vlaanderen","name_adm2":"Veurne","name_en":"Wulveringhem"},"geometry":{"type":"Point","coordinates":[2.65453,51.01488]}},{"type":"feature","properties":{"country_en":"Belgium","name":"Wommelghem","name_adm0":"Belgique","name_adm1":"Antwerpen","name_adm2":"Antwerpen","name_en":"Wommelghem"},"geometry":{"type":"Point","coordinates":[4.5225,51.20452]}},{"type":"feature","properties":{"country_en":"Belgium","name":"Zeverdonk","name_adm0":"Belgique","name_adm1":"Antwerpen","name_adm2":"Turnhout","name_en":"Severdonck"},"geometry":{"type":"Point","coordinates":[4.94601,51.28939]}},{"type":"feature","properties":{"country_en":"Belgium","name":"Zulte","name_adm0":"Belgique","name_adm1":"Oost-Vlaanderen","name_adm2":"Gent","name_en":"Zulte"},"geometry":{"type":"Point","coordinates":[3.44859,50.91954]}},{"type":"feature","properties":{"country_en":"Belgium","name":"Zelzate","name_adm0":"Belgique","name_adm1":"Oost-Vlaanderen","name_adm2":"Eeklo","name_en":"Selzaet"},"geometry":{"type":"Point","coordinates":[3.8077699999999997,51.189629999999994]}},{"type":"feature","properties":{"country_en":"Belgium","name":"Chaineux","name_adm0":"Belgique","name_adm1":"Liège","name_adm2":"Verviers","name_en":"Chaineux"},"geometry":{"type":"Point","coordinates":[5.834779999999999,50.631829999999994]}},{"type":"feature","properties":{"country_en":"Belgium","name":"Forrières","name_adm0":"Belgique","name_adm1":"Luxembourg","name_adm2":"Marche-en-Famenne","name_en":"Forrières"},"geometry":{"type":"Point","coordinates":[5.28268,50.13132]}},{"type":"feature","properties":{"country_en":"Belgium","name":"Nives","name_adm0":"Belgique","name_adm1":"Luxembourg","name_adm2":"Bastogne","name_en":"Nives"},"geometry":{"type":"Point","coordinates":[5.60141,49.91276]}},{"type":"feature","properties":{"country_en":"Belgium","name":"Verviers","name_adm0":"Belgique","name_adm1":"Liège","name_adm2":"Verviers","name_en":"Verviers"},"geometry":{"type":"Point","coordinates":[6.114835,50.484381]}},{"type":"feature","properties":{"country_en":"Belgium","name":"Kortenberg","name_adm0":"Belgique","name_adm1":"Vlaams Brabant","name_adm2":"Leuven","name_en":"Kortenberg"},"geometry":{"type":"Point","coordinates":[4.546514999999999,50.888866]}},{"type":"feature","properties":{"country_en":"Belgium","name":"Olen","name_adm0":"Belgique","name_adm1":"Antwerpen","name_adm2":"Turnhout","name_en":"Olen"},"geometry":{"type":"Point","coordinates":[4.86005,51.14383999999999]}},{"type":"feature","properties":{"country_en":"Belgium","name":"Lierneux","name_adm0":"Belgique","name_adm1":"Liège","name_adm2":"Verviers","name_en":"Lierneux"},"geometry":{"type":"Point","coordinates":[5.793981,50.298866]}},{"type":"feature","properties":{"country_en":"Belgium","name":"Lanaken","name_adm0":"Belgique","name_adm1":"Limburg","name_adm2":"Tongeren","name_en":"Lanaken"},"geometry":{"type":"Point","coordinates":[5.6875985,50.855359]}},{"type":"feature","properties":{"country_en":"Belgium","name":"Bütgenbach","name_adm0":"Belgique","name_adm1":"Liège","name_adm2":"Verviers","name_en":"Bütgenbach"},"geometry":{"type":"Point","coordinates":[6.2042875,50.4557]}},{"type":"feature","properties":{"country_en":"Belgium","name":"Eppegem","name_adm0":"Belgique","name_adm1":"Vlaams Brabant","name_adm2":"Halle-Vilvoorde","name_en":"Eppeghem"},"geometry":{"type":"Point","coordinates":[4.45513,50.96237]}},{"type":"feature","properties":{"country_en":"Belgium","name":"Achterbroek","name_adm0":"Belgique","name_adm1":"Antwerpen","name_adm2":"Antwerpen","name_en":"Achterbroek"},"geometry":{"type":"Point","coordinates":[4.50027,51.3968]}},{"type":"feature","properties":{"country_en":"Belgium","name":"Ambresin","name_adm0":"Belgique","name_adm1":"Liège","name_adm2":"Waremme","name_en":"Ambresin"},"geometry":{"type":"Point","coordinates":[5.03097,50.63068]}},{"type":"feature","properties":{"country_en":"Belgium","name":"Angre","name_adm0":"Belgique","name_adm1":"Hainaut","name_adm2":"Mons","name_en":"Angre"},"geometry":{"type":"Point","coordinates":[3.6953499999999995,50.36583]}},{"type":"feature","properties":{"country_en":"Belgium","name":"Anseroeul","name_adm0":"Belgique","name_adm1":"Hainaut","name_adm2":"Tournai","name_en":"Anseroeul"},"geometry":{"type":"Point","coordinates":[3.5237,50.72739]}},{"type":"feature","properties":{"country_en":"Belgium","name":"Anthée","name_adm0":"Belgique","name_adm1":"Namur","name_adm2":"Dinant","name_en":"Anthée"},"geometry":{"type":"Point","coordinates":[4.76197,50.240179999999995]}},{"type":"feature","properties":{"country_en":"Belgium","name":"Autre-Église","name_adm0":"Belgique","name_adm1":"Brabant Wallon","name_adm2":"Nivelles","name_en":"Autre-Église"},"geometry":{"type":"Point","coordinates":[4.90381,50.66921]}},{"type":"feature","properties":{"country_en":"Belgium","name":"Baronville","name_adm0":"Belgique","name_adm1":"Namur","name_adm2":"Dinant","name_en":"Baronville"},"geometry":{"type":"Point","coordinates":[4.9431,50.12708]}},{"type":"feature","properties":{"country_en":"Belgium","name":"Bavegem","name_adm0":"Belgique","name_adm1":"Oost-Vlaanderen","name_adm2":"Aalst","name_en":"Baevegem"},"geometry":{"type":"Point","coordinates":[3.8649599999999995,50.94435]}},{"type":"feature","properties":{"country_en":"Belgium","name":"Behême","name_adm0":"Belgique","name_adm1":"Luxembourg","name_adm2":"Neufchâteau","name_en":"Behême"},"geometry":{"type":"Point","coordinates":[5.603899999999999,49.78426]}},{"type":"feature","properties":{"country_en":"Belgium","name":"Beigem","name_adm0":"Belgique","name_adm1":"Vlaams Brabant","name_adm2":"Halle-Vilvoorde","name_en":"Beigem"},"geometry":{"type":"Point","coordinates":[4.36908,50.94911]}},{"type":"feature","properties":{"country_en":"Belgium","name":"Bernister","name_adm0":"Belgique","name_adm1":"Liège","name_adm2":"Verviers","name_en":"Bernister"},"geometry":{"type":"Point","coordinates":[6.01293,50.43617999999999]}},{"type":"feature","properties":{"country_en":"Belgium","name":"Bierset","name_adm0":"Belgique","name_adm1":"Liège","name_adm2":"Liège","name_en":"Bierset"},"geometry":{"type":"Point","coordinates":[5.45102,50.654959999999996]}},{"type":"feature","properties":{"country_en":"Belgium","name":"Blaugies","name_adm0":"Belgique","name_adm1":"Hainaut","name_adm2":"Mons","name_en":"Blaugies"},"geometry":{"type":"Point","coordinates":[3.8058199999999998,50.37218]}},{"type":"feature","properties":{"country_en":"Belgium","name":"Binkom","name_adm0":"Belgique","name_adm1":"Vlaams Brabant","name_adm2":"Leuven","name_en":"Binkom"},"geometry":{"type":"Point","coordinates":[4.8841399999999995,50.87164]}},{"type":"feature","properties":{"country_en":"Belgium","name":"Boorsem","name_adm0":"Belgique","name_adm1":"Limburg","name_adm2":"Tongeren","name_en":"Boorsheim"},"geometry":{"type":"Point","coordinates":[5.718979999999999,50.94206]}},{"type":"feature","properties":{"country_en":"Belgium","name":"Bovesse","name_adm0":"Belgique","name_adm1":"Namur","name_adm2":"Namur","name_en":"Bovesse"},"geometry":{"type":"Point","coordinates":[4.78086,50.51938]}},{"type":"feature","properties":{"country_en":"Belgium","name":"Branchon","name_adm0":"Belgique","name_adm1":"Namur","name_adm2":"Namur","name_en":"Branchon"},"geometry":{"type":"Point","coordinates":[4.97337,50.62899]}},{"type":"feature","properties":{"country_en":"Belgium","name":"Bourdon","name_adm0":"Belgique","name_adm1":"Luxembourg","name_adm2":"Marche-en-Famenne","name_en":"Bourdon"},"geometry":{"type":"Point","coordinates":[5.39644,50.24719]}},{"type":"feature","properties":{"country_en":"Belgium","name":"Bunsbeek","name_adm0":"Belgique","name_adm1":"Vlaams Brabant","name_adm2":"Leuven","name_en":"Bunsbeek"},"geometry":{"type":"Point","coordinates":[4.94522,50.84172]}},{"type":"feature","properties":{"country_en":"Belgium","name":"Champlon","name_adm0":"Belgique","name_adm1":"Luxembourg","name_adm2":"Marche-en-Famenne","name_en":"Champlon"},"geometry":{"type":"Point","coordinates":[5.50192,50.10819]}},{"type":"feature","properties":{"country_en":"Belgium","name":"Champlon Famenne","name_adm0":"Belgique","name_adm1":"Luxembourg","name_adm2":"Marche-en-Famenne","name_en":"Champlon Famenne"},"geometry":{"type":"Point","coordinates":[5.377699999999999,50.21708]}},{"type":"feature","properties":{"country_en":"Belgium","name":"Ciplet","name_adm0":"Belgique","name_adm1":"Liège","name_adm2":"Waremme","name_en":"Ciplet"},"geometry":{"type":"Point","coordinates":[5.09027,50.61756]}},{"type":"feature","properties":{"country_en":"Belgium","name":"Cornesse","name_adm0":"Belgique","name_adm1":"Liège","name_adm2":"Verviers","name_en":"Cornesse"},"geometry":{"type":"Point","coordinates":[5.79615,50.57272]}},{"type":"feature","properties":{"country_en":"Belgium","name":"Coutisse","name_adm0":"Belgique","name_adm1":"Namur","name_adm2":"Namur","name_en":"Coutisse"},"geometry":{"type":"Point","coordinates":[5.1168,50.46297]}},{"type":"feature","properties":{"country_en":"Belgium","name":"Corroy-le-Grand","name_adm0":"Belgique","name_adm1":"Brabant Wallon","name_adm2":"Nivelles","name_en":"Corroy-le-Grand"},"geometry":{"type":"Point","coordinates":[4.674,50.66306]}},{"type":"feature","properties":{"country_en":"Belgium","name":"Dampicourt","name_adm0":"Belgique","name_adm1":"Luxembourg","name_adm2":"Virton","name_en":"Dampicourt"},"geometry":{"type":"Point","coordinates":[5.4983,49.55426]}},{"type":"feature","properties":{"country_en":"Belgium","name":"Dergneau","name_adm0":"Belgique","name_adm1":"Hainaut","name_adm2":"Ath","name_en":"Dergneau"},"geometry":{"type":"Point","coordinates":[3.58004,50.71399]}},{"type":"feature","properties":{"country_en":"Belgium","name":"Dikkelvenne","name_adm0":"Belgique","name_adm1":"Oost-Vlaanderen","name_adm2":"Gent","name_en":"Dickelvenne"},"geometry":{"type":"Point","coordinates":[3.69507,50.91927]}},{"type":"feature","properties":{"country_en":"Belgium","name":"Duisburg","name_adm0":"Belgique","name_adm1":"Vlaams Brabant","name_adm2":"Leuven","name_en":"Duysbourg"},"geometry":{"type":"Point","coordinates":[4.55533,50.81584]}},{"type":"feature","properties":{"country_en":"Belgium","name":"Ede","name_adm0":"Belgique","name_adm1":"Oost-Vlaanderen","name_adm2":"Aalst","name_en":"Eede"},"geometry":{"type":"Point","coordinates":[3.9872600000000005,50.91174999999999]}},{"type":"feature","properties":{"country_en":"Belgium","name":"Ellemelle","name_adm0":"Belgique","name_adm1":"Liège","name_adm2":"Huy","name_en":"Ellemelle"},"geometry":{"type":"Point","coordinates":[5.44338,50.46748]}},{"type":"feature","properties":{"country_en":"Belgium","name":"Eizeringen","name_adm0":"Belgique","name_adm1":"Vlaams Brabant","name_adm2":"Halle-Vilvoorde","name_en":"Eyseringhen"},"geometry":{"type":"Point","coordinates":[4.13695,50.83326]}},{"type":"feature","properties":{"country_en":"Belgium","name":"Engelmanshoven","name_adm0":"Belgique","name_adm1":"Limburg","name_adm2":"Hasselt","name_en":"Engelmanshoven"},"geometry":{"type":"Point","coordinates":[5.25267,50.77208]}},{"type":"feature","properties":{"country_en":"Belgium","name":"Épinois","name_adm0":"Belgique","name_adm1":"Hainaut","name_adm2":"Thuin","name_en":"Épinois"},"geometry":{"type":"Point","coordinates":[4.20666,50.406]}},{"type":"feature","properties":{"country_en":"Belgium","name":"Ernonheid","name_adm0":"Belgique","name_adm1":"Liège","name_adm2":"Liège","name_en":"Ernonheid"},"geometry":{"type":"Point","coordinates":[5.66706,50.4037]}},{"type":"feature","properties":{"country_en":"Belgium","name":"Erquennes","name_adm0":"Belgique","name_adm1":"Hainaut","name_adm2":"Mons","name_en":"Erquennes"},"geometry":{"type":"Point","coordinates":[3.7911400000000004,50.35937]}},{"type":"feature","properties":{"country_en":"Belgium","name":"Ernage","name_adm0":"Belgique","name_adm1":"Namur","name_adm2":"Namur","name_en":"Ernage"},"geometry":{"type":"Point","coordinates":[4.67588,50.59484]}},{"type":"feature","properties":{"country_en":"Belgium","name":"Faymonville","name_adm0":"Belgique","name_adm1":"Liège","name_adm2":"Verviers","name_en":"Faymonville"},"geometry":{"type":"Point","coordinates":[6.14058,50.40316]}},{"type":"feature","properties":{"country_en":"Belgium","name":"Fays","name_adm0":"Belgique","name_adm1":"Liège","name_adm2":"Verviers","name_en":"Fays"},"geometry":{"type":"Point","coordinates":[5.8632599999999995,50.54541]}},{"type":"feature","properties":{"country_en":"Belgium","name":"Folx-les-Caves","name_adm0":"Belgique","name_adm1":"Brabant Wallon","name_adm2":"Nivelles","name_en":"Folx-les-Caves"},"geometry":{"type":"Point","coordinates":[4.93783,50.66118]}},{"type":"feature","properties":{"country_en":"Belgium","name":"Fontenelle","name_adm0":"Belgique","name_adm1":"Namur","name_adm2":"Philippeville","name_en":"Fontenelle"},"geometry":{"type":"Point","coordinates":[4.38333,50.24797]}},{"type":"feature","properties":{"country_en":"Belgium","name":"Fronville","name_adm0":"Belgique","name_adm1":"Luxembourg","name_adm2":"Marche-en-Famenne","name_en":"Fronville"},"geometry":{"type":"Point","coordinates":[5.42214,50.29423]}},{"type":"feature","properties":{"country_en":"Belgium","name":"Freux","name_adm0":"Belgique","name_adm1":"Luxembourg","name_adm2":"Neufchâteau","name_en":"Freux"},"geometry":{"type":"Point","coordinates":[5.44944,49.97112]}},{"type":"feature","properties":{"country_en":"Belgium","name":"Froidfontaine","name_adm0":"Belgique","name_adm1":"Namur","name_adm2":"Dinant","name_en":"Froidfontaine"},"geometry":{"type":"Point","coordinates":[5.00028,50.06]}},{"type":"feature","properties":{"country_en":"Belgium","name":"Froidmont","name_adm0":"Belgique","name_adm1":"Hainaut","name_adm2":"Tournai","name_en":"Froidmont"},"geometry":{"type":"Point","coordinates":[3.32962,50.57719999999999]}},{"type":"feature","properties":{"country_en":"Belgium","name":"Gerdingen","name_adm0":"Belgique","name_adm1":"Limburg","name_adm2":"Maaseik","name_en":"Gerdingen"},"geometry":{"type":"Point","coordinates":[5.5814,51.14818]}},{"type":"feature","properties":{"country_en":"Belgium","name":"Ghoy","name_adm0":"Belgique","name_adm1":"Hainaut","name_adm2":"Soignies","name_en":"Ghoy"},"geometry":{"type":"Point","coordinates":[3.8098299999999994,50.72834]}},{"type":"feature","properties":{"country_en":"Belgium","name":"Givroulle","name_adm0":"Belgique","name_adm1":"Luxembourg","name_adm2":"Bastogne","name_en":"Givroulle"},"geometry":{"type":"Point","coordinates":[5.61363,50.05929]}},{"type":"feature","properties":{"country_en":"Belgium","name":"Gijzenzele","name_adm0":"Belgique","name_adm1":"Oost-Vlaanderen","name_adm2":"Gent","name_en":"Gysenzeele"},"geometry":{"type":"Point","coordinates":[3.8169800000000005,50.971]}},{"type":"feature","properties":{"country_en":"Belgium","name":"Gottem","name_adm0":"Belgique","name_adm1":"Oost-Vlaanderen","name_adm2":"Gent","name_en":"Gotthem"},"geometry":{"type":"Point","coordinates":[3.46389,50.96419]}},{"type":"feature","properties":{"country_en":"Belgium","name":"Gontrode","name_adm0":"Belgique","name_adm1":"Oost-Vlaanderen","name_adm2":"Gent","name_en":"Gontrode"},"geometry":{"type":"Point","coordinates":[3.7975600000000003,50.9838]}},{"type":"feature","properties":{"country_en":"Belgium","name":"Gondregnies","name_adm0":"Belgique","name_adm1":"Hainaut","name_adm2":"Soignies","name_en":"Gondregnies"},"geometry":{"type":"Point","coordinates":[3.9104499999999995,50.62638]}},{"type":"feature","properties":{"country_en":"Belgium","name":"Grand-Rosière-Hottomont","name_adm0":"Belgique","name_adm1":"Brabant Wallon","name_adm2":"Nivelles","name_en":"Grand-Rosière-Hottomont"},"geometry":{"type":"Point","coordinates":[4.865569999999999,50.63193]}},{"type":"feature","properties":{"country_en":"Belgium","name":"Goetsenhoven","name_adm0":"Belgique","name_adm1":"Vlaams Brabant","name_adm2":"Leuven","name_en":"Gossoncourt"},"geometry":{"type":"Point","coordinates":[4.95157,50.76881999999999]}},{"type":"feature","properties":{"country_en":"Belgium","name":"Grasheide","name_adm0":"Belgique","name_adm1":"Antwerpen","name_adm2":"Mechelen","name_en":"Grasheide"},"geometry":{"type":"Point","coordinates":[4.660289999999999,51.02815]}},{"type":"feature","properties":{"country_en":"Belgium","name":"Grootlo","name_adm0":"Belgique","name_adm1":"Antwerpen","name_adm2":"Mechelen","name_en":"Grootloo"},"geometry":{"type":"Point","coordinates":[4.71029,51.01342999999999]}},{"type":"feature","properties":{"country_en":"Belgium","name":"Gutschoven","name_adm0":"Belgique","name_adm1":"Limburg","name_adm2":"Tongeren","name_en":"Gossoncourt"},"geometry":{"type":"Point","coordinates":[5.31725,50.7743]}},{"type":"feature","properties":{"country_en":"Belgium","name":"Grotenberge","name_adm0":"Belgique","name_adm1":"Oost-Vlaanderen","name_adm2":"Aalst","name_en":"Grootenberge"},"geometry":{"type":"Point","coordinates":[3.8227800000000003,50.87331999999999]}},{"type":"feature","properties":{"country_en":"Belgium","name":"Gruitrode","name_adm0":"Belgique","name_adm1":"Limburg","name_adm2":"Maaseik","name_en":"Gruitrode"},"geometry":{"type":"Point","coordinates":[5.58824,51.08936]}},{"type":"feature","properties":{"country_en":"Belgium","name":"Haasdonk","name_adm0":"Belgique","name_adm1":"Oost-Vlaanderen","name_adm2":"St.-Niklaas","name_en":"Haasdonk"},"geometry":{"type":"Point","coordinates":[4.24137,51.18151]}},{"type":"feature","properties":{"country_en":"Belgium","name":"Halle","name_adm0":"Belgique","name_adm1":"Antwerpen","name_adm2":"Antwerpen","name_en":"Halle"},"geometry":{"type":"Point","coordinates":[4.81124,51.43057]}},{"type":"feature","properties":{"country_en":"Belgium","name":"Hanret","name_adm0":"Belgique","name_adm1":"Namur","name_adm2":"Namur","name_en":"Hanret"},"geometry":{"type":"Point","coordinates":[4.9483999999999995,50.58155]}},{"type":"feature","properties":{"country_en":"Belgium","name":"Harfontaine","name_adm0":"Belgique","name_adm1":"Luxembourg","name_adm2":"Neufchâteau","name_en":"Harfontaine"},"geometry":{"type":"Point","coordinates":[5.37413,49.82300999999999]}},{"type":"feature","properties":{"country_en":"Belgium","name":"Heiende","name_adm0":"Belgique","name_adm1":"Oost-Vlaanderen","name_adm2":"St.-Niklaas","name_en":"Heiende"},"geometry":{"type":"Point","coordinates":[3.95874,51.08627]}},{"type":"feature","properties":{"country_en":"Belgium","name":"Henis","name_adm0":"Belgique","name_adm1":"Limburg","name_adm2":"Tongeren","name_en":"Henis"},"geometry":{"type":"Point","coordinates":[5.47033,50.79986]}},{"type":"feature","properties":{"country_en":"Belgium","name":"Herhout","name_adm0":"Belgique","name_adm1":"Vlaams Brabant","name_adm2":"Halle-Vilvoorde","name_en":"Herhout"},"geometry":{"type":"Point","coordinates":[3.96,50.72908]}},{"type":"feature","properties":{"country_en":"Belgium","name":"Hérinnes","name_adm0":"Belgique","name_adm1":"Hainaut","name_adm2":"Tournai","name_en":"Herinnes-lez-Pecq"},"geometry":{"type":"Point","coordinates":[3.36323,50.70062999999999]}},{"type":"feature","properties":{"country_en":"Belgium","name":"Hoelbeek","name_adm0":"Belgique","name_adm1":"Limburg","name_adm2":"Tongeren","name_en":"Hoelbeek"},"geometry":{"type":"Point","coordinates":[5.55911,50.87209]}},{"type":"feature","properties":{"country_en":"Belgium","name":"Heusy","name_adm0":"Belgique","name_adm1":"Liège","name_adm2":"Verviers","name_en":"Heusy"},"geometry":{"type":"Point","coordinates":[5.86618,50.57457]}},{"type":"feature","properties":{"country_en":"Belgium","name":"Hotte","name_adm0":"Belgique","name_adm1":"Luxembourg","name_adm2":"Bastogne","name_en":"Hotte"},"geometry":{"type":"Point","coordinates":[5.66203,49.87634]}},{"type":"feature","properties":{"country_en":"Belgium","name":"Houtain-L'évêque","name_adm0":"Belgique","name_adm1":"Vlaams Brabant","name_adm2":"Leuven","name_en":"Walshoutem"},"geometry":{"type":"Point","coordinates":[5.08333,50.71667]}},{"type":"feature","properties":{"country_en":"Belgium","name":"Houdremont","name_adm0":"Belgique","name_adm1":"Namur","name_adm2":"Dinant","name_en":"Houdremont"},"geometry":{"type":"Point","coordinates":[4.94463,49.94154999999999]}},{"type":"feature","properties":{"country_en":"Belgium","name":"Hulst","name_adm0":"Belgique","name_adm1":"Limburg","name_adm2":"Hasselt","name_en":"Hulst"},"geometry":{"type":"Point","coordinates":[5.12731,51.07102]}},{"type":"feature","properties":{"country_en":"Belgium","name":"Hulzen","name_adm0":"Belgique","name_adm1":"Antwerpen","name_adm2":"Turnhout","name_en":"Hulse"},"geometry":{"type":"Point","coordinates":[5.11448,51.147209999999994]}},{"type":"feature","properties":{"country_en":"Belgium","name":"Impde","name_adm0":"Belgique","name_adm1":"Vlaams Brabant","name_adm2":"Halle-Vilvoorde","name_en":"Impe"},"geometry":{"type":"Point","coordinates":[4.30707,50.97382999999999]}},{"type":"feature","properties":{"country_en":"Belgium","name":"Jamagne","name_adm0":"Belgique","name_adm1":"Namur","name_adm2":"Philippeville","name_en":"Jamagne"},"geometry":{"type":"Point","coordinates":[4.53037,50.21773]}},{"type":"feature","properties":{"country_en":"Belgium","name":"Impe","name_adm0":"Belgique","name_adm1":"Oost-Vlaanderen","name_adm2":"Aalst","name_en":"Impe"},"geometry":{"type":"Point","coordinates":[3.9501,50.96048]}},{"type":"feature","properties":{"country_en":"Belgium","name":"Jauche","name_adm0":"Belgique","name_adm1":"Brabant Wallon","name_adm2":"Nivelles","name_en":"Geten"},"geometry":{"type":"Point","coordinates":[4.955629999999999,50.68136]}},{"type":"feature","properties":{"country_en":"Belgium","name":"Jauchelette","name_adm0":"Belgique","name_adm1":"Brabant Wallon","name_adm2":"Nivelles","name_en":"Jauchelette"},"geometry":{"type":"Point","coordinates":[4.84364,50.6867]}},{"type":"feature","properties":{"country_en":"Belgium","name":"Kapellen","name_adm0":"Belgique","name_adm1":"Vlaams Brabant","name_adm2":"Leuven","name_en":"Cappellen"},"geometry":{"type":"Point","coordinates":[4.95174,50.88593]}},{"type":"feature","properties":{"country_en":"Belgium","name":"Jupille","name_adm0":"Belgique","name_adm1":"Luxembourg","name_adm2":"Marche-en-Famenne","name_en":"Jupille"},"geometry":{"type":"Point","coordinates":[5.5376,50.20844]}},{"type":"feature","properties":{"country_en":"Belgium","name":"Journal","name_adm0":"Belgique","name_adm1":"Luxembourg","name_adm2":"Marche-en-Famenne","name_en":"Journal"},"geometry":{"type":"Point","coordinates":[5.50604,50.11813999999999]}},{"type":"feature","properties":{"country_en":"Belgium","name":"Kerksken","name_adm0":"Belgique","name_adm1":"Oost-Vlaanderen","name_adm2":"Aalst","name_en":"Kerckxken"},"geometry":{"type":"Point","coordinates":[3.99478,50.89068]}},{"type":"feature","properties":{"country_en":"Belgium","name":"Kattem","name_adm0":"Belgique","name_adm1":"Vlaams Brabant","name_adm2":"Halle-Vilvoorde","name_en":"Catthem"},"geometry":{"type":"Point","coordinates":[4.10254,50.84925]}},{"type":"feature","properties":{"country_en":"Belgium","name":"Keiberg","name_adm0":"Belgique","name_adm1":"Vlaams Brabant","name_adm2":"Leuven","name_en":"Keyberg"},"geometry":{"type":"Point","coordinates":[4.95397,50.98788]}},{"type":"feature","properties":{"country_en":"Belgium","name":"Kaster","name_adm0":"Belgique","name_adm1":"West-Vlaanderen","name_adm2":"Kortrijk","name_en":"Caster"},"geometry":{"type":"Point","coordinates":[3.49591,50.8133]}},{"type":"feature","properties":{"country_en":"Belgium","name":"Keiem","name_adm0":"Belgique","name_adm1":"West-Vlaanderen","name_adm2":"Diksmuide","name_en":"Keyem"},"geometry":{"type":"Point","coordinates":[2.88217,51.08144]}},{"type":"feature","properties":{"country_en":"Belgium","name":"Kettenis","name_adm0":"Belgique","name_adm1":"Liège","name_adm2":"Verviers","name_en":"Kettenis"},"geometry":{"type":"Point","coordinates":[6.04686,50.64761]}},{"type":"feature","properties":{"country_en":"Belgium","name":"Kester","name_adm0":"Belgique","name_adm1":"Vlaams Brabant","name_adm2":"Halle-Vilvoorde","name_en":"Castre"},"geometry":{"type":"Point","coordinates":[4.12058,50.76398]}},{"type":"feature","properties":{"country_en":"Belgium","name":"L'écluse","name_adm0":"Belgique","name_adm1":"Brabant Wallon","name_adm2":"Nivelles","name_en":"L'écluse"},"geometry":{"type":"Point","coordinates":[4.83141,50.773]}},{"type":"feature","properties":{"country_en":"Belgium","name":"La Bouverie","name_adm0":"Belgique","name_adm1":"Hainaut","name_adm2":"Mons","name_en":"La Bouverie"},"geometry":{"type":"Point","coordinates":[3.8744,50.40524]}},{"type":"feature","properties":{"country_en":"Belgium","name":"La Minerie","name_adm0":"Belgique","name_adm1":"Liège","name_adm2":"Verviers","name_en":"Minerie"},"geometry":{"type":"Point","coordinates":[5.84606,50.6644]}},{"type":"feature","properties":{"country_en":"Belgium","name":"Lambermont","name_adm0":"Belgique","name_adm1":"Luxembourg","name_adm2":"Virton","name_en":"Lambermont"},"geometry":{"type":"Point","coordinates":[5.19218,49.70561]}},{"type":"feature","properties":{"country_en":"Belgium","name":"Lambusart","name_adm0":"Belgique","name_adm1":"Hainaut","name_adm2":"Charleroi","name_en":"Lambusart"},"geometry":{"type":"Point","coordinates":[4.55263,50.45432999999999]}},{"type":"feature","properties":{"country_en":"Belgium","name":"Landegem","name_adm0":"Belgique","name_adm1":"Oost-Vlaanderen","name_adm2":"Gent","name_en":"Landegem"},"geometry":{"type":"Point","coordinates":[3.5766699999999996,51.05518]}},{"type":"feature","properties":{"country_en":"Belgium","name":"Leke","name_adm0":"Belgique","name_adm1":"West-Vlaanderen","name_adm2":"Diksmuide","name_en":"Leke"},"geometry":{"type":"Point","coordinates":[2.89098,51.10022]}},{"type":"feature","properties":{"country_en":"Belgium","name":"Louveigné","name_adm0":"Belgique","name_adm1":"Liège","name_adm2":"Liège","name_en":"Louveigné"},"geometry":{"type":"Point","coordinates":[5.70843,50.53203]}},{"type":"feature","properties":{"country_en":"Belgium","name":"Lutlommel","name_adm0":"Belgique","name_adm1":"Limburg","name_adm2":"Maaseik","name_en":"Lutlommel"},"geometry":{"type":"Point","coordinates":[5.33593,51.23065]}},{"type":"feature","properties":{"country_en":"Belgium","name":"Loupoigne","name_adm0":"Belgique","name_adm1":"Brabant Wallon","name_adm2":"Nivelles","name_en":"Loupoigne"},"geometry":{"type":"Point","coordinates":[4.44448,50.59806]}},{"type":"feature","properties":{"country_en":"Belgium","name":"Manaihant","name_adm0":"Belgique","name_adm1":"Liège","name_adm2":"Verviers","name_en":"Manaihant"},"geometry":{"type":"Point","coordinates":[5.82247,50.62281999999999]}},{"type":"feature","properties":{"country_en":"Belgium","name":"Maransart","name_adm0":"Belgique","name_adm1":"Brabant Wallon","name_adm2":"Nivelles","name_en":"Maransart"},"geometry":{"type":"Point","coordinates":[4.46689,50.65968999999999]}},{"type":"feature","properties":{"country_en":"Belgium","name":"Maria-ter-Heide","name_adm0":"Belgique","name_adm1":"Antwerpen","name_adm2":"Antwerpen","name_en":"Maria-ter-Heide"},"geometry":{"type":"Point","coordinates":[4.5202599999999995,51.32429]}},{"type":"feature","properties":{"country_en":"Belgium","name":"Marilles","name_adm0":"Belgique","name_adm1":"Brabant Wallon","name_adm2":"Nivelles","name_en":"Marilles"},"geometry":{"type":"Point","coordinates":[4.95274,50.70716999999999]}},{"type":"feature","properties":{"country_en":"Belgium","name":"Martenslinde","name_adm0":"Belgique","name_adm1":"Limburg","name_adm2":"Tongeren","name_en":"Martenslinde"},"geometry":{"type":"Point","coordinates":[5.53385,50.85597]}},{"type":"feature","properties":{"country_en":"Belgium","name":"Mehaigne","name_adm0":"Belgique","name_adm1":"Namur","name_adm2":"Namur","name_en":"Mehaigne"},"geometry":{"type":"Point","coordinates":[4.87587,50.59479]}},{"type":"feature","properties":{"country_en":"Belgium","name":"Meensel-Kiezegem","name_adm0":"Belgique","name_adm1":"Vlaams Brabant","name_adm2":"Leuven","name_en":"Meensel"},"geometry":{"type":"Point","coordinates":[4.92496,50.89621]}},{"type":"feature","properties":{"country_en":"Belgium","name":"Menufontaine","name_adm0":"Belgique","name_adm1":"Luxembourg","name_adm2":"Bastogne","name_en":"Menufontaine"},"geometry":{"type":"Point","coordinates":[5.6592,49.88049999999999]}},{"type":"feature","properties":{"country_en":"Belgium","name":"Merbes-Ste.-Marie","name_adm0":"Belgique","name_adm1":"Hainaut","name_adm2":"Thuin","name_en":"Merbes-Ste.-Marie"},"geometry":{"type":"Point","coordinates":[4.177809999999999,50.3528]}},{"type":"feature","properties":{"country_en":"Belgium","name":"Merlemont","name_adm0":"Belgique","name_adm1":"Namur","name_adm2":"Philippeville","name_en":"Merlemont"},"geometry":{"type":"Point","coordinates":[4.60937,50.17464]}},{"type":"feature","properties":{"country_en":"Belgium","name":"Millegem","name_adm0":"Belgique","name_adm1":"Antwerpen","name_adm2":"Turnhout","name_en":"Milleghem"},"geometry":{"type":"Point","coordinates":[5.08202,51.18943]}},{"type":"feature","properties":{"country_en":"Belgium","name":"Molenbeek-Wersbeek","name_adm0":"Belgique","name_adm1":"Vlaams Brabant","name_adm2":"Leuven","name_en":"Molenbeek"},"geometry":{"type":"Point","coordinates":[4.9476,50.91947]}},{"type":"feature","properties":{"country_en":"Belgium","name":"Momalle","name_adm0":"Belgique","name_adm1":"Liège","name_adm2":"Waremme","name_en":"Momalle"},"geometry":{"type":"Point","coordinates":[5.37592,50.685849999999995]}},{"type":"feature","properties":{"country_en":"Belgium","name":"Neerpede","name_adm0":"Belgique","name_adm1":"Région de Bruxelles-Capitale","name_adm2":"Brussel Hoofdstad","name_en":"Neerpede"},"geometry":{"type":"Point","coordinates":[4.26667,50.81667]}},{"type":"feature","properties":{"country_en":"Belgium","name":"Noduwez","name_adm0":"Belgique","name_adm1":"Brabant Wallon","name_adm2":"Nivelles","name_en":"Noduwez"},"geometry":{"type":"Point","coordinates":[4.96779,50.72863]}},{"type":"feature","properties":{"country_en":"Belgium","name":"Noirchain","name_adm0":"Belgique","name_adm1":"Hainaut","name_adm2":"Mons","name_en":"Noirchain"},"geometry":{"type":"Point","coordinates":[3.9259,50.40283]}},{"type":"feature","properties":{"country_en":"Belgium","name":"Noville-sur-Méhaigne","name_adm0":"Belgique","name_adm1":"Namur","name_adm2":"Namur","name_en":"Noville-sur-Méhaigne"},"geometry":{"type":"Point","coordinates":[4.89214,50.60868]}},{"type":"feature","properties":{"country_en":"Belgium","name":"Oeselgem","name_adm0":"Belgique","name_adm1":"West-Vlaanderen","name_adm2":"Tielt","name_en":"Oesselghem"},"geometry":{"type":"Point","coordinates":[3.43185,50.93789]}},{"type":"feature","properties":{"country_en":"Belgium","name":"Oneux","name_adm0":"Belgique","name_adm1":"Liège","name_adm2":"Verviers","name_en":"Oneux"},"geometry":{"type":"Point","coordinates":[5.83443,50.54616]}},{"type":"feature","properties":{"country_en":"Belgium","name":"Oombergen","name_adm0":"Belgique","name_adm1":"Oost-Vlaanderen","name_adm2":"Aalst","name_en":"Oombergen"},"geometry":{"type":"Point","coordinates":[3.8334399999999995,50.89856]}},{"type":"feature","properties":{"country_en":"Belgium","name":"Oostham","name_adm0":"Belgique","name_adm1":"Limburg","name_adm2":"Hasselt","name_en":"Oostham"},"geometry":{"type":"Point","coordinates":[5.17877,51.10374]}},{"type":"feature","properties":{"country_en":"Belgium","name":"Opgrimbie","name_adm0":"Belgique","name_adm1":"Limburg","name_adm2":"Tongeren","name_en":"Opgrimby"},"geometry":{"type":"Point","coordinates":[5.67967,50.94188]}},{"type":"feature","properties":{"country_en":"Belgium","name":"Ophasselt","name_adm0":"Belgique","name_adm1":"Oost-Vlaanderen","name_adm2":"Aalst","name_en":"Ophasselt"},"geometry":{"type":"Point","coordinates":[3.89293,50.81729]}},{"type":"feature","properties":{"country_en":"Belgium","name":"Oostveld","name_adm0":"Belgique","name_adm1":"West-Vlaanderen","name_adm2":"Brugge","name_en":"Oostveld"},"geometry":{"type":"Point","coordinates":[3.39156,51.16142]}},{"type":"feature","properties":{"country_en":"Belgium","name":"Orcq","name_adm0":"Belgique","name_adm1":"Hainaut","name_adm2":"Tournai","name_en":"Orcq"},"geometry":{"type":"Point","coordinates":[3.3492399999999996,50.60322]}},{"type":"feature","properties":{"country_en":"Belgium","name":"Ordingen","name_adm0":"Belgique","name_adm1":"Limburg","name_adm2":"Hasselt","name_en":"Ordingen"},"geometry":{"type":"Point","coordinates":[5.234989999999999,50.8132]}},{"type":"feature","properties":{"country_en":"Belgium","name":"Orroir","name_adm0":"Belgique","name_adm1":"Hainaut","name_adm2":"Tournai","name_en":"Orroir"},"geometry":{"type":"Point","coordinates":[3.48097,50.74973]}},{"type":"feature","properties":{"country_en":"Belgium","name":"Patignies","name_adm0":"Belgique","name_adm1":"Namur","name_adm2":"Dinant","name_en":"Patignies"},"geometry":{"type":"Point","coordinates":[4.951459999999999,50.00011]}},{"type":"feature","properties":{"country_en":"Belgium","name":"Pâturages","name_adm0":"Belgique","name_adm1":"Hainaut","name_adm2":"Mons","name_en":"Pâturages"},"geometry":{"type":"Point","coordinates":[3.855,50.4072]}},{"type":"feature","properties":{"country_en":"Belgium","name":"Pijpelheide","name_adm0":"Belgique","name_adm1":"Antwerpen","name_adm2":"Mechelen","name_en":"Pypelheide"},"geometry":{"type":"Point","coordinates":[4.75619,51.02995]}},{"type":"feature","properties":{"country_en":"Belgium","name":"Petit-Roeulx-lez-Nivelles","name_adm0":"Belgique","name_adm1":"Hainaut","name_adm2":"Charleroi","name_en":"Petit-Roeulx-lez-Nivelles"},"geometry":{"type":"Point","coordinates":[4.31351,50.55419]}},{"type":"feature","properties":{"country_en":"Belgium","name":"Peulis","name_adm0":"Belgique","name_adm1":"Antwerpen","name_adm2":"Mechelen","name_en":"Peulis"},"geometry":{"type":"Point","coordinates":[4.58945,51.037209999999995]}},{"type":"feature","properties":{"country_en":"Belgium","name":"Puivelde","name_adm0":"Belgique","name_adm1":"Oost-Vlaanderen","name_adm2":"St.-Niklaas","name_en":"Puyvelde"},"geometry":{"type":"Point","coordinates":[4.08465,51.1734]}},{"type":"feature","properties":{"country_en":"Belgium","name":"Quevaucamps","name_adm0":"Belgique","name_adm1":"Hainaut","name_adm2":"Ath","name_en":"Quevaucamps"},"geometry":{"type":"Point","coordinates":[3.68128,50.518879999999996]}},{"type":"feature","properties":{"country_en":"Belgium","name":"Raeren","name_adm0":"Belgique","name_adm1":"Liège","name_adm2":"Verviers","name_en":"Raeren"},"geometry":{"type":"Point","coordinates":[6.11535,50.6672]}},{"type":"feature","properties":{"country_en":"Belgium","name":"Remoiville","name_adm0":"Belgique","name_adm1":"Luxembourg","name_adm2":"Bastogne","name_en":"Remoiville"},"geometry":{"type":"Point","coordinates":[5.63689,49.91723999999999]}},{"type":"feature","properties":{"country_en":"Belgium","name":"Ransart","name_adm0":"Belgique","name_adm1":"Hainaut","name_adm2":"Charleroi","name_en":"Ransart"},"geometry":{"type":"Point","coordinates":[4.47616,50.46166]}},{"type":"feature","properties":{"country_en":"Belgium","name":"Ransberg","name_adm0":"Belgique","name_adm1":"Vlaams Brabant","name_adm2":"Leuven","name_en":"Ransberg"},"geometry":{"type":"Point","coordinates":[5.03955,50.87493]}},{"type":"feature","properties":{"country_en":"Belgium","name":"Rocourt","name_adm0":"Belgique","name_adm1":"Liège","name_adm2":"Liège","name_en":"Rocourt"},"geometry":{"type":"Point","coordinates":[5.54621,50.67579]}},{"type":"feature","properties":{"country_en":"Belgium","name":"Roselies","name_adm0":"Belgique","name_adm1":"Hainaut","name_adm2":"Charleroi","name_en":"Roselies"},"geometry":{"type":"Point","coordinates":[4.57203,50.430279999999996]}},{"type":"feature","properties":{"country_en":"Belgium","name":"Roosbeek","name_adm0":"Belgique","name_adm1":"Vlaams Brabant","name_adm2":"Leuven","name_en":"Roosbeek"},"geometry":{"type":"Point","coordinates":[4.86282,50.83608]}},{"type":"feature","properties":{"country_en":"Belgium","name":"Scry","name_adm0":"Belgique","name_adm1":"Liège","name_adm2":"Huy","name_en":"Scry"},"geometry":{"type":"Point","coordinates":[5.37395,50.49934]}},{"type":"feature","properties":{"country_en":"Belgium","name":"Smetlede","name_adm0":"Belgique","name_adm1":"Oost-Vlaanderen","name_adm2":"Aalst","name_en":"Smetlede"},"geometry":{"type":"Point","coordinates":[3.92796,50.9662]}},{"type":"feature","properties":{"country_en":"Belgium","name":"Somzée","name_adm0":"Belgique","name_adm1":"Namur","name_adm2":"Philippeville","name_en":"Somzée"},"geometry":{"type":"Point","coordinates":[4.48209,50.29514]}},{"type":"feature","properties":{"country_en":"Belgium","name":"Soumoy","name_adm0":"Belgique","name_adm1":"Namur","name_adm2":"Philippeville","name_en":"Soumoy"},"geometry":{"type":"Point","coordinates":[4.4378,50.1902]}},{"type":"feature","properties":{"country_en":"Belgium","name":"Soye","name_adm0":"Belgique","name_adm1":"Namur","name_adm2":"Namur","name_en":"Soye"},"geometry":{"type":"Point","coordinates":[4.7303,50.44958]}},{"type":"feature","properties":{"country_en":"Belgium","name":"Soiron","name_adm0":"Belgique","name_adm1":"Liège","name_adm2":"Verviers","name_en":"Soiron"},"geometry":{"type":"Point","coordinates":[5.79089,50.59127999999999]}},{"type":"feature","properties":{"country_en":"Belgium","name":"St.-Denijs","name_adm0":"Belgique","name_adm1":"West-Vlaanderen","name_adm2":"Kortrijk","name_en":"St-Genois"},"geometry":{"type":"Point","coordinates":[3.36627,50.75198]}},{"type":"feature","properties":{"country_en":"Belgium","name":"St.-Jan","name_adm0":"Belgique","name_adm1":"West-Vlaanderen","name_adm2":"Ieper","name_en":"St-Jean"},"geometry":{"type":"Point","coordinates":[2.9047799999999997,50.86502]}},{"type":"feature","properties":{"country_en":"Belgium","name":"St.-Kruis-Winkel","name_adm0":"Belgique","name_adm1":"Oost-Vlaanderen","name_adm2":"Gent","name_en":"Winkel-Ste-Croix"},"geometry":{"type":"Point","coordinates":[3.81626,51.15578]}},{"type":"feature","properties":{"country_en":"Belgium","name":"St.-Sauveur","name_adm0":"Belgique","name_adm1":"Hainaut","name_adm2":"Ath","name_en":"St.-Sauveur"},"geometry":{"type":"Point","coordinates":[3.5978199999999996,50.706039999999994]}},{"type":"feature","properties":{"country_en":"Belgium","name":"St.-Pauwels","name_adm0":"Belgique","name_adm1":"Oost-Vlaanderen","name_adm2":"St.-Niklaas","name_en":"St-Paul"},"geometry":{"type":"Point","coordinates":[4.09649,51.19391]}},{"type":"feature","properties":{"country_en":"Belgium","name":"St.-Servais","name_adm0":"Belgique","name_adm1":"Namur","name_adm2":"Namur","name_en":"St.-Servais"},"geometry":{"type":"Point","coordinates":[4.83656,50.4763]}},{"type":"feature","properties":{"country_en":"Belgium","name":"Steenbrugge","name_adm0":"Belgique","name_adm1":"West-Vlaanderen","name_adm2":"Brugge","name_en":"Steenbrugge"},"geometry":{"type":"Point","coordinates":[3.2385,51.17675]}},{"type":"feature","properties":{"country_en":"Belgium","name":"Strijtem","name_adm0":"Belgique","name_adm1":"Vlaams Brabant","name_adm2":"Halle-Vilvoorde","name_en":"Strythem"},"geometry":{"type":"Point","coordinates":[4.11696,50.84155]}},{"type":"feature","properties":{"country_en":"Belgium","name":"Strée","name_adm0":"Belgique","name_adm1":"Hainaut","name_adm2":"Thuin","name_en":"Strée"},"geometry":{"type":"Point","coordinates":[4.29394,50.28078]}},{"type":"feature","properties":{"country_en":"Belgium","name":"Taviers","name_adm0":"Belgique","name_adm1":"Namur","name_adm2":"Namur","name_en":"Taviers"},"geometry":{"type":"Point","coordinates":[4.93072,50.61726]}},{"type":"feature","properties":{"country_en":"Belgium","name":"Strijpen","name_adm0":"Belgique","name_adm1":"Oost-Vlaanderen","name_adm2":"Aalst","name_en":"Strypen"},"geometry":{"type":"Point","coordinates":[3.7879800000000006,50.86801]}},{"type":"feature","properties":{"country_en":"Belgium","name":"Strombeek-Bever","name_adm0":"Belgique","name_adm1":"Vlaams Brabant","name_adm2":"Halle-Vilvoorde","name_en":"Strombeek-Bever"},"geometry":{"type":"Point","coordinates":[4.35582,50.91039]}},{"type":"feature","properties":{"country_en":"Belgium","name":"Thines","name_adm0":"Belgique","name_adm1":"Brabant Wallon","name_adm2":"Nivelles","name_en":"Thines"},"geometry":{"type":"Point","coordinates":[4.36895,50.59675]}},{"type":"feature","properties":{"country_en":"Belgium","name":"Thirimont","name_adm0":"Belgique","name_adm1":"Hainaut","name_adm2":"Thuin","name_en":"Thirimont"},"geometry":{"type":"Point","coordinates":[4.23609,50.25954999999999]}},{"type":"feature","properties":{"country_en":"Belgium","name":"Thynes","name_adm0":"Belgique","name_adm1":"Namur","name_adm2":"Dinant","name_en":"Thynes"},"geometry":{"type":"Point","coordinates":[4.99118,50.27985]}},{"type":"feature","properties":{"country_en":"Belgium","name":"Tilly","name_adm0":"Belgique","name_adm1":"Brabant Wallon","name_adm2":"Nivelles","name_en":"Tilly"},"geometry":{"type":"Point","coordinates":[4.55495,50.560779999999994]}},{"type":"feature","properties":{"country_en":"Belgium","name":"Tielrode","name_adm0":"Belgique","name_adm1":"Oost-Vlaanderen","name_adm2":"St.-Niklaas","name_en":"Thielrode"},"geometry":{"type":"Point","coordinates":[4.17707,51.113029999999995]}},{"type":"feature","properties":{"country_en":"Belgium","name":"Vaux","name_adm0":"Belgique","name_adm1":"Luxembourg","name_adm2":"Bastogne","name_en":"Vaux"},"geometry":{"type":"Point","coordinates":[5.85286,50.174499999999995]}},{"type":"feature","properties":{"country_en":"Belgium","name":"Vaux-Chavanne","name_adm0":"Belgique","name_adm1":"Luxembourg","name_adm2":"Marche-en-Famenne","name_en":"Vaux-Chavanne"},"geometry":{"type":"Point","coordinates":[5.69245,50.30464]}},{"type":"feature","properties":{"country_en":"Belgium","name":"Velaines","name_adm0":"Belgique","name_adm1":"Hainaut","name_adm2":"Tournai","name_en":"Velaines"},"geometry":{"type":"Point","coordinates":[3.4866,50.66801]}},{"type":"feature","properties":{"country_en":"Belgium","name":"Udange","name_adm0":"Belgique","name_adm1":"Luxembourg","name_adm2":"Arlon","name_en":"Udange"},"geometry":{"type":"Point","coordinates":[5.77179,49.63613]}},{"type":"feature","properties":{"country_en":"Belgium","name":"Vesqueville","name_adm0":"Belgique","name_adm1":"Luxembourg","name_adm2":"Neufchâteau","name_en":"Vesqueville"},"geometry":{"type":"Point","coordinates":[5.39682,50.00573]}},{"type":"feature","properties":{"country_en":"Belgium","name":"Vieux-Genappe","name_adm0":"Belgique","name_adm1":"Brabant Wallon","name_adm2":"Nivelles","name_en":"Vieux-Genappe"},"geometry":{"type":"Point","coordinates":[4.44097,50.60846]}},{"type":"feature","properties":{"country_en":"Belgium","name":"Vliermaal","name_adm0":"Belgique","name_adm1":"Limburg","name_adm2":"Tongeren","name_en":"Vliermael"},"geometry":{"type":"Point","coordinates":[5.42862,50.840689999999995]}},{"type":"feature","properties":{"country_en":"Belgium","name":"Vlierzele","name_adm0":"Belgique","name_adm1":"Oost-Vlaanderen","name_adm2":"Aalst","name_en":"Vlierzele"},"geometry":{"type":"Point","coordinates":[3.8958999999999997,50.93171]}},{"type":"feature","properties":{"country_en":"Belgium","name":"Vorsen","name_adm0":"Belgique","name_adm1":"Limburg","name_adm2":"Hasselt","name_en":"Fresin"},"geometry":{"type":"Point","coordinates":[5.17077,50.70378]}},{"type":"feature","properties":{"country_en":"Belgium","name":"Voroux-les-Liers","name_adm0":"Belgique","name_adm1":"Liège","name_adm2":"Liège","name_en":"Voroux-les-Liers"},"geometry":{"type":"Point","coordinates":[5.5544,50.68745]}},{"type":"feature","properties":{"country_en":"Belgium","name":"Vreren","name_adm0":"Belgique","name_adm1":"Limburg","name_adm2":"Tongeren","name_en":"Freeren"},"geometry":{"type":"Point","coordinates":[5.49588,50.75168]}},{"type":"feature","properties":{"country_en":"Belgium","name":"Waarmaarde","name_adm0":"Belgique","name_adm1":"West-Vlaanderen","name_adm2":"Kortrijk","name_en":"Waermaerde"},"geometry":{"type":"Point","coordinates":[3.4866,50.78997]}},{"type":"feature","properties":{"country_en":"Belgium","name":"Westrem","name_adm0":"Belgique","name_adm1":"Oost-Vlaanderen","name_adm2":"Dendermonde","name_en":"Westrem"},"geometry":{"type":"Point","coordinates":[3.86202,50.9691]}},{"type":"feature","properties":{"country_en":"Belgium","name":"Wijshagen","name_adm0":"Belgique","name_adm1":"Limburg","name_adm2":"Maaseik","name_en":"Wyshagen"},"geometry":{"type":"Point","coordinates":[5.55788,51.10492]}},{"type":"feature","properties":{"country_en":"Belgium","name":"Wintershoven","name_adm0":"Belgique","name_adm1":"Limburg","name_adm2":"Tongeren","name_en":"Wintershoven"},"geometry":{"type":"Point","coordinates":[5.41965,50.851569999999995]}},{"type":"feature","properties":{"country_en":"Belgium","name":"Winksele","name_adm0":"Belgique","name_adm1":"Vlaams Brabant","name_adm2":"Leuven","name_en":"Winxele"},"geometry":{"type":"Point","coordinates":[4.64607,50.8986]}},{"type":"feature","properties":{"country_en":"Belgium","name":"Zammelen","name_adm0":"Belgique","name_adm1":"Limburg","name_adm2":"Tongeren","name_en":"Zammelen"},"geometry":{"type":"Point","coordinates":[5.406769999999999,50.81401]}},{"type":"feature","properties":{"country_en":"Belgium","name":"Zarlardinge","name_adm0":"Belgique","name_adm1":"Oost-Vlaanderen","name_adm2":"Aalst","name_en":"Sarlardinge"},"geometry":{"type":"Point","coordinates":[3.8285,50.76214]}},{"type":"feature","properties":{"country_en":"Belgium","name":"Zepperen","name_adm0":"Belgique","name_adm1":"Limburg","name_adm2":"Hasselt","name_en":"Zepperen"},"geometry":{"type":"Point","coordinates":[5.24769,50.82139]}},{"type":"feature","properties":{"country_en":"Belgium","name":"Heiden","name_adm0":"Belgique","name_adm1":"Luxembourg","name_adm2":"Arlon","name_en":"Heiden"},"geometry":{"type":"Point","coordinates":[6.731649999999999,49.54588]}},{"type":"feature","properties":{"country_en":"Belgium","name":"Waterland-Oudeman","name_adm0":"Belgique","name_adm1":"Oost-Vlaanderen","name_adm2":"Eeklo","name_en":"Waterland-Oudeman"},"geometry":{"type":"Point","coordinates":[3.58987,51.28868]}},{"type":"feature","properties":{"country_en":"Belgium","name":"Natoye","name_adm0":"Belgique","name_adm1":"Namur","name_adm2":"Dinant","name_en":"Natoye"},"geometry":{"type":"Point","coordinates":[5.057999999999999,50.34294]}},{"type":"feature","properties":{"country_en":"Belgium","name":"Zwyndrecht","name_adm0":"Belgique","name_adm1":"Antwerpen","name_adm2":"Antwerpen","name_en":"Zwyndrecht"},"geometry":{"type":"Point","coordinates":[4.3153735,51.212707]}},{"type":"feature","properties":{"country_en":"Belgium","name":"Brugge","name_adm0":"Belgique","name_adm1":"West-Vlaanderen","name_adm2":"Brugge","name_en":"Bruges"},"geometry":{"type":"Point","coordinates":[3.21667,51.25]}},{"type":"feature","properties":{"country_en":"Belgium","name":"Froidchapelle","name_adm0":"Belgique","name_adm1":"Hainaut","name_adm2":"Thuin","name_en":"Froidchapelle"},"geometry":{"type":"Point","coordinates":[4.32742,50.151059999999994]}},{"type":"feature","properties":{"country_en":"Belgium","name":"Burenville","name_adm0":"Belgique","name_adm1":"Liège","name_adm2":"Liège","name_en":"Burenville"},"geometry":{"type":"Point","coordinates":[5.99753,50.4262]}},{"type":"feature","properties":{"country_en":"Belgium","name":"Les Brules","name_adm0":"Belgique","name_adm1":"Namur","name_adm2":"Namur","name_en":"Les Brules"},"geometry":{"type":"Point","coordinates":[3.8,50.55]}},{"type":"feature","properties":{"country_en":"Belgium","name":"Kraasbeek","name_adm0":"Belgique","name_adm1":"Vlaams Brabant","name_adm2":"Leuven","name_en":"Kraasbeek"},"geometry":{"type":"Point","coordinates":[4.90778,50.91833]}},{"type":"feature","properties":{"country_en":"Belgium","name":"Grâce-Hollogne","name_adm0":"Belgique","name_adm1":"Liège","name_adm2":"Liège","name_en":"Grâce-Hollogne"},"geometry":{"type":"Point","coordinates":[5.47668,50.63444]}},{"type":"feature","properties":{"country_en":"Belgium","name":"Fléron","name_adm0":"Belgique","name_adm1":"Liège","name_adm2":"Liège","name_en":"Fléron"},"geometry":{"type":"Point","coordinates":[5.68139,50.61511]}},{"type":"feature","properties":{"country_en":"Belgium","name":"St.-Nicolas","name_adm0":"Belgique","name_adm1":"Liège","name_adm2":"Liège","name_en":"St.-Nicolas"},"geometry":{"type":"Point","coordinates":[5.53179,50.62866999999999]}},{"type":"feature","properties":{"country_en":"Belgium","name":"Belfont Hallen","name_adm0":"Belgique","name_adm1":"West-Vlaanderen","name_adm2":"Brugge","name_en":"Belfont Hallen"},"geometry":{"type":"Point","coordinates":[3.224315,51.20734]}},{"type":"feature","properties":{"country_en":"Belgium","name":"Burnenville","name_adm0":"Belgique","name_adm1":"Liège","name_adm2":"Verviers","name_en":"Burnenville"},"geometry":{"type":"Point","coordinates":[5.96564,50.44451]}},{"type":"feature","properties":{"country_en":"Belgium","name":"Grand' Place","name_adm0":"Belgique","name_adm1":"Région de Bruxelles-Capitale","name_adm2":"Brussel Hoofdstad","name_en":"Grand' Place"},"geometry":{"type":"Point","coordinates":[4.348633,50.847227]}},{"type":"feature","properties":{"country_en":"Belgium","name":"Pl. de Brouckere","name_adm0":"Belgique","name_adm1":"Région de Bruxelles-Capitale","name_adm2":"Brussel Hoofdstad","name_en":"Pl. de Brouckere"},"geometry":{"type":"Point","coordinates":[4.354598,50.84667499999999]}},{"type":"feature","properties":{"country_en":"Belgium","name":"Hemiksem","name_adm0":"Belgique","name_adm1":"Antwerpen","name_adm2":"Antwerpen","name_en":"Hemixem"},"geometry":{"type":"Point","coordinates":[4.33874,51.14484]}},{"type":"feature","properties":{"country_en":"Belgium","name":"Nazareth","name_adm0":"Belgique","name_adm1":"Oost-Vlaanderen","name_adm2":"Gent","name_en":"Nazareth"},"geometry":{"type":"Point","coordinates":[3.59426,50.95686]}},{"type":"feature","properties":{"country_en":"Belgium","name":"Verviers","name_adm0":"Belgique","name_adm1":"Liège","name_adm2":"Verviers","name_en":"Verviers"},"geometry":{"type":"Point","coordinates":[5.862409999999999,50.58906999999999]}},{"type":"feature","properties":{"country_en":"Belgium","name":"Tintigny","name_adm0":"Belgique","name_adm1":"Luxembourg","name_adm2":"Virton","name_en":"Tintigny"},"geometry":{"type":"Point","coordinates":[5.51349,49.68326]}},{"type":"feature","properties":{"country_en":"Belgium","name":"Tielt","name_adm0":"Belgique","name_adm1":"West-Vlaanderen","name_adm2":"Tielt","name_en":"Thielt"},"geometry":{"type":"Point","coordinates":[3.32707,50.99931]}},{"type":"feature","properties":{"country_en":"Belgium","name":"Kraainem","name_adm0":"Belgique","name_adm1":"Vlaams Brabant","name_adm2":"Halle-Vilvoorde","name_en":"Kraainem"},"geometry":{"type":"Point","coordinates":[4.46946,50.86155]}},{"type":"feature","properties":{"country_en":"Belgium","name":"Nandrin","name_adm0":"Belgique","name_adm1":"Liège","name_adm2":"Huy","name_en":"Nandrin"},"geometry":{"type":"Point","coordinates":[5.41905,50.50674]}},{"type":"feature","properties":{"country_en":"Belgium","name":"Zonnebeke","name_adm0":"Belgique","name_adm1":"West-Vlaanderen","name_adm2":"Ieper","name_en":"Zonnebeke"},"geometry":{"type":"Point","coordinates":[2.98725,50.8726]}},{"type":"feature","properties":{"country_en":"Belgium","name":"Koekelare","name_adm0":"Belgique","name_adm1":"West-Vlaanderen","name_adm2":"Diksmuide","name_en":"Couckelaere"},"geometry":{"type":"Point","coordinates":[2.9783,51.09047]}},{"type":"feature","properties":{"country_en":"Belgium","name":"Laarne","name_adm0":"Belgique","name_adm1":"Oost-Vlaanderen","name_adm2":"Dendermonde","name_en":"Laerne"},"geometry":{"type":"Point","coordinates":[3.85077,51.03078]}},{"type":"feature","properties":{"country_en":"Belgium","name":"Bertogne","name_adm0":"Belgique","name_adm1":"Luxembourg","name_adm2":"Bastogne","name_en":"Bertogne"},"geometry":{"type":"Point","coordinates":[5.66689,50.08364]}},{"type":"feature","properties":{"country_en":"Belgium","name":"Fléron","name_adm0":"Belgique","name_adm1":"Liège","name_adm2":"Liège","name_en":"Fléron"},"geometry":{"type":"Point","coordinates":[5.68062,50.61516]}},{"type":"feature","properties":{"country_en":"Belgium","name":"Olne","name_adm0":"Belgique","name_adm1":"Liège","name_adm2":"Verviers","name_en":"Olne"},"geometry":{"type":"Point","coordinates":[5.74662,50.58993999999999]}},{"type":"feature","properties":{"country_en":"Belgium","name":"Dommartin","name_adm0":"Belgique","name_adm1":"Liège","name_adm2":"Waremme","name_en":"Dommartin"},"geometry":{"type":"Point","coordinates":[5.36328,50.61642]}},{"type":"feature","properties":{"country_en":"Belgium","name":"Drie Fonteinen","name_adm0":"Belgique","name_adm1":"Région de Bruxelles-Capitale","name_adm2":"Brussel Hoofdstad","name_en":"Drie Fonteinen"},"geometry":{"type":"Point","coordinates":[4.41015,50.91992]}},{"type":"feature","properties":{"country_en":"Belgium","name":"Ouren","name_adm0":"Belgique","name_adm1":"Liège","name_adm2":"Verviers","name_en":"Ouren"},"geometry":{"type":"Point","coordinates":[6.13288,50.13944999999999]}},{"type":"feature","properties":{"country_en":"Belgium","name":"Pontisse","name_adm0":"Belgique","name_adm1":"Liège","name_adm2":"Liège","name_en":"Pontisse"},"geometry":{"type":"Point","coordinates":[5.63349,50.68095999999999]}},{"type":"feature","properties":{"country_en":"Belgium","name":"Verlaine","name_adm0":"Belgique","name_adm1":"Luxembourg","name_adm2":"Marche-en-Famenne","name_en":"Verlaine-sur-Ourthe"},"geometry":{"type":"Point","coordinates":[5.51222,50.39976]}},{"type":"feature","properties":{"country_en":"Belgium","name":"Quartiers","name_adm0":"Belgique","name_adm1":"Liège","name_adm2":"Verviers","name_en":"Quartiers"},"geometry":{"type":"Point","coordinates":[5.87915,50.33537]}},{"type":"feature","properties":{"country_en":"Belgium","name":"Zele","name_adm0":"Belgique","name_adm1":"Oost-Vlaanderen","name_adm2":"Dendermonde","name_en":"Zele"},"geometry":{"type":"Point","coordinates":[4.0403,51.06566]}},{"type":"feature","properties":{"country_en":"Belgium","name":"Dolhain","name_adm0":"Belgique","name_adm1":"Liège","name_adm2":"Verviers","name_en":"Dolhain"},"geometry":{"type":"Point","coordinates":[5.94944,50.6144]}},{"type":"feature","properties":{"country_en":"Belgium","name":"Himmerich","name_adm0":"Belgique","name_adm1":"Liège","name_adm2":"Verviers","name_en":"Himmerig"},"geometry":{"type":"Point","coordinates":[5.83333,50.7]}},{"type":"feature","properties":{"country_en":"Belgium","name":"Morlanwelz-Mariemont","name_adm0":"Belgique","name_adm1":"Hainaut","name_adm2":"Thuin","name_en":"Morlanwelz"},"geometry":{"type":"Point","coordinates":[4.245189999999999,50.45502]}},{"type":"feature","properties":{"country_en":"Belgium","name":"Ahin","name_adm0":"Belgique","name_adm1":"Liège","name_adm2":"Huy","name_en":"Ahin"},"geometry":{"type":"Point","coordinates":[5.22039,50.52147]}},{"type":"feature","properties":{"country_en":"Belgium","name":"Aineffe","name_adm0":"Belgique","name_adm1":"Liège","name_adm2":"Waremme","name_en":"Aineffe"},"geometry":{"type":"Point","coordinates":[5.25729,50.62463999999999]}},{"type":"feature","properties":{"country_en":"Belgium","name":"Bagimont","name_adm0":"Belgique","name_adm1":"Namur","name_adm2":"Dinant","name_en":"Bagimont"},"geometry":{"type":"Point","coordinates":[4.8751,49.82411]}},{"type":"feature","properties":{"country_en":"Belgium","name":"Bambois","name_adm0":"Belgique","name_adm1":"Namur","name_adm2":"Namur","name_en":"Bambois"},"geometry":{"type":"Point","coordinates":[4.70071,50.373099999999994]}},{"type":"feature","properties":{"country_en":"Belgium","name":"Bende","name_adm0":"Belgique","name_adm1":"Luxembourg","name_adm2":"Marche-en-Famenne","name_en":"Bende"},"geometry":{"type":"Point","coordinates":[5.41455,50.41825]}},{"type":"feature","properties":{"country_en":"Belgium","name":"Bergeval","name_adm0":"Belgique","name_adm1":"Liège","name_adm2":"Verviers","name_en":"Bergeval"},"geometry":{"type":"Point","coordinates":[5.8672,50.35206]}},{"type":"feature","properties":{"country_en":"Belgium","name":"Beaulieu","name_adm0":"Belgique","name_adm1":"Région de Bruxelles-Capitale","name_adm2":"Brussel Hoofdstad","name_en":"Beaulieu"},"geometry":{"type":"Point","coordinates":[4.26667,50.05]}},{"type":"feature","properties":{"country_en":"Belgium","name":"Bray","name_adm0":"Belgique","name_adm1":"Hainaut","name_adm2":"Thuin","name_en":"Bray"},"geometry":{"type":"Point","coordinates":[4.10588,50.43242]}},{"type":"feature","properties":{"country_en":"Belgium","name":"Grace-Hollogne","name_adm0":"Belgique","name_adm1":"Liège","name_adm2":"Liège","name_en":"Grace-Hollogne"},"geometry":{"type":"Point","coordinates":[5.475649999999999,50.63455]}},{"type":"feature","properties":{"country_en":"Belgium","name":"Grandcourt","name_adm0":"Belgique","name_adm1":"Luxembourg","name_adm2":"Virton","name_en":"Grandcourt"},"geometry":{"type":"Point","coordinates":[5.605909999999999,49.5256]}},{"type":"feature","properties":{"country_en":"Belgium","name":"Heppenert","name_adm0":"Belgique","name_adm1":"Limburg","name_adm2":"Maaseik","name_en":"Happeneert"},"geometry":{"type":"Point","coordinates":[5.79508,51.07901999999999]}},{"type":"feature","properties":{"country_en":"Belgium","name":"Kapelle-op-den-Bos","name_adm0":"Belgique","name_adm1":"Vlaams Brabant","name_adm2":"Halle-Vilvoorde","name_en":"Kapelle-op-den-Bosch"},"geometry":{"type":"Point","coordinates":[4.36303,51.009699999999995]}},{"type":"feature","properties":{"country_en":"Belgium","name":"Millegem","name_adm0":"Belgique","name_adm1":"Antwerpen","name_adm2":"Antwerpen","name_en":"Milleghem"},"geometry":{"type":"Point","coordinates":[4.54693,51.18476]}},{"type":"feature","properties":{"country_en":"Belgium","name":"Monceau","name_adm0":"Belgique","name_adm1":"Hainaut","name_adm2":"Mons","name_en":"Monceau"},"geometry":{"type":"Point","coordinates":[3.59495,50.64696]}},{"type":"feature","properties":{"country_en":"Belgium","name":"Opheylissem","name_adm0":"Belgique","name_adm1":"Brabant Wallon","name_adm2":"Nivelles","name_en":"Opheylissem"},"geometry":{"type":"Point","coordinates":[4.97689,50.7471]}},{"type":"feature","properties":{"country_en":"Belgium","name":"Ossogne","name_adm0":"Belgique","name_adm1":"Hainaut","name_adm2":"Thuin","name_en":"Ossogne"},"geometry":{"type":"Point","coordinates":[4.34306,50.29021999999999]}},{"type":"feature","properties":{"country_en":"Belgium","name":"Ohey","name_adm0":"Belgique","name_adm1":"Namur","name_adm2":"Namur","name_en":"Ohey"},"geometry":{"type":"Point","coordinates":[5.12375,50.43569999999999]}},{"type":"feature","properties":{"country_en":"Belgium","name":"Purnode","name_adm0":"Belgique","name_adm1":"Namur","name_adm2":"Dinant","name_en":"Purnode"},"geometry":{"type":"Point","coordinates":[4.94411,50.312009999999994]}},{"type":"feature","properties":{"country_en":"Belgium","name":"Perbais","name_adm0":"Belgique","name_adm1":"Brabant Wallon","name_adm2":"Nivelles","name_en":"Perbais"},"geometry":{"type":"Point","coordinates":[4.65494,50.60993]}},{"type":"feature","properties":{"country_en":"Belgium","name":"Rèves","name_adm0":"Belgique","name_adm1":"Hainaut","name_adm2":"Charleroi","name_en":"Rèves"},"geometry":{"type":"Point","coordinates":[4.41075,50.53809]}},{"type":"feature","properties":{"country_en":"Belgium","name":"Viville","name_adm0":"Belgique","name_adm1":"Luxembourg","name_adm2":"Arlon","name_en":"Viville"},"geometry":{"type":"Point","coordinates":[5.79143,49.69732]}},{"type":"feature","properties":{"country_en":"Belgium","name":"Vonêche","name_adm0":"Belgique","name_adm1":"Namur","name_adm2":"Dinant","name_en":"Vonêche"},"geometry":{"type":"Point","coordinates":[4.97955,50.06135]}},{"type":"feature","properties":{"country_en":"Belgium","name":"Wicourt","name_adm0":"Belgique","name_adm1":"Luxembourg","name_adm2":"Bastogne","name_en":"Wicourt"},"geometry":{"type":"Point","coordinates":[5.77514,50.09391]}},{"type":"feature","properties":{"country_en":"Belgium","name":"Zijp","name_adm0":"Belgique","name_adm1":"Vlaams Brabant","name_adm2":"Halle-Vilvoorde","name_en":"Zijp"},"geometry":{"type":"Point","coordinates":[4.09743,51.65121]}},{"type":"feature","properties":{"country_en":"Belgium","name":"Wihéries","name_adm0":"Belgique","name_adm1":"Hainaut","name_adm2":"Mons","name_en":"Wihéries"},"geometry":{"type":"Point","coordinates":[3.75372,50.38543]}},{"type":"feature","properties":{"country_en":"Belgium","name":"Zilverberg","name_adm0":"Belgique","name_adm1":"West-Vlaanderen","name_adm2":"Roeselare","name_en":"Zilverberg"},"geometry":{"type":"Point","coordinates":[3.10956,50.920629999999996]}},{"type":"feature","properties":{"country_en":"Belgium","name":"Olen","name_adm0":"Belgique","name_adm1":"Antwerpen","name_adm2":"Turnhout","name_en":"Oolen"},"geometry":{"type":"Point","coordinates":[4.8598,51.14391]}},{"type":"feature","properties":{"country_en":"Belgium","name":"Tongeren","name_adm0":"Belgique","name_adm1":"Limburg","name_adm2":"Tongeren","name_en":"Tongeren"},"geometry":{"type":"Point","coordinates":[5.46484,50.78054]}},{"type":"feature","properties":{"country_en":"Belgium","name":"Hollain","name_adm0":"Belgique","name_adm1":"Hainaut","name_adm2":"Tournai","name_en":"Hollain"},"geometry":{"type":"Point","coordinates":[3.42605,50.54164]}},{"type":"feature","properties":{"country_en":"Belgium","name":"Sautin","name_adm0":"Belgique","name_adm1":"Hainaut","name_adm2":"Thuin","name_en":"Sautin"},"geometry":{"type":"Point","coordinates":[4.226489999999999,50.1634]}},{"type":"feature","properties":{"country_en":"Belgium","name":"Humbeek","name_adm0":"Belgique","name_adm1":"Vlaams Brabant","name_adm2":"Halle-Vilvoorde","name_en":"Humbeek"},"geometry":{"type":"Point","coordinates":[4.3796,50.96799]}},{"type":"feature","properties":{"country_en":"Belgium","name":"Tombeek","name_adm0":"Belgique","name_adm1":"Vlaams Brabant","name_adm2":"Halle-Vilvoorde","name_en":"Tombeek"},"geometry":{"type":"Point","coordinates":[4.56937,50.75557]}},{"type":"feature","properties":{"country_en":"Belgium","name":"Néchin","name_adm0":"Belgique","name_adm1":"Hainaut","name_adm2":"Tournai","name_en":"Néchin"},"geometry":{"type":"Point","coordinates":[3.26649,50.66702]}},