{"type":"FeatureCollection","features":[{"type":"feature","properties":{"country_en":"Saint Barthélemy","name":"Gustavia","name_adm0":"Saint-Barthélemy","name_en":"Gustavia"},"geometry":{"type":"Point","coordinates":[-62.84978,17.89618]}},{"type":"feature","properties":{"country_en":"Saint Barthélemy","name":"Saint-Barthélemy","name_adm0":"Saint-Barthélemy","name_en":"Saint Barthelemy"},"geometry":{"type":"Point","coordinates":[-62.834381,17.908308999999996]}},{"type":"feature","properties":{"country_en":"Saint Barthélemy","name":"Marigot","name_adm0":"Saint-Barthélemy","name_en":"Marigot"},"geometry":{"type":"Point","coordinates":[-62.815296499999995,17.9184135]}},{"type":"feature","properties":{"country_en":"Saint Barthélemy","name":"Anse des Cayes","name_adm0":"Saint-Barthélemy","name_en":"Anse des Cayes"},"geometry":{"type":"Point","coordinates":[-62.870377999999995,17.927292]}},{"type":"feature","properties":{"country_en":"Saint Barthélemy","name":"Lurin","name_adm0":"Saint-Barthélemy","name_en":"Lurin"},"geometry":{"type":"Point","coordinates":[-62.83333,17.88333]}},{"type":"feature","properties":{"country_en":"Saint Barthélemy","name":"Petit Cul de Sac","name_adm0":"Saint-Barthélemy","name_en":"Petit Cul de Sac"},"geometry":{"type":"Point","coordinates":[-62.78333,17.9]}}]}