{"type":"FeatureCollection","features":[{"type":"feature","properties":{"country_en":"Ecuador","name":"Sigchos","name_adm0":"Ecuador","name_adm1":"Cotopaxi","name_adm2":"Sigchos","name_en":"Sigchos"},"geometry":{"type":"Point","coordinates":[-78.88652,-0.70221]}},{"type":"feature","properties":{"country_en":"Ecuador","name":"Loja","name_adm0":"Ecuador","name_adm1":"Loja","name_en":"Loja"},"geometry":{"type":"Point","coordinates":[-79.5,-4.16667]}},{"type":"feature","properties":{"country_en":"Ecuador","name":"Los Rios","name_adm0":"Ecuador","name_adm1":"Los Rios","name_en":"Los Rios"},"geometry":{"type":"Point","coordinates":[-79.58333,-1.41667]}},{"type":"feature","properties":{"country_en":"Ecuador","name":"Sucumbios","name_adm0":"Ecuador","name_adm1":"Sucumbios","name_en":"Sucumbios"},"geometry":{"type":"Point","coordinates":[-76.86667,0.1]}},{"type":"feature","properties":{"country_en":"Ecuador","name":"Algarrobillo","name_adm0":"Ecuador","name_adm1":"Loja","name_adm2":"Celica","name_en":"Algarrobillo"},"geometry":{"type":"Point","coordinates":[-80.06404,-4.1718]}},{"type":"feature","properties":{"country_en":"Ecuador","name":"Jimbiquiti","name_adm0":"Ecuador","name_adm1":"Pastaza","name_adm2":"Pastaza","name_en":"Jimbiquiti"},"geometry":{"type":"Point","coordinates":[-77.71667,-1.98333]}},{"type":"feature","properties":{"country_en":"Ecuador","name":"Bellavista","name_adm0":"Ecuador","name_adm1":"Loja","name_adm2":"Espindola","name_en":"Bellavista"},"geometry":{"type":"Point","coordinates":[-79.45681,-4.56585]}},{"type":"feature","properties":{"country_en":"Ecuador","name":"Colaisaca","name_adm0":"Ecuador","name_adm1":"Loja","name_adm2":"Calvas","name_en":"Colaisaca"},"geometry":{"type":"Point","coordinates":[-79.69228,-4.31591]}},{"type":"feature","properties":{"country_en":"Ecuador","name":"Hacienda Casanga","name_adm0":"Ecuador","name_adm1":"Loja","name_adm2":"Paltas","name_en":"Hacienda Casanga"},"geometry":{"type":"Point","coordinates":[-79.76318999999998,-4.013199999999999]}},{"type":"feature","properties":{"country_en":"Ecuador","name":"Hacienda El Recuerdo","name_adm0":"Ecuador","name_adm1":"El Oro","name_adm2":"Machala","name_en":"Hacienda El Recuerdo"},"geometry":{"type":"Point","coordinates":[-79.93333,-3.4]}},{"type":"feature","properties":{"country_en":"Ecuador","name":"Juan Benigno Vela","name_adm0":"Ecuador","name_adm1":"Tungurahua","name_adm2":"Ambato","name_en":"Juan Benigno Vela"},"geometry":{"type":"Point","coordinates":[-78.69389,-1.30161]}},{"type":"feature","properties":{"country_en":"Ecuador","name":"Juan Montalvo","name_adm0":"Ecuador","name_adm1":"Carchi","name_adm2":"Mira","name_en":"Juan Montalvo"},"geometry":{"type":"Point","coordinates":[-78.0878,0.58685]}},{"type":"feature","properties":{"country_en":"Ecuador","name":"Monte Olivo","name_adm0":"Ecuador","name_adm1":"Carchi","name_adm2":"Bolívar","name_en":"Monte Olivo"},"geometry":{"type":"Point","coordinates":[-77.86409,0.38631]}},{"type":"feature","properties":{"country_en":"Ecuador","name":"Piedrahita","name_adm0":"Ecuador","name_adm1":"Guayas","name_adm2":"Nobol","name_en":"Piedrahita"},"geometry":{"type":"Point","coordinates":[-80.01133999999999,-1.9152699999999998]}},{"type":"feature","properties":{"country_en":"Ecuador","name":"Pimocha","name_adm0":"Ecuador","name_adm1":"Los Rios","name_adm2":"Babahoyo","name_en":"Pimocha"},"geometry":{"type":"Point","coordinates":[-79.60645,-1.83332]}},{"type":"feature","properties":{"country_en":"Ecuador","name":"Plaza Gutiérrez","name_adm0":"Ecuador","name_adm1":"Imbabura","name_adm2":"Cotacachi","name_en":"Plaza Gutiérrez"},"geometry":{"type":"Point","coordinates":[-78.49152999999998,0.34952]}},{"type":"feature","properties":{"country_en":"Ecuador","name":"San Pedro de Los Cofanes","name_adm0":"Ecuador","name_adm1":"Sucumbios","name_adm2":"Shushufindi","name_en":"San Pedro de Los Cofanes"},"geometry":{"type":"Point","coordinates":[-77.48911,0.1915]}},{"type":"feature","properties":{"country_en":"Ecuador","name":"Totoras","name_adm0":"Ecuador","name_adm1":"Tungurahua","name_adm2":"Ambato","name_en":"Totoras"},"geometry":{"type":"Point","coordinates":[-78.59702,-1.31558]}},{"type":"feature","properties":{"country_en":"Ecuador","name":"Tullapamba","name_adm0":"Ecuador","name_adm1":"Azuay","name_adm2":"Sigsig","name_en":"Tullapamba"},"geometry":{"type":"Point","coordinates":[-78.8144,-3.05331]}},{"type":"feature","properties":{"country_en":"Ecuador","name":"Tundayme","name_adm0":"Ecuador","name_adm1":"Zamora-Chinchipe","name_adm2":"El Pangui","name_en":"Tundayme"},"geometry":{"type":"Point","coordinates":[-78.49028,-3.57639]}},{"type":"feature","properties":{"country_en":"Ecuador","name":"Punín","name_adm0":"Ecuador","name_adm1":"Chimborazo","name_adm2":"Riobamba","name_en":"Punín"},"geometry":{"type":"Point","coordinates":[-78.65533,-1.7652499999999998]}},{"type":"feature","properties":{"country_en":"Ecuador","name":"Quilanga","name_adm0":"Ecuador","name_adm1":"Loja","name_adm2":"Quilanga","name_en":"Quilanga"},"geometry":{"type":"Point","coordinates":[-79.40111,-4.29743]}},{"type":"feature","properties":{"country_en":"Ecuador","name":"Simón Bolívar","name_adm0":"Ecuador","name_adm1":"Guayas","name_adm2":"Simon Bolivar","name_en":"Simón Bolívar"},"geometry":{"type":"Point","coordinates":[-80.35916,-2.18471]}},{"type":"feature","properties":{"country_en":"Ecuador","name":"El Limo","name_adm0":"Ecuador","name_adm1":"Loja","name_adm2":"Puyango","name_en":"El Limo"},"geometry":{"type":"Point","coordinates":[-80.12749,-3.9867400000000006]}},{"type":"feature","properties":{"country_en":"Ecuador","name":"El Lucero","name_adm0":"Ecuador","name_adm1":"Loja","name_adm2":"Calvas","name_en":"El Lucero"},"geometry":{"type":"Point","coordinates":[-79.46853,-4.40123]}},{"type":"feature","properties":{"country_en":"Ecuador","name":"El Mono","name_adm0":"Ecuador","name_adm1":"Manabi","name_adm2":"El Carmen","name_en":"El Mono"},"geometry":{"type":"Point","coordinates":[-80.06667,-0.66667]}},{"type":"feature","properties":{"country_en":"Ecuador","name":"Guachanamá","name_adm0":"Ecuador","name_adm1":"Loja","name_adm2":"Paltas","name_en":"Guachanamá"},"geometry":{"type":"Point","coordinates":[-79.88145,-4.04648]}},{"type":"feature","properties":{"country_en":"Ecuador","name":"Procel","name_adm0":"Ecuador","name_adm1":"Guayas","name_adm2":"Pedro Carbo","name_en":"Procel"},"geometry":{"type":"Point","coordinates":[-80.38617,-1.6787099999999997]}},{"type":"feature","properties":{"country_en":"Ecuador","name":"Nueva Fátima","name_adm0":"Ecuador","name_adm1":"Loja","name_adm2":"Sozoranga","name_en":"Nueva Fátima"},"geometry":{"type":"Point","coordinates":[-79.81906,-4.2671]}},{"type":"feature","properties":{"country_en":"Ecuador","name":"Santiago","name_adm0":"Ecuador","name_adm1":"Galapagos","name_adm2":"Santa Cruz","name_en":"Santiago"},"geometry":{"type":"Point","coordinates":[-90.362548,-0.586385]}},{"type":"feature","properties":{"country_en":"Ecuador","name":"Cube","name_adm0":"Ecuador","name_adm1":"Esmeraldas","name_adm2":"Quininde","name_en":"Cube"},"geometry":{"type":"Point","coordinates":[-79.63931,0.57926]}},{"type":"feature","properties":{"country_en":"Ecuador","name":"Pimampiro","name_adm0":"Ecuador","name_adm1":"Imbabura","name_adm2":"Pimampiro","name_en":"Pimampiro"},"geometry":{"type":"Point","coordinates":[-77.94068,0.39116]}},{"type":"feature","properties":{"country_en":"Ecuador","name":"Morro","name_adm0":"Ecuador","name_adm1":"Guayas","name_adm2":"Guayaquil","name_en":"Morro"},"geometry":{"type":"Point","coordinates":[-80.13333,-2.35]}},{"type":"feature","properties":{"country_en":"Ecuador","name":"Nanegalito","name_adm0":"Ecuador","name_adm1":"Pichincha","name_adm2":"Quito","name_en":"Nanegalito"},"geometry":{"type":"Point","coordinates":[-78.68224999999998,0.06263]}},{"type":"feature","properties":{"country_en":"Ecuador","name":"Pucapamba","name_adm0":"Ecuador","name_adm1":"Zamora-Chinchipe","name_adm2":"Chinchipe","name_en":"Pucapamba"},"geometry":{"type":"Point","coordinates":[-79.11582999999999,-4.94535]}},{"type":"feature","properties":{"country_en":"Ecuador","name":"Rumipamba","name_adm0":"Ecuador","name_adm1":"Pichincha","name_adm2":"Ruminahui","name_en":"Rumipamba"},"geometry":{"type":"Point","coordinates":[-78.41737,-0.4214899999999999]}},{"type":"feature","properties":{"country_en":"Ecuador","name":"Salima","name_adm0":"Ecuador","name_adm1":"Esmeraldas","name_adm2":"Muisne","name_en":"Salima"},"geometry":{"type":"Point","coordinates":[-79.96667,0.31667]}},{"type":"feature","properties":{"country_en":"Ecuador","name":"Sangay","name_adm0":"Ecuador","name_adm1":"Morona-Santiago","name_adm2":"Palora","name_en":"Sangay"},"geometry":{"type":"Point","coordinates":[-77.98233,-1.7888899999999999]}},{"type":"feature","properties":{"country_en":"Ecuador","name":"Paján","name_adm0":"Ecuador","name_adm1":"Manabi","name_adm2":"Pajan","name_en":"Paján"},"geometry":{"type":"Point","coordinates":[-80.42958,-1.55238]}},{"type":"feature","properties":{"country_en":"Ecuador","name":"Gualaquiza","name_adm0":"Ecuador","name_adm1":"Morona-Santiago","name_adm2":"Gualaquiza","name_en":"Gualaquiza"},"geometry":{"type":"Point","coordinates":[-78.58166,-3.4035899999999994]}},{"type":"feature","properties":{"country_en":"Ecuador","name":"Macas","name_adm0":"Ecuador","name_adm1":"Morona-Santiago","name_adm2":"Morona","name_en":"Macas"},"geometry":{"type":"Point","coordinates":[-78.93333,-2.9]}},{"type":"feature","properties":{"country_en":"Ecuador","name":"San Gabriel","name_adm0":"Ecuador","name_adm1":"Carchi","name_adm2":"Montufar","name_en":"San Gabriel"},"geometry":{"type":"Point","coordinates":[-77.83078,0.59318]}},{"type":"feature","properties":{"country_en":"Ecuador","name":"Tarapoa","name_adm0":"Ecuador","name_adm1":"Sucumbios","name_adm2":"Cuyabeno","name_en":"Tarapoa"},"geometry":{"type":"Point","coordinates":[-76.33812,-0.11951]}},{"type":"feature","properties":{"country_en":"Ecuador","name":"Bolívar","name_adm0":"Ecuador","name_adm1":"Carchi","name_adm2":"Bolívar","name_en":"Bolívar"},"geometry":{"type":"Point","coordinates":[-77.9041,0.50234]}},{"type":"feature","properties":{"country_en":"Ecuador","name":"Cascol","name_adm0":"Ecuador","name_adm1":"Manabi","name_adm2":"Pajan","name_en":"Cascol"},"geometry":{"type":"Point","coordinates":[-80.46667,-1.66667]}},{"type":"feature","properties":{"country_en":"Ecuador","name":"Guayllabamba","name_adm0":"Ecuador","name_adm1":"Pichincha","name_adm2":"Quito","name_en":"Guayllabamba"},"geometry":{"type":"Point","coordinates":[-78.33333,-0.05]}},{"type":"feature","properties":{"country_en":"Ecuador","name":"Maldonado","name_adm0":"Ecuador","name_adm1":"Carchi","name_adm2":"Tulcan","name_en":"Maldonado"},"geometry":{"type":"Point","coordinates":[-78.10316999999999,0.8914]}},{"type":"feature","properties":{"country_en":"Ecuador","name":"Nuevo Rocafuerte","name_adm0":"Ecuador","name_adm1":"Orellana","name_adm2":"Aguarico","name_en":"Nuevo Rocafuerte"},"geometry":{"type":"Point","coordinates":[-75.4132,-0.9279599999999999]}},{"type":"feature","properties":{"country_en":"Ecuador","name":"Olmedo","name_adm0":"Ecuador","name_adm1":"Imbabura","name_adm2":"Ibarra","name_en":"Olmedo"},"geometry":{"type":"Point","coordinates":[-78.07612,0.14134]}},{"type":"feature","properties":{"country_en":"Ecuador","name":"Oyacachi","name_adm0":"Ecuador","name_adm1":"Napo","name_adm2":"El Chaco","name_en":"Oyacachi"},"geometry":{"type":"Point","coordinates":[-78.07186,-0.21738999999999997]}},{"type":"feature","properties":{"country_en":"Ecuador","name":"Punta de Piedras","name_adm0":"Ecuador","name_adm1":"Guayas","name_adm2":"Guayaquil","name_en":"Punta de Piedras"},"geometry":{"type":"Point","coordinates":[-79.83333,-1.36667]}},{"type":"feature","properties":{"country_en":"Ecuador","name":"Puerto Inca","name_adm0":"Ecuador","name_adm1":"Guayas","name_adm2":"Naranjal","name_en":"Puerto Inca"},"geometry":{"type":"Point","coordinates":[-80.01667,-2.6333299999999995]}},{"type":"feature","properties":{"country_en":"Ecuador","name":"Puná","name_adm0":"Ecuador","name_adm1":"Guayas","name_adm2":"Guayaquil","name_en":"Puná"},"geometry":{"type":"Point","coordinates":[-79.7,-1.9]}},{"type":"feature","properties":{"country_en":"Ecuador","name":"San Antonio","name_adm0":"Ecuador","name_adm1":"Azuay","name_adm2":"Cuenca","name_en":"San Antonio"},"geometry":{"type":"Point","coordinates":[-79.01131,-2.81191]}},{"type":"feature","properties":{"country_en":"Ecuador","name":"San Antonio","name_adm0":"Ecuador","name_adm1":"Guayas","name_adm2":"Playas","name_en":"San Antonio"},"geometry":{"type":"Point","coordinates":[-80.39083,-2.5325]}},{"type":"feature","properties":{"country_en":"Ecuador","name":"San Mateo","name_adm0":"Ecuador","name_adm1":"Manabi","name_adm2":"Manta","name_en":"San Mateo"},"geometry":{"type":"Point","coordinates":[-80.81165,-0.9591799999999999]}},{"type":"feature","properties":{"country_en":"Ecuador","name":"San Miguel","name_adm0":"Ecuador","name_adm1":"Napo","name_adm2":"Tena","name_en":"San Miguel"},"geometry":{"type":"Point","coordinates":[-77.05898,-0.27629]}},{"type":"feature","properties":{"country_en":"Ecuador","name":"San Pablo","name_adm0":"Ecuador","name_adm1":"Manabi","name_adm2":"Santa Ana","name_en":"San Pablo"},"geometry":{"type":"Point","coordinates":[-80.58859,-1.5713499999999998]}},{"type":"feature","properties":{"country_en":"Ecuador","name":"San Rafael","name_adm0":"Ecuador","name_adm1":"Santa Elena","name_adm2":"Santa Elena","name_en":"San Rafael"},"geometry":{"type":"Point","coordinates":[-80.65692,-2.35801]}},{"type":"feature","properties":{"country_en":"Ecuador","name":"Santa Rosa","name_adm0":"Ecuador","name_adm1":"Cotopaxi","name_adm2":"Sigchos","name_en":"Santa Rosa"},"geometry":{"type":"Point","coordinates":[-78.6641,-1.28294]}},{"type":"feature","properties":{"country_en":"Ecuador","name":"Tiputini","name_adm0":"Ecuador","name_adm1":"Orellana","name_adm2":"Aguarico","name_en":"Tiputini"},"geometry":{"type":"Point","coordinates":[-75.52918,-0.7858]}},{"type":"feature","properties":{"country_en":"Ecuador","name":"Santa Rosa","name_adm0":"Ecuador","name_adm1":"Pichincha","name_adm2":"San Miguel de los Bancos","name_en":"Santa Rosa"},"geometry":{"type":"Point","coordinates":[-78.1,0.18333]}},{"type":"feature","properties":{"country_en":"Ecuador","name":"Molleturo","name_adm0":"Ecuador","name_adm1":"Azuay","name_adm2":"Cuenca","name_en":"Molleturo"},"geometry":{"type":"Point","coordinates":[-79.39705,-2.76704]}},{"type":"feature","properties":{"country_en":"Ecuador","name":"Sabanilla","name_adm0":"Ecuador","name_adm1":"Zamora-Chinchipe","name_adm2":"Zamora","name_en":"Sabanilla"},"geometry":{"type":"Point","coordinates":[-79.05577,-3.9649199999999998]}},{"type":"feature","properties":{"country_en":"Ecuador","name":"Anconcito","name_adm0":"Ecuador","name_adm1":"Santa Elena","name_adm2":"Salinas","name_en":"Anconcito"},"geometry":{"type":"Point","coordinates":[-80.88994,-2.3257]}},{"type":"feature","properties":{"country_en":"Ecuador","name":"Gonzalo Pizarro","name_adm0":"Ecuador","name_adm1":"Sucumbios","name_adm2":"Gonzalo Pizarro","name_en":"Gonzalo Pizarro"},"geometry":{"type":"Point","coordinates":[-77.37674,0.01555]}},{"type":"feature","properties":{"country_en":"Ecuador","name":"San Mateo","name_adm0":"Ecuador","name_adm1":"Esmeraldas","name_adm2":"Esmeraldas","name_en":"San Mateo"},"geometry":{"type":"Point","coordinates":[-79.63306,0.89169]}},{"type":"feature","properties":{"country_en":"Ecuador","name":"San Miguel de Salcedo","name_adm0":"Ecuador","name_adm1":"Cotopaxi","name_adm2":"Salcedo","name_en":"San Miguel de Salcedo"},"geometry":{"type":"Point","coordinates":[-78.59062,-1.04547]}},{"type":"feature","properties":{"country_en":"Ecuador","name":"San Juan de Ilumán","name_adm0":"Ecuador","name_adm1":"Imbabura","name_adm2":"Otavalo","name_en":"San Juan de Ilumán"},"geometry":{"type":"Point","coordinates":[-78.23332999999998,0.26667]}},{"type":"feature","properties":{"country_en":"Ecuador","name":"Sardinas","name_adm0":"Ecuador","name_adm1":"Napo","name_adm2":"El Chaco","name_en":"Sardinas"},"geometry":{"type":"Point","coordinates":[-78.020782,-0.23895100000000002]}},{"type":"feature","properties":{"country_en":"Ecuador","name":"Hacienda Guaitacama","name_adm0":"Ecuador","name_adm1":"Cotopaxi","name_adm2":"Latacunga","name_en":"Hacienda Guaitacama"},"geometry":{"type":"Point","coordinates":[-78.61667,-0.83333]}},{"type":"feature","properties":{"country_en":"Ecuador","name":"Guamote","name_adm0":"Ecuador","name_adm1":"Chimborazo","name_adm2":"Guamote","name_en":"Guamote"},"geometry":{"type":"Point","coordinates":[-78.70954999999998,-1.93307]}},{"type":"feature","properties":{"country_en":"Ecuador","name":"Izamba","name_adm0":"Ecuador","name_adm1":"Tungurahua","name_adm2":"Ambato","name_en":"Izamba"},"geometry":{"type":"Point","coordinates":[-78.58541,-1.22767]}},{"type":"feature","properties":{"country_en":"Ecuador","name":"José Luis Tamayo","name_adm0":"Ecuador","name_adm1":"Santa Elena","name_adm2":"Salinas","name_en":"Jose Luis Tamayo"},"geometry":{"type":"Point","coordinates":[-80.92856,-2.23038]}},{"type":"feature","properties":{"country_en":"Ecuador","name":"Cuyuja","name_adm0":"Ecuador","name_adm1":"Napo","name_adm2":"Quijos","name_en":"Cuyuja"},"geometry":{"type":"Point","coordinates":[-78.02614999999999,-0.4137799999999999]}},{"type":"feature","properties":{"country_en":"Ecuador","name":"Joseguango Bajo","name_adm0":"Ecuador","name_adm1":"Cotopaxi","name_adm2":"Latacunga","name_en":"Joseguango Bajo"},"geometry":{"type":"Point","coordinates":[-78.6,-0.83333]}},{"type":"feature","properties":{"country_en":"Ecuador","name":"San Sebastián de Yuluc","name_adm0":"Ecuador","name_adm1":"Loja","name_adm2":"Saraguro","name_en":"San Sebastián de Yuluc"},"geometry":{"type":"Point","coordinates":[-79.43819,-3.37001]}},{"type":"feature","properties":{"country_en":"Ecuador","name":"Papallacta","name_adm0":"Ecuador","name_adm1":"Napo","name_adm2":"Quijos","name_en":"Papallacta"},"geometry":{"type":"Point","coordinates":[-78.15176,-0.369364]}},{"type":"feature","properties":{"country_en":"Ecuador","name":"Machachi","name_adm0":"Ecuador","name_adm1":"Pichincha","name_adm2":"Mejia","name_en":"Machachi"},"geometry":{"type":"Point","coordinates":[-78.56712,-0.51011]}},{"type":"feature","properties":{"country_en":"Ecuador","name":"Santa María","name_adm0":"Ecuador","name_adm1":"Galapagos","name_adm2":"Santa Cruz","name_en":"Santa María"},"geometry":{"type":"Point","coordinates":[-90.45,-1.2499999999999998]}},{"type":"feature","properties":{"country_en":"Ecuador","name":"Sequita","name_adm0":"Ecuador","name_adm1":"Manabi","name_adm2":"Montecristi","name_en":"Sequita"},"geometry":{"type":"Point","coordinates":[-80.58351,-1.02642]}},{"type":"feature","properties":{"country_en":"Ecuador","name":"Daule","name_adm0":"Ecuador","name_adm1":"Guayas","name_adm2":"Daule","name_en":"Daule"},"geometry":{"type":"Point","coordinates":[-79.996948,-1.8453830000000002]}},{"type":"feature","properties":{"country_en":"Ecuador","name":"Sevilla de Oro","name_adm0":"Ecuador","name_adm1":"Azuay","name_adm2":"Sevilla de Oro","name_en":"Sevilla de Oro"},"geometry":{"type":"Point","coordinates":[-79.0274045,-2.898248]}},{"type":"feature","properties":{"country_en":"Ecuador","name":"Sigsig","name_adm0":"Ecuador","name_adm1":"Azuay","name_adm2":"Sigsig","name_en":"Sigsig"},"geometry":{"type":"Point","coordinates":[-78.881492,-3.024083]}},{"type":"feature","properties":{"country_en":"Ecuador","name":"Guachapala","name_adm0":"Ecuador","name_adm1":"Azuay","name_adm2":"Guachapala","name_en":"Guachapala"},"geometry":{"type":"Point","coordinates":[-78.7,-2.76667]}},{"type":"feature","properties":{"country_en":"Ecuador","name":"Galapagos","name_adm0":"Ecuador","name_adm1":"Galapagos","name_en":"Galapagos"},"geometry":{"type":"Point","coordinates":[-90.87341,-0.67015]}},{"type":"feature","properties":{"country_en":"Ecuador","name":"Cuyuja","name_adm0":"Ecuador","name_adm1":"Napo","name_adm2":"Quijos","name_en":"Cuyuja"},"geometry":{"type":"Point","coordinates":[-78.08052,-0.368726]}},{"type":"feature","properties":{"country_en":"Ecuador","name":"Cangahua","name_adm0":"Ecuador","name_adm1":"Pichincha","name_adm2":"Cayambe","name_en":"Cangahua"},"geometry":{"type":"Point","coordinates":[-78.16774,-0.06239999999999999]}},{"type":"feature","properties":{"country_en":"Ecuador","name":"Sigsig","name_adm0":"Ecuador","name_adm1":"Azuay","name_adm2":"Sigsig","name_en":"Sigsig"},"geometry":{"type":"Point","coordinates":[-78.7945,-3.05113]}},{"type":"feature","properties":{"country_en":"Ecuador","name":"Tambillo","name_adm0":"Ecuador","name_adm1":"Pichincha","name_adm2":"Mejia","name_en":"Tambillo"},"geometry":{"type":"Point","coordinates":[-78.54582,-0.4042899999999999]}},{"type":"feature","properties":{"country_en":"Ecuador","name":"Valladolid","name_adm0":"Ecuador","name_adm1":"Zamora-Chinchipe","name_adm2":"Palanda","name_en":"Valladolid"},"geometry":{"type":"Point","coordinates":[-79.13093,-4.55091]}},{"type":"feature","properties":{"country_en":"Ecuador","name":"Chambo","name_adm0":"Ecuador","name_adm1":"Chimborazo","name_adm2":"Chambo","name_en":"Chambo"},"geometry":{"type":"Point","coordinates":[-78.482723,-1.759681]}},{"type":"feature","properties":{"country_en":"Ecuador","name":"Esmeraldas","name_adm0":"Ecuador","name_adm1":"Esmeraldas","name_adm2":"Esmeraldas","name_en":"Esmeraldas"},"geometry":{"type":"Point","coordinates":[-79.66079,0.9263300000000001]}},{"type":"feature","properties":{"country_en":"Ecuador","name":"Honorato Vásquez","name_adm0":"Ecuador","name_adm1":"Canar","name_adm2":"Canar","name_en":"Honorato Vásquez"},"geometry":{"type":"Point","coordinates":[-78.92124,-2.55737]}},{"type":"feature","properties":{"country_en":"Ecuador","name":"Pistishí","name_adm0":"Ecuador","name_adm1":"Chimborazo","name_adm2":"Alausi","name_en":"Pistishí"},"geometry":{"type":"Point","coordinates":[-78.88453,-2.24799]}},{"type":"feature","properties":{"country_en":"Ecuador","name":"Portoviejo","name_adm0":"Ecuador","name_adm1":"Manabi","name_adm2":"Portoviejo","name_en":"Portoviejo"},"geometry":{"type":"Point","coordinates":[-80.45139,-1.05417]}},{"type":"feature","properties":{"country_en":"Ecuador","name":"Tena","name_adm0":"Ecuador","name_adm1":"Napo","name_adm2":"Tena","name_en":"Tena"},"geometry":{"type":"Point","coordinates":[-77.81286,-0.9938]}},{"type":"feature","properties":{"country_en":"Ecuador","name":"Machala","name_adm0":"Ecuador","name_adm1":"El Oro","name_adm2":"Machala","name_en":"Machala"},"geometry":{"type":"Point","coordinates":[-79.95972,-3.25694]}},{"type":"feature","properties":{"country_en":"Ecuador","name":"La Libertad","name_adm0":"Ecuador","name_adm1":"Santa Elena","name_adm2":"La Libertad","name_en":"La Libertad"},"geometry":{"type":"Point","coordinates":[-80.91039,-2.233]}},{"type":"feature","properties":{"country_en":"Ecuador","name":"Salango","name_adm0":"Ecuador","name_adm1":"Manabi","name_adm2":"Puerto Lopez","name_en":"Salango"},"geometry":{"type":"Point","coordinates":[-80.8425,-1.59288]}},{"type":"feature","properties":{"country_en":"Ecuador","name":"Cuyabeno","name_adm0":"Ecuador","name_adm1":"Sucumbios","name_adm2":"Cuyabeno","name_en":"Cuyabeno"},"geometry":{"type":"Point","coordinates":[-75.89398,-0.25911]}},{"type":"feature","properties":{"country_en":"Ecuador","name":"Tarqui","name_adm0":"Ecuador","name_adm1":"Azuay","name_adm2":"Cuenca","name_en":"Tarqui"},"geometry":{"type":"Point","coordinates":[-79.03437,-3.01418]}},{"type":"feature","properties":{"country_en":"Ecuador","name":"Morona","name_adm0":"Ecuador","name_adm1":"Morona-Santiago","name_adm2":"Morona","name_en":"Morona"},"geometry":{"type":"Point","coordinates":[-77.69028,-2.8878399999999997]}},{"type":"feature","properties":{"country_en":"Ecuador","name":"Guano","name_adm0":"Ecuador","name_adm1":"Chimborazo","name_adm2":"Guano","name_en":"Guano"},"geometry":{"type":"Point","coordinates":[-78.818664,-1.49222]}},{"type":"feature","properties":{"country_en":"Ecuador","name":"Palanda","name_adm0":"Ecuador","name_adm1":"Zamora-Chinchipe","name_adm2":"Palanda","name_en":"Palanda"},"geometry":{"type":"Point","coordinates":[-78.99383399999999,-4.2965]}},{"type":"feature","properties":{"country_en":"Ecuador","name":"Palora","name_adm0":"Ecuador","name_adm1":"Morona-Santiago","name_adm2":"Palora","name_en":"Palora"},"geometry":{"type":"Point","coordinates":[-78.095787,-1.78994]}},{"type":"feature","properties":{"country_en":"Ecuador","name":"Pedernales","name_adm0":"Ecuador","name_adm1":"Manabi","name_adm2":"Pedernales","name_en":"Pedernales"},"geometry":{"type":"Point","coordinates":[-79.572086,0.20870199999999997]}},{"type":"feature","properties":{"country_en":"Ecuador","name":"Ambato","name_adm0":"Ecuador","name_adm1":"Tungurahua","name_adm2":"Ambato","name_en":"Ambato"},"geometry":{"type":"Point","coordinates":[-78.620824,-1.238011]}},{"type":"feature","properties":{"country_en":"Ecuador","name":"Machachi","name_adm0":"Ecuador","name_adm1":"Pichincha","name_adm2":"Mejia","name_en":"Machachi"},"geometry":{"type":"Point","coordinates":[-78.465334,-0.5570764999999999]}},{"type":"feature","properties":{"country_en":"Ecuador","name":"Tababela","name_adm0":"Ecuador","name_adm1":"Pichincha","name_adm2":"Quito","name_en":"Tababela"},"geometry":{"type":"Point","coordinates":[-78.34408,-0.18627]}},{"type":"feature","properties":{"country_en":"Ecuador","name":"Tumbabiro","name_adm0":"Ecuador","name_adm1":"Imbabura","name_adm2":"San Miguel de Urcuqui","name_en":"Tumbabiro"},"geometry":{"type":"Point","coordinates":[-78.1898,0.4612]}},{"type":"feature","properties":{"country_en":"Ecuador","name":"Yacuambi","name_adm0":"Ecuador","name_adm1":"Zamora-Chinchipe","name_adm2":"Zamora","name_en":"Yacuambi"},"geometry":{"type":"Point","coordinates":[-78.84999999999998,-3.93333]}},{"type":"feature","properties":{"country_en":"Ecuador","name":"Yaruguí","name_adm0":"Ecuador","name_adm1":"Pichincha","name_adm2":"Quito","name_en":"Yaruguí"},"geometry":{"type":"Point","coordinates":[-78.31894,-0.16221]}},{"type":"feature","properties":{"country_en":"Ecuador","name":"Zapotal","name_adm0":"Ecuador","name_adm1":"Santa Elena","name_adm2":"Santa Elena","name_en":"Zapotal"},"geometry":{"type":"Point","coordinates":[-80.56263,-2.31693]}},{"type":"feature","properties":{"country_en":"Ecuador","name":"Alamor","name_adm0":"Ecuador","name_adm1":"Loja","name_adm2":"Puyango","name_en":"Alamor"},"geometry":{"type":"Point","coordinates":[-80.02141,-4.01847]}},{"type":"feature","properties":{"country_en":"Ecuador","name":"Flavio Alfaro","name_adm0":"Ecuador","name_adm1":"Manabi","name_adm2":"Flavio Alfaro","name_en":"Flavio Alfaro"},"geometry":{"type":"Point","coordinates":[-79.90542,-0.40555]}},{"type":"feature","properties":{"country_en":"Ecuador","name":"Julcuy","name_adm0":"Ecuador","name_adm1":"Manabi","name_adm2":"Jipijapa","name_en":"Julcuy"},"geometry":{"type":"Point","coordinates":[-80.6251,-1.47514]}},{"type":"feature","properties":{"country_en":"Ecuador","name":"Loreto","name_adm0":"Ecuador","name_adm1":"Orellana","name_adm2":"Loreto","name_en":"Loreto"},"geometry":{"type":"Point","coordinates":[-77.31115,-0.69243]}},{"type":"feature","properties":{"country_en":"Ecuador","name":"La Bocana","name_adm0":"Ecuador","name_adm1":"El Oro","name_adm2":"Pinas","name_en":"La Bocana"},"geometry":{"type":"Point","coordinates":[-79.89648,-3.69012]}},{"type":"feature","properties":{"country_en":"Ecuador","name":"Imantag","name_adm0":"Ecuador","name_adm1":"Imbabura","name_adm2":"Cotacachi","name_en":"Imantag"},"geometry":{"type":"Point","coordinates":[-78.24915,0.35696]}},{"type":"feature","properties":{"country_en":"Ecuador","name":"Patate","name_adm0":"Ecuador","name_adm1":"Tungurahua","name_adm2":"Patate","name_en":"Patate"},"geometry":{"type":"Point","coordinates":[-78.50799999999998,-1.31215]}},{"type":"feature","properties":{"country_en":"Ecuador","name":"La Providencia","name_adm0":"Ecuador","name_adm1":"Chimborazo","name_adm2":"Guano","name_en":"La Providencia"},"geometry":{"type":"Point","coordinates":[-78.54966999999999,-1.55147]}},{"type":"feature","properties":{"country_en":"Ecuador","name":"La Troncal","name_adm0":"Ecuador","name_adm1":"Canar","name_adm2":"La Troncal","name_en":"La Troncal"},"geometry":{"type":"Point","coordinates":[-79.33977,-2.42355]}},{"type":"feature","properties":{"country_en":"Ecuador","name":"Tiputini","name_adm0":"Ecuador","name_adm1":"Orellana","name_adm2":"Francisco de Orellana","name_en":"Tiputini"},"geometry":{"type":"Point","coordinates":[-76.35788,-0.7189699999999999]}},{"type":"feature","properties":{"country_en":"Ecuador","name":"Tixán","name_adm0":"Ecuador","name_adm1":"Chimborazo","name_adm2":"Guamote","name_en":"Tixán"},"geometry":{"type":"Point","coordinates":[-78.80259999999998,-2.15184]}},{"type":"feature","properties":{"country_en":"Ecuador","name":"Toacazo","name_adm0":"Ecuador","name_adm1":"Cotopaxi","name_adm2":"Latacunga","name_en":"Toacazo"},"geometry":{"type":"Point","coordinates":[-78.69039,-0.75335]}},{"type":"feature","properties":{"country_en":"Ecuador","name":"Toachi","name_adm0":"Ecuador","name_adm1":"Pichincha","name_adm2":"Mejia","name_en":"Toachi"},"geometry":{"type":"Point","coordinates":[-78.95482,-0.3177]}},{"type":"feature","properties":{"country_en":"Ecuador","name":"Cubijíes","name_adm0":"Ecuador","name_adm1":"Chimborazo","name_adm2":"Riobamba","name_en":"Cubijíes"},"geometry":{"type":"Point","coordinates":[-78.59376,-1.6428199999999997]}},{"type":"feature","properties":{"country_en":"Ecuador","name":"La Aurora","name_adm0":"Ecuador","name_adm1":"Santo Domingo de los Tsáchilas","name_adm2":"Santo Domingo de los Tsáchilas","name_en":"La Aurora"},"geometry":{"type":"Point","coordinates":[-79.21447,-0.29026]}},{"type":"feature","properties":{"country_en":"Ecuador","name":"Pacayacu","name_adm0":"Ecuador","name_adm1":"Pastaza","name_adm2":"Pastaza","name_en":"Pacayacu"},"geometry":{"type":"Point","coordinates":[-77.59687,-1.64758]}},{"type":"feature","properties":{"country_en":"Ecuador","name":"Rocafuerte","name_adm0":"Ecuador","name_adm1":"Esmeraldas","name_adm2":"Rio Verde","name_en":"Rocafuerte"},"geometry":{"type":"Point","coordinates":[-79.37496,1.06785]}},{"type":"feature","properties":{"country_en":"Ecuador","name":"Yuturi","name_adm0":"Ecuador","name_adm1":"Orellana","name_adm2":"Francisco de Orellana","name_en":"Yuturi"},"geometry":{"type":"Point","coordinates":[-76.01463,-0.5701]}},{"type":"feature","properties":{"country_en":"Ecuador","name":"Zumba","name_adm0":"Ecuador","name_adm1":"Zamora-Chinchipe","name_adm2":"Chinchipe","name_en":"Zumba"},"geometry":{"type":"Point","coordinates":[-79.13112,-4.86334]}},{"type":"feature","properties":{"country_en":"Ecuador","name":"La Esperanza","name_adm0":"Ecuador","name_adm1":"Pichincha","name_adm2":"Pedro Moncayo","name_en":"La Esperanza"},"geometry":{"type":"Point","coordinates":[-78.25,0.05]}},{"type":"feature","properties":{"country_en":"Ecuador","name":"Otón","name_adm0":"Ecuador","name_adm1":"Pichincha","name_adm2":"Cayambe","name_en":"Otón"},"geometry":{"type":"Point","coordinates":[-78.26505,-0.01071]}},{"type":"feature","properties":{"country_en":"Ecuador","name":"Nobol","name_adm0":"Ecuador","name_adm1":"Guayas","name_adm2":"Nobol","name_en":"Nobol"},"geometry":{"type":"Point","coordinates":[-80.01667,-1.91667]}},{"type":"feature","properties":{"country_en":"Ecuador","name":"San José","name_adm0":"Ecuador","name_adm1":"Bolivar","name_adm2":"San Miguel","name_en":"San José"},"geometry":{"type":"Point","coordinates":[-78.48953999999999,-1.1016999999999997]}},{"type":"feature","properties":{"country_en":"Ecuador","name":"Chimborazo","name_adm0":"Ecuador","name_adm1":"Chimborazo","name_en":"Chimborazo"},"geometry":{"type":"Point","coordinates":[-78.74999999999999,-1.91667]}},{"type":"feature","properties":{"country_en":"Ecuador","name":"Napo","name_adm0":"Ecuador","name_adm1":"Napo","name_en":"Napo"},"geometry":{"type":"Point","coordinates":[-77.83333,-0.66667]}},{"type":"feature","properties":{"country_en":"Ecuador","name":"Pastaza","name_adm0":"Ecuador","name_adm1":"Pastaza","name_en":"Pastaza"},"geometry":{"type":"Point","coordinates":[-77,-1.91667]}},{"type":"feature","properties":{"country_en":"Ecuador","name":"Pichincha","name_adm0":"Ecuador","name_adm1":"Pichincha","name_en":"Pichincha"},"geometry":{"type":"Point","coordinates":[-78.5,-0.08333]}},{"type":"feature","properties":{"country_en":"Ecuador","name":"Zamora-Chinchipe","name_adm0":"Ecuador","name_adm1":"Zamora-Chinchipe","name_en":"Zamora-Chinchipe"},"geometry":{"type":"Point","coordinates":[-78.83333,-4.25]}},{"type":"feature","properties":{"country_en":"Ecuador","name":"Malacatos","name_adm0":"Ecuador","name_adm1":"Loja","name_adm2":"Loja","name_en":"Malacatos"},"geometry":{"type":"Point","coordinates":[-79.244041,-4.22]}},{"type":"feature","properties":{"country_en":"Ecuador","name":"Baeza","name_adm0":"Ecuador","name_adm1":"Napo","name_adm2":"Quijos","name_en":"Baeza"},"geometry":{"type":"Point","coordinates":[-77.88963299999999,-0.48150400000000004]}},{"type":"feature","properties":{"country_en":"Ecuador","name":"Salinas","name_adm0":"Ecuador","name_adm1":"Santa Elena","name_adm2":"Salinas","name_en":"Salinas"},"geometry":{"type":"Point","coordinates":[-80.980567,-2.1984419999999996]}},{"type":"feature","properties":{"country_en":"Ecuador","name":"Archidona","name_adm0":"Ecuador","name_adm1":"Napo","name_adm2":"Archidona","name_en":"Archidona"},"geometry":{"type":"Point","coordinates":[-78.259649,-0.6584779999999999]}},{"type":"feature","properties":{"country_en":"Ecuador","name":"Atacames","name_adm0":"Ecuador","name_adm1":"Esmeraldas","name_adm2":"Atacames","name_en":"Atacames"},"geometry":{"type":"Point","coordinates":[-79.865112,0.874752]}},{"type":"feature","properties":{"country_en":"Ecuador","name":"Banos","name_adm0":"Ecuador","name_adm1":"Tungurahua","name_adm2":"Banos","name_en":"Banos"},"geometry":{"type":"Point","coordinates":[-78.31604,-1.389805]}},{"type":"feature","properties":{"country_en":"Ecuador","name":"Atacames","name_adm0":"Ecuador","name_adm1":"Esmeraldas","name_adm2":"Atacames","name_en":"Atacames"},"geometry":{"type":"Point","coordinates":[-79.84056399999999,0.863252]}},{"type":"feature","properties":{"country_en":"Ecuador","name":"Calacali","name_adm0":"Ecuador","name_adm1":"Pichincha","name_adm2":"Quito","name_en":"Calacali"},"geometry":{"type":"Point","coordinates":[-78.508408,0.026779]}},{"type":"feature","properties":{"country_en":"Ecuador","name":"Floreana","name_adm0":"Ecuador","name_adm1":"Galapagos","name_adm2":"Santa Cruz","name_en":"Floreana"},"geometry":{"type":"Point","coordinates":[-90.435556,-1.2362119999999999]}},{"type":"feature","properties":{"country_en":"Ecuador","name":"Isabela","name_adm0":"Ecuador","name_adm1":"Galapagos","name_adm2":"Isabela","name_en":"Isabela"},"geometry":{"type":"Point","coordinates":[-90.990829,-0.9509599999999999]}},{"type":"feature","properties":{"country_en":"Ecuador","name":"Muisne","name_adm0":"Ecuador","name_adm1":"Esmeraldas","name_adm2":"Muisne","name_en":"Muisne"},"geometry":{"type":"Point","coordinates":[-80.01715799999998,0.611617]}},{"type":"feature","properties":{"country_en":"Ecuador","name":"Quiroga","name_adm0":"Ecuador","name_adm1":"Imbabura","name_adm2":"Cotacachi","name_en":"Quiroga"},"geometry":{"type":"Point","coordinates":[-78.28473,0.28281]}},{"type":"feature","properties":{"country_en":"Ecuador","name":"Pasaje","name_adm0":"Ecuador","name_adm1":"El Oro","name_adm2":"Pasaje","name_en":"Pasaje"},"geometry":{"type":"Point","coordinates":[-79.80697,-3.32561]}},{"type":"feature","properties":{"country_en":"Ecuador","name":"Montecristi","name_adm0":"Ecuador","name_adm1":"Manabi","name_adm2":"Montecristi","name_en":"Montecristi"},"geometry":{"type":"Point","coordinates":[-80.65889,-1.04576]}},{"type":"feature","properties":{"country_en":"Ecuador","name":"Puerto Misahuallí","name_adm0":"Ecuador","name_adm1":"Napo","name_adm2":"Tena","name_en":"Puerto Misahuallí"},"geometry":{"type":"Point","coordinates":[-77.66661,-1.03534]}},{"type":"feature","properties":{"country_en":"Ecuador","name":"Catamayo","name_adm0":"Ecuador","name_adm1":"Loja","name_adm2":"Catamayo","name_en":"Catamayo"},"geometry":{"type":"Point","coordinates":[-79.35912,-3.9865199999999996]}},{"type":"feature","properties":{"country_en":"Ecuador","name":"Bolivar","name_adm0":"Ecuador","name_adm1":"Bolivar","name_en":"Bolivar"},"geometry":{"type":"Point","coordinates":[-79.08333,-1.58333]}},{"type":"feature","properties":{"country_en":"Ecuador","name":"Mira","name_adm0":"Ecuador","name_adm1":"Carchi","name_adm2":"Mira","name_en":"Mira"},"geometry":{"type":"Point","coordinates":[-78.138427,0.678561]}},{"type":"feature","properties":{"country_en":"Ecuador","name":"Cevallos","name_adm0":"Ecuador","name_adm1":"Tungurahua","name_adm2":"Cevallos","name_en":"Cevallos"},"geometry":{"type":"Point","coordinates":[-78.6167,-1.35512]}},{"type":"feature","properties":{"country_en":"Ecuador","name":"Chaguarpamba","name_adm0":"Ecuador","name_adm1":"Loja","name_adm2":"Chaguarpamba","name_en":"Chaguarpamba"},"geometry":{"type":"Point","coordinates":[-79.64455999999998,-3.8777599999999994]}},{"type":"feature","properties":{"country_en":"Ecuador","name":"Gualel","name_adm0":"Ecuador","name_adm1":"Loja","name_adm2":"Loja","name_en":"Gualel"},"geometry":{"type":"Point","coordinates":[-79.37543999999998,-3.7699799999999994]}},{"type":"feature","properties":{"country_en":"Ecuador","name":"La Bonita","name_adm0":"Ecuador","name_adm1":"Sucumbios","name_adm2":"Sucumbios","name_en":"La Bonita"},"geometry":{"type":"Point","coordinates":[-77.54479,0.4722799999999999]}},{"type":"feature","properties":{"country_en":"Ecuador","name":"Isidro Ayora","name_adm0":"Ecuador","name_adm1":"Guayas","name_adm2":"Isidro Ayora","name_en":"Isidro Ayora"},"geometry":{"type":"Point","coordinates":[-80.1449,-1.88082]}},{"type":"feature","properties":{"country_en":"Ecuador","name":"Montalvo","name_adm0":"Ecuador","name_adm1":"Los Rios","name_adm2":"Montalvo","name_en":"Montalvo"},"geometry":{"type":"Point","coordinates":[-79.28759,-1.79008]}},{"type":"feature","properties":{"country_en":"Ecuador","name":"Olmedo","name_adm0":"Ecuador","name_adm1":"Loja","name_adm2":"Olmedo","name_en":"Olmedo"},"geometry":{"type":"Point","coordinates":[-79.64633,-3.9348899999999998]}},{"type":"feature","properties":{"country_en":"Ecuador","name":"Pichincha","name_adm0":"Ecuador","name_adm1":"Manabi","name_adm2":"Pichincha","name_en":"Pichincha"},"geometry":{"type":"Point","coordinates":[-79.82139,-1.04695]}},{"type":"feature","properties":{"country_en":"Ecuador","name":"Salinas","name_adm0":"Ecuador","name_adm1":"Santa Elena","name_adm2":"Salinas","name_en":"Salinas"},"geometry":{"type":"Point","coordinates":[-80.974731,-2.210449]}},{"type":"feature","properties":{"country_en":"Ecuador","name":"Santo Domingo de los Tsáchilas","name_adm0":"Ecuador","name_adm1":"Santo Domingo de los Tsáchilas","name_en":"Santo Domingo de los Tsáchilas"},"geometry":{"type":"Point","coordinates":[-79.25,-0.33333]}},{"type":"feature","properties":{"country_en":"Ecuador","name":"Diez de Agosto","name_adm0":"Ecuador","name_adm1":"Pastaza","name_adm2":"Pastaza","name_en":"Diez de Agosto"},"geometry":{"type":"Point","coordinates":[-77.90653,-1.45853]}},{"type":"feature","properties":{"country_en":"Ecuador","name":"Archidona","name_adm0":"Ecuador","name_adm1":"Napo","name_adm2":"Archidona","name_en":"Archidona"},"geometry":{"type":"Point","coordinates":[-77.80772,-0.9095]}},{"type":"feature","properties":{"country_en":"Ecuador","name":"Jipijapa","name_adm0":"Ecuador","name_adm1":"Manabi","name_adm2":"Jipijapa","name_en":"Jipijapa"},"geometry":{"type":"Point","coordinates":[-80.749511,-1.345701]}},{"type":"feature","properties":{"country_en":"Ecuador","name":"Pedro Vicente Maldonado","name_adm0":"Ecuador","name_adm1":"Pichincha","name_adm2":"Pedro Vicente Maldonado","name_en":"Pedro Vicente Maldonado"},"geometry":{"type":"Point","coordinates":[-79.139103,0.146819]}},{"type":"feature","properties":{"country_en":"Ecuador","name":"Santa Rosa","name_adm0":"Ecuador","name_adm1":"El Oro","name_adm2":"Santa Rosa","name_en":"Santa Rosa"},"geometry":{"type":"Point","coordinates":[-80.148696,-3.1873079999999994]}},{"type":"feature","properties":{"country_en":"Ecuador","name":"Buena Fe","name_adm0":"Ecuador","name_adm1":"Los Rios","name_adm2":"Buena Fe","name_en":"Buena Fe"},"geometry":{"type":"Point","coordinates":[-79.519042,-1.065612]}},{"type":"feature","properties":{"country_en":"Ecuador","name":"Cascales","name_adm0":"Ecuador","name_adm1":"Sucumbios","name_adm2":"Cascales","name_en":"Cascales"},"geometry":{"type":"Point","coordinates":[-76.285457,-0.435586]}},{"type":"feature","properties":{"country_en":"Ecuador","name":"Baños de Agua Santa","name_adm0":"Ecuador","name_adm1":"Tungurahua","name_adm2":"Banos","name_en":"Baños de Agua Santa"},"geometry":{"type":"Point","coordinates":[-78.430194,-1.390663]}},{"type":"feature","properties":{"country_en":"Ecuador","name":"Carlos Julio Arosemena Tola","name_adm0":"Ecuador","name_adm1":"Napo","name_adm2":"Carlos Julio Arosemena Tola","name_en":"Carlos Julio Arosemena Tola"},"geometry":{"type":"Point","coordinates":[-77.851055,-1.16948]}},{"type":"feature","properties":{"country_en":"Ecuador","name":"Estero de Boca","name_adm0":"Ecuador","name_adm1":"Guayas","name_adm2":"Guayaquil","name_en":"Estero de Boca"},"geometry":{"type":"Point","coordinates":[-80.22778999999998,-2.78993]}},{"type":"feature","properties":{"country_en":"Ecuador","name":"Huasimo","name_adm0":"Ecuador","name_adm1":"Loja","name_adm2":"Zapotillo","name_en":"Huasimo"},"geometry":{"type":"Point","coordinates":[-80.13333,-3.91667]}},{"type":"feature","properties":{"country_en":"Ecuador","name":"Las Naves","name_adm0":"Ecuador","name_adm1":"Bolivar","name_adm2":"Las Naves","name_en":"Las Naves"},"geometry":{"type":"Point","coordinates":[-79.3,-1.28333]}},{"type":"feature","properties":{"country_en":"Ecuador","name":"Latacunga","name_adm0":"Ecuador","name_adm1":"Cotopaxi","name_adm2":"Latacunga","name_en":"Latacunga"},"geometry":{"type":"Point","coordinates":[-78.609924,-0.926845]}},{"type":"feature","properties":{"country_en":"Ecuador","name":"Duran","name_adm0":"Ecuador","name_adm1":"Guayas","name_adm2":"Duran","name_en":"Duran"},"geometry":{"type":"Point","coordinates":[-79.862365,-2.1981414999999997]}},{"type":"feature","properties":{"country_en":"Ecuador","name":"Cuenca","name_adm0":"Ecuador","name_adm1":"Azuay","name_adm2":"Cuenca","name_en":"Cuenca"},"geometry":{"type":"Point","coordinates":[-79.01041,-2.898124]}},{"type":"feature","properties":{"country_en":"Ecuador","name":"San Juan Bosco","name_adm0":"Ecuador","name_adm1":"Morona-Santiago","name_adm2":"San Juan Bosco","name_en":"San Juan Bosco"},"geometry":{"type":"Point","coordinates":[-78.53333,-3.11667]}},{"type":"feature","properties":{"country_en":"Ecuador","name":"Zhud","name_adm0":"Ecuador","name_adm1":"Canar","name_adm2":"Canar","name_en":"Zhud"},"geometry":{"type":"Point","coordinates":[-79.01667,-2.48333]}},{"type":"feature","properties":{"country_en":"Ecuador","name":"El Oro","name_adm0":"Ecuador","name_adm1":"El Oro","name_en":"El Oro"},"geometry":{"type":"Point","coordinates":[-79.83333,-3.5]}},{"type":"feature","properties":{"country_en":"Ecuador","name":"Rio Negro","name_adm0":"Ecuador","name_adm1":"Tungurahua","name_adm2":"Banos","name_en":"Rio Negro"},"geometry":{"type":"Point","coordinates":[-78.19862299999998,-1.4105699999999999]}},{"type":"feature","properties":{"country_en":"Ecuador","name":"San Rafael","name_adm0":"Ecuador","name_adm1":"Imbabura","name_adm2":"Otavalo","name_en":"San Rafael"},"geometry":{"type":"Point","coordinates":[-78.270206,0.140075]}},{"type":"feature","properties":{"country_en":"Ecuador","name":"Turi","name_adm0":"Ecuador","name_adm1":"Azuay","name_adm2":"Cuenca","name_en":"Turi"},"geometry":{"type":"Point","coordinates":[-79.066101,-2.923468]}},{"type":"feature","properties":{"country_en":"Ecuador","name":"Calacalí","name_adm0":"Ecuador","name_adm1":"Pichincha","name_adm2":"Quito","name_en":"Calacalí"},"geometry":{"type":"Point","coordinates":[-78.51544,-0.00154]}},{"type":"feature","properties":{"country_en":"Ecuador","name":"Mindo","name_adm0":"Ecuador","name_adm1":"Pichincha","name_adm2":"San Miguel de los Bancos","name_en":"Mindo"},"geometry":{"type":"Point","coordinates":[-78.7751,-0.05294]}},{"type":"feature","properties":{"country_en":"Ecuador","name":"San Antonio","name_adm0":"Ecuador","name_adm1":"Pichincha","name_adm2":"Quito","name_en":"San Antonio"},"geometry":{"type":"Point","coordinates":[-78.44688,-0.00662]}},{"type":"feature","properties":{"country_en":"Ecuador","name":"Tulcan","name_adm0":"Ecuador","name_adm1":"Carchi","name_adm2":"Tulcan","name_en":"Tulcan"},"geometry":{"type":"Point","coordinates":[-77.6884455,0.806438]}},{"type":"feature","properties":{"country_en":"Ecuador","name":"General Villamil","name_adm0":"Ecuador","name_adm1":"Guayas","name_adm2":"Playas","name_en":"General Villamil"},"geometry":{"type":"Point","coordinates":[-80.387672,-2.635102]}},{"type":"feature","properties":{"country_en":"Ecuador","name":"Molleturo","name_adm0":"Ecuador","name_adm1":"Azuay","name_adm2":"Cuenca","name_en":"Molleturo"},"geometry":{"type":"Point","coordinates":[-79.380527,-2.775022]}},{"type":"feature","properties":{"country_en":"Ecuador","name":"Sangolquí","name_adm0":"Ecuador","name_adm1":"Pichincha","name_adm2":"Ruminahui","name_en":"Sangolquí"},"geometry":{"type":"Point","coordinates":[-78.45217,-0.33404999999999996]}},{"type":"feature","properties":{"country_en":"Ecuador","name":"Aloasí","name_adm0":"Ecuador","name_adm1":"Pichincha","name_adm2":"Mejia","name_en":"Aloasí"},"geometry":{"type":"Point","coordinates":[-78.58449999999999,-0.51858]}},{"type":"feature","properties":{"country_en":"Ecuador","name":"Cahuasquí","name_adm0":"Ecuador","name_adm1":"Imbabura","name_adm2":"San Miguel de Urcuqui","name_en":"Cahuasquí"},"geometry":{"type":"Point","coordinates":[-78.21289,0.51401]}},{"type":"feature","properties":{"country_en":"Ecuador","name":"Conocoto","name_adm0":"Ecuador","name_adm1":"Pichincha","name_adm2":"Quito","name_en":"Conocoto"},"geometry":{"type":"Point","coordinates":[-78.4922,-0.30024]}},{"type":"feature","properties":{"country_en":"Ecuador","name":"Guangopolo","name_adm0":"Ecuador","name_adm1":"Pichincha","name_adm2":"Quito","name_en":"Guangopolo"},"geometry":{"type":"Point","coordinates":[-78.4519,-0.25895]}},{"type":"feature","properties":{"country_en":"Ecuador","name":"Hacienda Susudel","name_adm0":"Ecuador","name_adm1":"Azuay","name_adm2":"Ona","name_en":"Hacienda Susudel"},"geometry":{"type":"Point","coordinates":[-79.18768,-3.40515]}},{"type":"feature","properties":{"country_en":"Ecuador","name":"Piedras","name_adm0":"Ecuador","name_adm1":"El Oro","name_adm2":"Pinas","name_en":"Piedras"},"geometry":{"type":"Point","coordinates":[-79.91574,-3.6369799999999994]}},{"type":"feature","properties":{"country_en":"Ecuador","name":"Pilahuín","name_adm0":"Ecuador","name_adm1":"Tungurahua","name_adm2":"Ambato","name_en":"Pilahuín"},"geometry":{"type":"Point","coordinates":[-78.7266,-1.2981099999999999]}},{"type":"feature","properties":{"country_en":"Ecuador","name":"Portete","name_adm0":"Ecuador","name_adm1":"Loja","name_adm2":"Gonzanama","name_en":"Portete"},"geometry":{"type":"Point","coordinates":[-79.68333,-3.56667]}},{"type":"feature","properties":{"country_en":"Ecuador","name":"Puyango","name_adm0":"Ecuador","name_adm1":"El Oro","name_adm2":"Las Lajas","name_en":"Puyango"},"geometry":{"type":"Point","coordinates":[-80.08022,-3.88191]}},{"type":"feature","properties":{"country_en":"Ecuador","name":"Quingüe","name_adm0":"Ecuador","name_adm1":"Esmeraldas","name_adm2":"Muisne","name_en":"Quingüe"},"geometry":{"type":"Point","coordinates":[-80.09407,0.71871]}},{"type":"feature","properties":{"country_en":"Ecuador","name":"Puerto de Cayo","name_adm0":"Ecuador","name_adm1":"Manabi","name_adm2":"Jipijapa","name_en":"Puerto de Cayo"},"geometry":{"type":"Point","coordinates":[-80.734405,-1.352737]}},{"type":"feature","properties":{"country_en":"Ecuador","name":"Portovelo","name_adm0":"Ecuador","name_adm1":"El Oro","name_adm2":"Portovelo","name_en":"Portovelo"},"geometry":{"type":"Point","coordinates":[-79.628391,-3.6991889999999996]}},{"type":"feature","properties":{"country_en":"Ecuador","name":"Balsas","name_adm0":"Ecuador","name_adm1":"El Oro","name_adm2":"Balsas","name_en":"Balsas"},"geometry":{"type":"Point","coordinates":[-79.8236555,-3.760158]}},{"type":"feature","properties":{"country_en":"Ecuador","name":"Pueblo Viejo","name_adm0":"Ecuador","name_adm1":"Los Rios","name_adm2":"Pueblo Viejo","name_en":"Pueblo Viejo"},"geometry":{"type":"Point","coordinates":[-79.519042,-1.065612]}},{"type":"feature","properties":{"country_en":"Ecuador","name":"Puyango","name_adm0":"Ecuador","name_adm1":"Loja","name_adm2":"Puyango","name_en":"Puyango"},"geometry":{"type":"Point","coordinates":[-79.221382,-4.059427]}},{"type":"feature","properties":{"country_en":"Ecuador","name":"Belisario Quevedo","name_adm0":"Ecuador","name_adm1":"Cotopaxi","name_adm2":"Latacunga","name_en":"Belisario Quevedo"},"geometry":{"type":"Point","coordinates":[-78.58218,-0.98523]}},{"type":"feature","properties":{"country_en":"Ecuador","name":"Bellavista","name_adm0":"Ecuador","name_adm1":"Manabi","name_adm2":"Olmedo","name_en":"Bellavista"},"geometry":{"type":"Point","coordinates":[-80.28226,-1.34865]}},{"type":"feature","properties":{"country_en":"Ecuador","name":"San José de Chamanga","name_adm0":"Ecuador","name_adm1":"Esmeraldas","name_adm2":"Muisne","name_en":"San José de Chamanga"},"geometry":{"type":"Point","coordinates":[-79.94499,0.27416]}},{"type":"feature","properties":{"country_en":"Ecuador","name":"San Lorenzo","name_adm0":"Ecuador","name_adm1":"Esmeraldas","name_adm2":"San Lorenzo","name_en":"San Lorenzo"},"geometry":{"type":"Point","coordinates":[-78.06667,1.68333]}},{"type":"feature","properties":{"country_en":"Ecuador","name":"San Francisco de Borja","name_adm0":"Ecuador","name_adm1":"Napo","name_adm2":"Quijos","name_en":"San Francisco de Borja"},"geometry":{"type":"Point","coordinates":[-77.84406,-0.42392]}},{"type":"feature","properties":{"country_en":"Ecuador","name":"Taquil","name_adm0":"Ecuador","name_adm1":"Loja","name_adm2":"Loja","name_en":"Taquil"},"geometry":{"type":"Point","coordinates":[-79.28508,-3.88672]}},{"type":"feature","properties":{"country_en":"Ecuador","name":"Taura","name_adm0":"Ecuador","name_adm1":"Guayas","name_adm2":"Naranjal","name_en":"Taura"},"geometry":{"type":"Point","coordinates":[-79.67018,-2.35202]}},{"type":"feature","properties":{"country_en":"Ecuador","name":"Zambi","name_adm0":"Ecuador","name_adm1":"Loja","name_adm2":"Catamayo","name_en":"Zambi"},"geometry":{"type":"Point","coordinates":[-78.78041,-3.8940299999999994]}},{"type":"feature","properties":{"country_en":"Ecuador","name":"Pano","name_adm0":"Ecuador","name_adm1":"Napo","name_adm2":"Tena","name_en":"Pano"},"geometry":{"type":"Point","coordinates":[-77.2,-0.73333]}},{"type":"feature","properties":{"country_en":"Ecuador","name":"La Toma","name_adm0":"Ecuador","name_adm1":"Guayas","name_adm2":"Guayaquil","name_en":"La Toma"},"geometry":{"type":"Point","coordinates":[-79.78426,-1.72665]}},{"type":"feature","properties":{"country_en":"Ecuador","name":"Zurmi","name_adm0":"Ecuador","name_adm1":"Zamora-Chinchipe","name_adm2":"Nangaritza","name_en":"Zurmi"},"geometry":{"type":"Point","coordinates":[-78.659706,-4.340249]}},{"type":"feature","properties":{"country_en":"Ecuador","name":"Ancón","name_adm0":"Ecuador","name_adm1":"Esmeraldas","name_adm2":"San Lorenzo","name_en":"Ancón"},"geometry":{"type":"Point","coordinates":[-78.8603,1.44556]}},{"type":"feature","properties":{"country_en":"Ecuador","name":"Balao Chico","name_adm0":"Ecuador","name_adm1":"Guayas","name_adm2":"Naranjal","name_en":"Balao Chico"},"geometry":{"type":"Point","coordinates":[-79.73992,-2.7542799999999996]}},{"type":"feature","properties":{"country_en":"Ecuador","name":"Chontamarca","name_adm0":"Ecuador","name_adm1":"Canar","name_adm2":"Canar","name_en":"Chontamarca"},"geometry":{"type":"Point","coordinates":[-79.09376,-2.44095]}},{"type":"feature","properties":{"country_en":"Ecuador","name":"Los Lojas","name_adm0":"Ecuador","name_adm1":"Guayas","name_adm2":"Daule","name_en":"Los Lojas"},"geometry":{"type":"Point","coordinates":[-79.94418999999999,-2.01404]}},{"type":"feature","properties":{"country_en":"Ecuador","name":"Tabiazo","name_adm0":"Ecuador","name_adm1":"Esmeraldas","name_adm2":"Esmeraldas","name_en":"Tabiazo"},"geometry":{"type":"Point","coordinates":[-79.70413,0.82213]}},{"type":"feature","properties":{"country_en":"Ecuador","name":"Puebloviejo","name_adm0":"Ecuador","name_adm1":"Los Rios","name_adm2":"Pueblo Viejo","name_en":"Puebloviejo"},"geometry":{"type":"Point","coordinates":[-79.53402,-1.55065]}},{"type":"feature","properties":{"country_en":"Ecuador","name":"Chilla","name_adm0":"Ecuador","name_adm1":"El Oro","name_adm2":"Zaruma","name_en":"Chilla"},"geometry":{"type":"Point","coordinates":[-79.5805,-3.4586199999999994]}},{"type":"feature","properties":{"country_en":"Ecuador","name":"Cangonamá","name_adm0":"Ecuador","name_adm1":"Loja","name_adm2":"Paltas","name_en":"Cangonamá"},"geometry":{"type":"Point","coordinates":[-79.70152,-3.9631699999999994]}},{"type":"feature","properties":{"country_en":"Ecuador","name":"Atillo","name_adm0":"Ecuador","name_adm1":"Chimborazo","name_adm2":"Guamote","name_en":"Atillo"},"geometry":{"type":"Point","coordinates":[-79.55,-1.63333]}},{"type":"feature","properties":{"country_en":"Ecuador","name":"El Pangui","name_adm0":"Ecuador","name_adm1":"Zamora-Chinchipe","name_adm2":"El Pangui","name_en":"El Pangui"},"geometry":{"type":"Point","coordinates":[-78.58923,-3.62751]}},{"type":"feature","properties":{"country_en":"Ecuador","name":"Juncal","name_adm0":"Ecuador","name_adm1":"Canar","name_adm2":"Canar","name_en":"Juncal"},"geometry":{"type":"Point","coordinates":[-78.96822,-2.4863199999999996]}},{"type":"feature","properties":{"country_en":"Ecuador","name":"Mocache","name_adm0":"Ecuador","name_adm1":"Los Rios","name_adm2":"Mocache","name_en":"Mocache"},"geometry":{"type":"Point","coordinates":[-79.49914,-1.1827499999999997]}},{"type":"feature","properties":{"country_en":"Ecuador","name":"Pindal","name_adm0":"Ecuador","name_adm1":"Loja","name_adm2":"Pindal","name_en":"Pindal"},"geometry":{"type":"Point","coordinates":[-80.10679,-4.1143]}},{"type":"feature","properties":{"country_en":"Ecuador","name":"Pucara","name_adm0":"Ecuador","name_adm1":"Azuay","name_adm2":"Pucara","name_en":"Pucara"},"geometry":{"type":"Point","coordinates":[-78.73333,-2.9166699999999994]}},{"type":"feature","properties":{"country_en":"Ecuador","name":"Santiago","name_adm0":"Ecuador","name_adm1":"Loja","name_adm2":"Loja","name_en":"Santiago"},"geometry":{"type":"Point","coordinates":[-79.49958,-3.98948]}},{"type":"feature","properties":{"country_en":"Ecuador","name":"Sucre","name_adm0":"Ecuador","name_adm1":"Manabi","name_adm2":"Sucre","name_en":"Sucre"},"geometry":{"type":"Point","coordinates":[-80.837402,-1.278427]}},{"type":"feature","properties":{"country_en":"Ecuador","name":"Cumandá","name_adm0":"Ecuador","name_adm1":"Morona-Santiago","name_adm2":"Palora","name_en":"Cumandá"},"geometry":{"type":"Point","coordinates":[-78.13721,-1.45994]}},{"type":"feature","properties":{"country_en":"Ecuador","name":"Juan Montalvo","name_adm0":"Ecuador","name_adm1":"Pichincha","name_adm2":"Cayambe","name_en":"Juan Montalvo"},"geometry":{"type":"Point","coordinates":[-78.15,0.03333]}},{"type":"feature","properties":{"country_en":"Ecuador","name":"Pallatanga","name_adm0":"Ecuador","name_adm1":"Chimborazo","name_adm2":"Pallatanga","name_en":"Pallatanga"},"geometry":{"type":"Point","coordinates":[-78.96605,-1.9992]}},{"type":"feature","properties":{"country_en":"Ecuador","name":"Panzaleo","name_adm0":"Ecuador","name_adm1":"Cotopaxi","name_adm2":"Salcedo","name_en":"Panzaleo"},"geometry":{"type":"Point","coordinates":[-78.60131,-1.07267]}},{"type":"feature","properties":{"country_en":"Ecuador","name":"Data de Posorja","name_adm0":"Ecuador","name_adm1":"Guayas","name_adm2":"Guayaquil","name_en":"Data de Posorja"},"geometry":{"type":"Point","coordinates":[-80.28332999999999,-2.71667]}},{"type":"feature","properties":{"country_en":"Ecuador","name":"El Porvenir","name_adm0":"Ecuador","name_adm1":"El Oro","name_adm2":"Arenillas","name_en":"El Porvenir"},"geometry":{"type":"Point","coordinates":[-79.21357999999998,-4.17529]}},{"type":"feature","properties":{"country_en":"Ecuador","name":"Canelos","name_adm0":"Ecuador","name_adm1":"Pastaza","name_adm2":"Pastaza","name_en":"Canelos"},"geometry":{"type":"Point","coordinates":[-77.7576,-1.58941]}},{"type":"feature","properties":{"country_en":"Ecuador","name":"Zapotillo","name_adm0":"Ecuador","name_adm1":"Loja","name_adm2":"Zapotillo","name_en":"Zapotillo"},"geometry":{"type":"Point","coordinates":[-80.24412,-4.387449999999999]}},{"type":"feature","properties":{"country_en":"Ecuador","name":"Lasso","name_adm0":"Ecuador","name_adm1":"Cotopaxi","name_adm2":"Latacunga","name_en":"Lasso"},"geometry":{"type":"Point","coordinates":[-78.6,-0.75]}},{"type":"feature","properties":{"country_en":"Ecuador","name":"Putumayo","name_adm0":"Ecuador","name_adm1":"Sucumbios","name_adm2":"Putumayo","name_en":"Putumayo"},"geometry":{"type":"Point","coordinates":[-75.789184,0.002746]}},{"type":"feature","properties":{"country_en":"Ecuador","name":"Puyo","name_adm0":"Ecuador","name_adm1":"Pastaza","name_adm2":"Pastaza","name_en":"Puyo"},"geometry":{"type":"Point","coordinates":[-78,-1.48333]}},{"type":"feature","properties":{"country_en":"Ecuador","name":"Veracruz","name_adm0":"Ecuador","name_adm1":"Pastaza","name_adm2":"Pastaza","name_en":"Veracruz"},"geometry":{"type":"Point","coordinates":[-77.94209,-1.50717]}},{"type":"feature","properties":{"country_en":"Ecuador","name":"Hacienda Santa Rosa","name_adm0":"Ecuador","name_adm1":"Pichincha","name_adm2":"Quito","name_en":"Hacienda Santa Rosa"},"geometry":{"type":"Point","coordinates":[-78.56667,-0.28333]}},{"type":"feature","properties":{"country_en":"Ecuador","name":"Hacienda Santa Rosa","name_adm0":"Ecuador","name_adm1":"Pichincha","name_adm2":"Quito","name_en":"Hacienda Santa Rosa"},"geometry":{"type":"Point","coordinates":[-78.67383999999998,0.01498]}},{"type":"feature","properties":{"country_en":"Ecuador","name":"Tachina","name_adm0":"Ecuador","name_adm1":"Esmeraldas","name_adm2":"Esmeraldas","name_en":"Tachina"},"geometry":{"type":"Point","coordinates":[-79.62808,0.96248]}},{"type":"feature","properties":{"country_en":"Ecuador","name":"Tocachi","name_adm0":"Ecuador","name_adm1":"Pichincha","name_adm2":"Pedro Moncayo","name_en":"Tocachi"},"geometry":{"type":"Point","coordinates":[-78.28333,0.05]}},{"type":"feature","properties":{"country_en":"Ecuador","name":"Florencia","name_adm0":"Ecuador","name_adm1":"Orellana","name_adm2":"Aguarico","name_en":"Florencia"},"geometry":{"type":"Point","coordinates":[-75.47354,-0.882]}},{"type":"feature","properties":{"country_en":"Ecuador","name":"Guachapala","name_adm0":"Ecuador","name_adm1":"Azuay","name_adm2":"Guachapala","name_en":"Guachapala"},"geometry":{"type":"Point","coordinates":[-78.71252,-2.7724599999999997]}},{"type":"feature","properties":{"country_en":"Ecuador","name":"Guasuntos","name_adm0":"Ecuador","name_adm1":"Chimborazo","name_adm2":"Alausi","name_en":"Guasuntos"},"geometry":{"type":"Point","coordinates":[-78.81329,-2.23254]}},{"type":"feature","properties":{"country_en":"Ecuador","name":"Canchagua","name_adm0":"Ecuador","name_adm1":"Cotopaxi","name_adm2":"Saquisili","name_en":"Canchagua"},"geometry":{"type":"Point","coordinates":[-78.675155,-0.7995719999999998]}},{"type":"feature","properties":{"country_en":"Ecuador","name":"Mocha","name_adm0":"Ecuador","name_adm1":"Tungurahua","name_adm2":"Mocha","name_en":"Mocha"},"geometry":{"type":"Point","coordinates":[-78.66207,-1.41939]}},{"type":"feature","properties":{"country_en":"Ecuador","name":"Jama","name_adm0":"Ecuador","name_adm1":"Manabi","name_adm2":"Jama","name_en":"Jama"},"geometry":{"type":"Point","coordinates":[-80.235789,-0.139891]}},{"type":"feature","properties":{"country_en":"Ecuador","name":"Majua","name_adm0":"Ecuador","name_adm1":"Esmeraldas","name_adm2":"Esmeraldas","name_en":"Majua"},"geometry":{"type":"Point","coordinates":[-79.53333,0.7]}},{"type":"feature","properties":{"country_en":"Ecuador","name":"San Antonio","name_adm0":"Ecuador","name_adm1":"Pichincha","name_adm2":"Quito","name_en":"San Antonio"},"geometry":{"type":"Point","coordinates":[-78.454474,-0.0010799999999999998]}},{"type":"feature","properties":{"country_en":"Ecuador","name":"Chaguarpamba","name_adm0":"Ecuador","name_adm1":"Loja","name_adm2":"Chaguarpamba","name_en":"Chaguarpamba"},"geometry":{"type":"Point","coordinates":[-79.221382,-4.059427]}},{"type":"feature","properties":{"country_en":"Ecuador","name":"Chillanes","name_adm0":"Ecuador","name_adm1":"Bolivar","name_adm2":"Chillanes","name_en":"Chillanes"},"geometry":{"type":"Point","coordinates":[-78.6669155,-0.8273784999999999]}},{"type":"feature","properties":{"country_en":"Ecuador","name":"Coronel Marcelino Mariduena","name_adm0":"Ecuador","name_adm1":"Guayas","name_adm2":"Coronel Marcelino Mariduena","name_en":"Coronel Marcelino Mariduena"},"geometry":{"type":"Point","coordinates":[-80.046386,-2.075961]}},{"type":"feature","properties":{"country_en":"Ecuador","name":"El Carmen","name_adm0":"Ecuador","name_adm1":"Manabi","name_adm2":"El Carmen","name_en":"El Carmen"},"geometry":{"type":"Point","coordinates":[-80.837402,-1.278427]}},{"type":"feature","properties":{"country_en":"Ecuador","name":"El Pan","name_adm0":"Ecuador","name_adm1":"Azuay","name_adm2":"El Pan","name_en":"El Pan"},"geometry":{"type":"Point","coordinates":[-79.0274045,-2.898248]}},{"type":"feature","properties":{"country_en":"Ecuador","name":"Palestina","name_adm0":"Ecuador","name_adm1":"Guayas","name_adm2":"Palestina","name_en":"Palestina"},"geometry":{"type":"Point","coordinates":[-80.046386,-2.075961]}},{"type":"feature","properties":{"country_en":"Ecuador","name":"Ona","name_adm0":"Ecuador","name_adm1":"Azuay","name_adm2":"Ona","name_en":"Ona"},"geometry":{"type":"Point","coordinates":[-79.0274045,-2.898248]}},{"type":"feature","properties":{"country_en":"Ecuador","name":"Paltas","name_adm0":"Ecuador","name_adm1":"Loja","name_adm2":"Paltas","name_en":"Paltas"},"geometry":{"type":"Point","coordinates":[-79.221382,-4.059427]}},{"type":"feature","properties":{"country_en":"Ecuador","name":"Baba","name_adm0":"Ecuador","name_adm1":"Los Rios","name_adm2":"Baba","name_en":"Baba"},"geometry":{"type":"Point","coordinates":[-79.66667,-1.78333]}},{"type":"feature","properties":{"country_en":"Ecuador","name":"Bermejos","name_adm0":"Ecuador","name_adm1":"Morona-Santiago","name_adm2":"Gualaquiza","name_en":"Bermejos"},"geometry":{"type":"Point","coordinates":[-78.17871,-1.5379009999999997]}},{"type":"feature","properties":{"country_en":"Ecuador","name":"Bolivar","name_adm0":"Ecuador","name_adm1":"Carchi","name_adm2":"Bolívar","name_en":"Bolivar"},"geometry":{"type":"Point","coordinates":[-77.88333,0.5]}},{"type":"feature","properties":{"country_en":"Ecuador","name":"Chilla","name_adm0":"Ecuador","name_adm1":"El Oro","name_adm2":"Chilla","name_en":"Chilla"},"geometry":{"type":"Point","coordinates":[-79.58333,-3.4666699999999997]}},{"type":"feature","properties":{"country_en":"Ecuador","name":"El Porvenir del Carmen","name_adm0":"Ecuador","name_adm1":"Zamora-Chinchipe","name_adm2":"Palanda","name_en":"El Porvenir del Carmen"},"geometry":{"type":"Point","coordinates":[-78.99383399999999,-4.2965]}},{"type":"feature","properties":{"country_en":"Ecuador","name":"El Triunfo","name_adm0":"Ecuador","name_adm1":"Guayas","name_adm2":"El Triunfo","name_en":"El Triunfo"},"geometry":{"type":"Point","coordinates":[-79.96667,-1.93333]}},{"type":"feature","properties":{"country_en":"Ecuador","name":"Junin","name_adm0":"Ecuador","name_adm1":"Manabi","name_adm2":"Junin","name_en":"Junin"},"geometry":{"type":"Point","coordinates":[-80.21667,-0.9333299999999999]}},{"type":"feature","properties":{"country_en":"Ecuador","name":"Puellaro","name_adm0":"Ecuador","name_adm1":"Pichincha","name_adm2":"Quito","name_en":"Puellaro"},"geometry":{"type":"Point","coordinates":[-78.400001,0.06471599999999998]}},{"type":"feature","properties":{"country_en":"Ecuador","name":"San Fco. de Chinimbimi","name_adm0":"Ecuador","name_adm1":"Morona-Santiago","name_adm2":"Santiago","name_en":"San Fco. de Chinimbimi"},"geometry":{"type":"Point","coordinates":[-78.17871,-1.5379009999999997]}},{"type":"feature","properties":{"country_en":"Ecuador","name":"Valle de la Virgen","name_adm0":"Ecuador","name_adm1":"Guayas","name_adm2":"Pedro Carbo","name_en":"Valle de la Virgen"},"geometry":{"type":"Point","coordinates":[-80.046386,-2.075961]}},{"type":"feature","properties":{"country_en":"Ecuador","name":"Zhaglli","name_adm0":"Ecuador","name_adm1":"Azuay","name_adm2":"Santa Isabel","name_en":"Zhaglli"},"geometry":{"type":"Point","coordinates":[-79.30206249999999,-3.2337545]}},{"type":"feature","properties":{"country_en":"Ecuador","name":"Zhidmad","name_adm0":"Ecuador","name_adm1":"Azuay","name_adm2":"Gualaceo","name_en":"Zhidmad"},"geometry":{"type":"Point","coordinates":[-78.778152,-2.896923]}},{"type":"feature","properties":{"country_en":"Ecuador","name":"La Union","name_adm0":"Ecuador","name_adm1":"Manabi","name_adm2":"Santa Ana","name_en":"La Union"},"geometry":{"type":"Point","coordinates":[-80.385246,-1.1644699999999997]}},{"type":"feature","properties":{"country_en":"Ecuador","name":"La Union","name_adm0":"Ecuador","name_adm1":"Manabi","name_adm2":"Jipijapa","name_en":"La Union"},"geometry":{"type":"Point","coordinates":[-80.749511,-1.345701]}},{"type":"feature","properties":{"country_en":"Ecuador","name":"Samborondon","name_adm0":"Ecuador","name_adm1":"Guayas","name_adm2":"Samborondon","name_en":"Samborondon"},"geometry":{"type":"Point","coordinates":[-79.72401999999998,-1.9627599999999998]}},{"type":"feature","properties":{"country_en":"Ecuador","name":"Huaquillas","name_adm0":"Ecuador","name_adm1":"El Oro","name_adm2":"Huaquillas","name_en":"Huaquillas"},"geometry":{"type":"Point","coordinates":[-80.23084,-3.47523]}},{"type":"feature","properties":{"country_en":"Ecuador","name":"Celica","name_adm0":"Ecuador","name_adm1":"Loja","name_adm2":"Celica","name_en":"Celica"},"geometry":{"type":"Point","coordinates":[-79.95665,-4.10266]}},{"type":"feature","properties":{"country_en":"Ecuador","name":"Durán","name_adm0":"Ecuador","name_adm1":"Guayas","name_adm2":"Duran","name_en":"Durán"},"geometry":{"type":"Point","coordinates":[-79.833526,-2.1667]}},{"type":"feature","properties":{"country_en":"Ecuador","name":"Natabuela","name_adm0":"Ecuador","name_adm1":"Imbabura","name_adm2":"Antonio Ante","name_en":"Natabuela"},"geometry":{"type":"Point","coordinates":[-78.19371,0.33939]}},{"type":"feature","properties":{"country_en":"Ecuador","name":"Machalilla","name_adm0":"Ecuador","name_adm1":"Manabi","name_adm2":"Puerto Lopez","name_en":"Machalilla"},"geometry":{"type":"Point","coordinates":[-80.762557,-1.476543]}},{"type":"feature","properties":{"country_en":"Ecuador","name":"La Mana","name_adm0":"Ecuador","name_adm1":"Cotopaxi","name_adm2":"La Mana","name_en":"La Mana"},"geometry":{"type":"Point","coordinates":[-79.22506,-0.94094]}},{"type":"feature","properties":{"country_en":"Ecuador","name":"Salinas","name_adm0":"Ecuador","name_adm1":"Santa Elena","name_adm2":"Salinas","name_en":"Salinas"},"geometry":{"type":"Point","coordinates":[-80.97026,-2.20738]}},{"type":"feature","properties":{"country_en":"Ecuador","name":"Ruminahui","name_adm0":"Ecuador","name_adm1":"Pichincha","name_adm2":"Ruminahui","name_en":"Ruminahui"},"geometry":{"type":"Point","coordinates":[-78.475341,-0.446315]}},{"type":"feature","properties":{"country_en":"Ecuador","name":"Riobamba","name_adm0":"Ecuador","name_adm1":"Chimborazo","name_adm2":"Riobamba","name_en":"Riobamba"},"geometry":{"type":"Point","coordinates":[-78.64861,-1.67083]}},{"type":"feature","properties":{"country_en":"Ecuador","name":"Quito","name_adm0":"Ecuador","name_adm1":"Pichincha","name_adm2":"Quito","name_en":"Quito"},"geometry":{"type":"Point","coordinates":[-78.52495,-0.22984999999999997]}},{"type":"feature","properties":{"country_en":"Ecuador","name":"Piñas","name_adm0":"Ecuador","name_adm1":"El Oro","name_adm2":"Pinas","name_en":"Piñas"},"geometry":{"type":"Point","coordinates":[-79.68083,-3.6810699999999996]}},{"type":"feature","properties":{"country_en":"Ecuador","name":"Jipijapa","name_adm0":"Ecuador","name_adm1":"Manabi","name_adm2":"Jipijapa","name_en":"Jipijapa"},"geometry":{"type":"Point","coordinates":[-80.57875,-1.34872]}},{"type":"feature","properties":{"country_en":"Ecuador","name":"Ibarra","name_adm0":"Ecuador","name_adm1":"Imbabura","name_adm2":"Ibarra","name_en":"Ibarra"},"geometry":{"type":"Point","coordinates":[-78.12233,0.35170999999999997]}},{"type":"feature","properties":{"country_en":"Ecuador","name":"Guaranda","name_adm0":"Ecuador","name_adm1":"Bolivar","name_adm2":"Guaranda","name_en":"Guaranda"},"geometry":{"type":"Point","coordinates":[-79,-1.59444]}},{"type":"feature","properties":{"country_en":"Ecuador","name":"Cuenca","name_adm0":"Ecuador","name_adm1":"Azuay","name_adm2":"Cuenca","name_en":"Cuenca"},"geometry":{"type":"Point","coordinates":[-79.00453,-2.9005399999999995]}},{"type":"feature","properties":{"country_en":"Ecuador","name":"Cayambe","name_adm0":"Ecuador","name_adm1":"Pichincha","name_adm2":"Cayambe","name_en":"Cayambe"},"geometry":{"type":"Point","coordinates":[-78.14524,0.04084]}},{"type":"feature","properties":{"country_en":"Ecuador","name":"Ambato","name_adm0":"Ecuador","name_adm1":"Tungurahua","name_adm2":"Ambato","name_en":"Ambato"},"geometry":{"type":"Point","coordinates":[-78.61675,-1.24908]}},{"type":"feature","properties":{"country_en":"Ecuador","name":"Alausí","name_adm0":"Ecuador","name_adm1":"Chimborazo","name_adm2":"Alausi","name_en":"Alausí"},"geometry":{"type":"Point","coordinates":[-78.84713999999998,-2.20329]}},{"type":"feature","properties":{"country_en":"Ecuador","name":"El Chaupi","name_adm0":"Ecuador","name_adm1":"Pichincha","name_adm2":"Mejia","name_en":"El Chaupi"},"geometry":{"type":"Point","coordinates":[-78.683056,-0.610073]}},{"type":"feature","properties":{"country_en":"Ecuador","name":"Esmeraldas","name_adm0":"Ecuador","name_adm1":"Esmeraldas","name_adm2":"Esmeraldas","name_en":"Esmeraldas"},"geometry":{"type":"Point","coordinates":[-79.663238,0.95423]}},{"type":"feature","properties":{"country_en":"Ecuador","name":"San Gabriel","name_adm0":"Ecuador","name_adm1":"Carchi","name_adm2":"Montufar","name_en":"San Gabriel"},"geometry":{"type":"Point","coordinates":[-77.81667,0.6]}},{"type":"feature","properties":{"country_en":"Ecuador","name":"San Jose de Quichinche","name_adm0":"Ecuador","name_adm1":"Imbabura","name_adm2":"Otavalo","name_en":"San Jose de Quichinche"},"geometry":{"type":"Point","coordinates":[-78.359127,0.292681]}},{"type":"feature","properties":{"country_en":"Ecuador","name":"Baquerizo Moreno","name_adm0":"Ecuador","name_adm1":"Tungurahua","name_adm2":"Patate","name_en":"Baquerizo Moreno"},"geometry":{"type":"Point","coordinates":[-78.49854,-1.2267]}},{"type":"feature","properties":{"country_en":"Ecuador","name":"Cotosaz","name_adm0":"Ecuador","name_adm1":"Pastaza","name_adm2":"Pastaza","name_en":"Cotosaz"},"geometry":{"type":"Point","coordinates":[-77.5,-2.03333]}},{"type":"feature","properties":{"country_en":"Ecuador","name":"Jadán","name_adm0":"Ecuador","name_adm1":"Azuay","name_adm2":"Gualaceo","name_en":"Jadán"},"geometry":{"type":"Point","coordinates":[-78.84999999999998,-2.86667]}},{"type":"feature","properties":{"country_en":"Ecuador","name":"Jatunpamba","name_adm0":"Ecuador","name_adm1":"Canar","name_adm2":"Azogues","name_en":"Jatunpamba"},"geometry":{"type":"Point","coordinates":[-78.82983,-2.80898]}},{"type":"feature","properties":{"country_en":"Ecuador","name":"Montalvo","name_adm0":"Ecuador","name_adm1":"Esmeraldas","name_adm2":"Rio Verde","name_en":"Montalvo"},"geometry":{"type":"Point","coordinates":[-79.31206,1.0501]}},{"type":"feature","properties":{"country_en":"Ecuador","name":"San Juan","name_adm0":"Ecuador","name_adm1":"Azuay","name_adm2":"Gualaceo","name_en":"San Juan"},"geometry":{"type":"Point","coordinates":[-78.79999999999998,-2.93333]}},{"type":"feature","properties":{"country_en":"Ecuador","name":"San Juan","name_adm0":"Ecuador","name_adm1":"Guayas","name_adm2":"Yaguachi","name_en":"San Juan"},"geometry":{"type":"Point","coordinates":[-80.18965999999999,-2.20935]}},{"type":"feature","properties":{"country_en":"Ecuador","name":"Santiago","name_adm0":"Ecuador","name_adm1":"Bolivar","name_adm2":"San Miguel","name_en":"Santiago"},"geometry":{"type":"Point","coordinates":[-78.99932,-1.69988]}},{"type":"feature","properties":{"country_en":"Ecuador","name":"Sardinas","name_adm0":"Ecuador","name_adm1":"Napo","name_adm2":"El Chaco","name_en":"Sardinas"},"geometry":{"type":"Point","coordinates":[-77.83785999999999,-0.38374]}},{"type":"feature","properties":{"country_en":"Ecuador","name":"Atahualpa","name_adm0":"Ecuador","name_adm1":"Santa Elena","name_adm2":"Santa Elena","name_en":"Atahualpa"},"geometry":{"type":"Point","coordinates":[-80.77316,-2.31277]}},{"type":"feature","properties":{"country_en":"Ecuador","name":"Cabo Minacho","name_adm0":"Ecuador","name_adm1":"Sucumbios","name_adm2":"Putumayo","name_en":"Cabo Minacho"},"geometry":{"type":"Point","coordinates":[-75.51564,-0.11282]}},{"type":"feature","properties":{"country_en":"Ecuador","name":"San José de Cayapas","name_adm0":"Ecuador","name_adm1":"Esmeraldas","name_adm2":"Eloy Alfaro","name_en":"San José de Cayapas"},"geometry":{"type":"Point","coordinates":[-79.01667,0.9666699999999999]}},{"type":"feature","properties":{"country_en":"Ecuador","name":"El Naranjo","name_adm0":"Ecuador","name_adm1":"Loja","name_adm2":"Chaguarpamba","name_en":"El Naranjo"},"geometry":{"type":"Point","coordinates":[-79.61746,-4.01629]}},{"type":"feature","properties":{"country_en":"Ecuador","name":"Muisne","name_adm0":"Ecuador","name_adm1":"Esmeraldas","name_adm2":"Muisne","name_en":"Muisne"},"geometry":{"type":"Point","coordinates":[-80.013427,0.79099]}},{"type":"feature","properties":{"country_en":"Ecuador","name":"El Playón de San Francisco","name_adm0":"Ecuador","name_adm1":"Sucumbios","name_adm2":"Sucumbios","name_en":"El Playón de San Francisco"},"geometry":{"type":"Point","coordinates":[-77.62226,0.63763]}},{"type":"feature","properties":{"country_en":"Ecuador","name":"Pioter","name_adm0":"Ecuador","name_adm1":"Carchi","name_adm2":"Montufar","name_en":"Pioter"},"geometry":{"type":"Point","coordinates":[-77.78312,0.64462]}},{"type":"feature","properties":{"country_en":"Ecuador","name":"San José de Morona","name_adm0":"Ecuador","name_adm1":"Morona-Santiago","name_adm2":"Morona","name_en":"San José de Morona"},"geometry":{"type":"Point","coordinates":[-77.66888999999999,-2.88222]}},{"type":"feature","properties":{"country_en":"Ecuador","name":"Tutupali","name_adm0":"Ecuador","name_adm1":"Zamora-Chinchipe","name_adm2":"Yacuambi","name_en":"Tutupali"},"geometry":{"type":"Point","coordinates":[-78.95067,-3.52973]}},{"type":"feature","properties":{"country_en":"Ecuador","name":"Yolán","name_adm0":"Ecuador","name_adm1":"Guayas","name_adm2":"Daule","name_en":"Yolán"},"geometry":{"type":"Point","coordinates":[-79.91667,-1.9666699999999997]}},{"type":"feature","properties":{"country_en":"Ecuador","name":"Zapotal","name_adm0":"Ecuador","name_adm1":"Los Rios","name_adm2":"Ventanas","name_en":"Zapotal"},"geometry":{"type":"Point","coordinates":[-79.40184,-1.3551]}},{"type":"feature","properties":{"country_en":"Ecuador","name":"Alshí","name_adm0":"Ecuador","name_adm1":"Morona-Santiago","name_adm2":"Morona","name_en":"Alshí"},"geometry":{"type":"Point","coordinates":[-78.22776,-2.1633]}},{"type":"feature","properties":{"country_en":"Ecuador","name":"Calderón","name_adm0":"Ecuador","name_adm1":"Pichincha","name_adm2":"Quito","name_en":"Calderón"},"geometry":{"type":"Point","coordinates":[-78.42385999999999,-0.10131999999999998]}},{"type":"feature","properties":{"country_en":"Ecuador","name":"Tumbaco","name_adm0":"Ecuador","name_adm1":"Pichincha","name_adm2":"Quito","name_en":"Tumbaco"},"geometry":{"type":"Point","coordinates":[-78.40488999999998,-0.214]}},{"type":"feature","properties":{"country_en":"Ecuador","name":"Turi","name_adm0":"Ecuador","name_adm1":"Azuay","name_adm2":"Cuenca","name_en":"Turi"},"geometry":{"type":"Point","coordinates":[-79.01119,-2.92587]}},{"type":"feature","properties":{"country_en":"Ecuador","name":"Urcuquí","name_adm0":"Ecuador","name_adm1":"Imbabura","name_adm2":"San Miguel de Urcuqui","name_en":"Urcuquí"},"geometry":{"type":"Point","coordinates":[-78.19309,0.41834999999999994]}},{"type":"feature","properties":{"country_en":"Ecuador","name":"Santiago","name_adm0":"Ecuador","name_adm1":"Loja","name_adm2":"Loja","name_en":"Santiago"},"geometry":{"type":"Point","coordinates":[-79.2813,-3.7935099999999995]}},{"type":"feature","properties":{"country_en":"Ecuador","name":"Loja","name_adm0":"Ecuador","name_adm1":"Loja","name_adm2":"Loja","name_en":"Loja"},"geometry":{"type":"Point","coordinates":[-79.20422,-3.9931299999999994]}},{"type":"feature","properties":{"country_en":"Ecuador","name":"Antonio Ante","name_adm0":"Ecuador","name_adm1":"Imbabura","name_adm2":"Antonio Ante","name_en":"Antonio Ante"},"geometry":{"type":"Point","coordinates":[-78.17871,0.302122]}},{"type":"feature","properties":{"country_en":"Ecuador","name":"América","name_adm0":"Ecuador","name_adm1":"Manabi","name_adm2":"Jipijapa","name_en":"América"},"geometry":{"type":"Point","coordinates":[-80.53135,-1.4334899999999997]}},{"type":"feature","properties":{"country_en":"Ecuador","name":"Guadalupe","name_adm0":"Ecuador","name_adm1":"Zamora-Chinchipe","name_adm2":"Zamora","name_en":"Guadalupe"},"geometry":{"type":"Point","coordinates":[-78.88918,-3.8468600000000004]}},{"type":"feature","properties":{"country_en":"Ecuador","name":"La Trampa","name_adm0":"Ecuador","name_adm1":"Guayas","name_adm2":"Balzar","name_en":"La Trampa"},"geometry":{"type":"Point","coordinates":[-79.67993,-2.73141]}},{"type":"feature","properties":{"country_en":"Ecuador","name":"Esmeraldas","name_adm0":"Ecuador","name_adm1":"Esmeraldas","name_en":"Esmeraldas"},"geometry":{"type":"Point","coordinates":[-79.25,0.83333]}},{"type":"feature","properties":{"country_en":"Ecuador","name":"Morona-Santiago","name_adm0":"Ecuador","name_adm1":"Morona-Santiago","name_en":"Morona-Santiago"},"geometry":{"type":"Point","coordinates":[-77.74999999999999,-2.4999999999999996]}},{"type":"feature","properties":{"country_en":"Ecuador","name":"El Progreso","name_adm0":"Ecuador","name_adm1":"Azuay","name_adm2":"Nabon","name_en":"El Progreso"},"geometry":{"type":"Point","coordinates":[-79.20391,-3.3395699999999997]}},{"type":"feature","properties":{"country_en":"Ecuador","name":"Sozoranga","name_adm0":"Ecuador","name_adm1":"Loja","name_adm2":"Sozoranga","name_en":"Sozoranga"},"geometry":{"type":"Point","coordinates":[-79.78333,-4.33333]}},{"type":"feature","properties":{"country_en":"Ecuador","name":"Zuña","name_adm0":"Ecuador","name_adm1":"Morona-Santiago","name_adm2":"Morona","name_en":"Zuña"},"geometry":{"type":"Point","coordinates":[-78.15399099999999,-2.273573]}},{"type":"feature","properties":{"country_en":"Ecuador","name":"Asunción","name_adm0":"Ecuador","name_adm1":"Morona-Santiago","name_adm2":"Sucua","name_en":"-1"},"geometry":{"type":"Point","coordinates":[-78.16667,-2.48333]}},{"type":"feature","properties":{"country_en":"Ecuador","name":"Bachillero","name_adm0":"Ecuador","name_adm1":"Manabi","name_adm2":"Tosagua","name_en":"Bachillero"},"geometry":{"type":"Point","coordinates":[-80.21389,-0.76611]}},{"type":"feature","properties":{"country_en":"Ecuador","name":"Chontaduro","name_adm0":"Ecuador","name_adm1":"Esmeraldas","name_adm2":"Rio Verde","name_en":"Chontaduro"},"geometry":{"type":"Point","coordinates":[-79.43475,0.9317300000000001]}},{"type":"feature","properties":{"country_en":"Ecuador","name":"Julio E. Moreno","name_adm0":"Ecuador","name_adm1":"Bolivar","name_adm2":"Guaranda","name_en":"Julio E. Moreno"},"geometry":{"type":"Point","coordinates":[-79.03100999999998,-1.58944]}},{"type":"feature","properties":{"country_en":"Ecuador","name":"Palma Roja","name_adm0":"Ecuador","name_adm1":"Sucumbios","name_adm2":"Putumayo","name_en":"Palma Roja"},"geometry":{"type":"Point","coordinates":[-76.05271,0.12228999999999998]}},{"type":"feature","properties":{"country_en":"Ecuador","name":"San Vicente","name_adm0":"Ecuador","name_adm1":"Azuay","name_adm2":"El Pan","name_en":"San Vicente"},"geometry":{"type":"Point","coordinates":[-78.9,-2.86667]}},{"type":"feature","properties":{"country_en":"Ecuador","name":"Zancudo","name_adm0":"Ecuador","name_adm1":"Orellana","name_adm2":"Aguarico","name_en":"Zancudo"},"geometry":{"type":"Point","coordinates":[-75.49999999999999,-0.55]}},{"type":"feature","properties":{"country_en":"Ecuador","name":"Zhidmad","name_adm0":"Ecuador","name_adm1":"Azuay","name_adm2":"Gualaceo","name_en":"Zhidmad"},"geometry":{"type":"Point","coordinates":[-78.89866,-2.9291]}},{"type":"feature","properties":{"country_en":"Ecuador","name":"Salitre","name_adm0":"Ecuador","name_adm1":"Guayas","name_adm2":"Salitre","name_en":"Salitre"},"geometry":{"type":"Point","coordinates":[-79.81272,-1.8303499999999997]}},{"type":"feature","properties":{"country_en":"Ecuador","name":"El Anegado","name_adm0":"Ecuador","name_adm1":"Manabi","name_adm2":"Jipijapa","name_en":"El Anegado"},"geometry":{"type":"Point","coordinates":[-80.53443999999999,-1.47068]}},{"type":"feature","properties":{"country_en":"Ecuador","name":"Huachi","name_adm0":"Ecuador","name_adm1":"Tungurahua","name_adm2":"Ambato","name_en":"Huachi"},"geometry":{"type":"Point","coordinates":[-78.63704,-1.3074]}},{"type":"feature","properties":{"country_en":"Ecuador","name":"Saquisili","name_adm0":"Ecuador","name_adm1":"Cotopaxi","name_adm2":"Saquisili","name_en":"Saquisili"},"geometry":{"type":"Point","coordinates":[-78.669662,-0.8299989999999999]}},{"type":"feature","properties":{"country_en":"Ecuador","name":"Sayausi","name_adm0":"Ecuador","name_adm1":"Azuay","name_adm2":"Cuenca","name_en":"Sayausi"},"geometry":{"type":"Point","coordinates":[-79.126281,-2.8333169999999996]}},{"type":"feature","properties":{"country_en":"Ecuador","name":"Urbina","name_adm0":"Ecuador","name_adm1":"Carchi","name_adm2":"Tulcan","name_en":"Urbina"},"geometry":{"type":"Point","coordinates":[-77.71256399999999,0.824546]}},{"type":"feature","properties":{"country_en":"Ecuador","name":"Huigra","name_adm0":"Ecuador","name_adm1":"Chimborazo","name_adm2":"Alausi","name_en":"Huigra"},"geometry":{"type":"Point","coordinates":[-78.98329,-2.28902]}},{"type":"feature","properties":{"country_en":"Ecuador","name":"Mindo","name_adm0":"Ecuador","name_adm1":"Pichincha","name_adm2":"San Miguel de los Bancos","name_en":"Mindo"},"geometry":{"type":"Point","coordinates":[-78.776268,-0.04975]}},{"type":"feature","properties":{"country_en":"Ecuador","name":"García Moreno","name_adm0":"Ecuador","name_adm1":"Carchi","name_adm2":"Bolívar","name_en":"García Moreno"},"geometry":{"type":"Point","coordinates":[-77.94884,0.56011]}},{"type":"feature","properties":{"country_en":"Ecuador","name":"Guanando","name_adm0":"Ecuador","name_adm1":"Chimborazo","name_adm2":"Guano","name_en":"Guanando"},"geometry":{"type":"Point","coordinates":[-78.54386999999998,-1.54054]}},{"type":"feature","properties":{"country_en":"Ecuador","name":"Cusubamba","name_adm0":"Ecuador","name_adm1":"Cotopaxi","name_adm2":"Salcedo","name_en":"Cusubamba"},"geometry":{"type":"Point","coordinates":[-78.7,-1.06667]}},{"type":"feature","properties":{"country_en":"Ecuador","name":"Santa Elena","name_adm0":"Ecuador","name_adm1":"Santa Elena","name_en":"Santa Elena"},"geometry":{"type":"Point","coordinates":[-80.58333,-2.08333]}},{"type":"feature","properties":{"country_en":"Ecuador","name":"Chontamarca","name_adm0":"Ecuador","name_adm1":"Canar","name_adm2":"Canar","name_en":"Chontamarca"},"geometry":{"type":"Point","coordinates":[-79.1,-2.43333]}},{"type":"feature","properties":{"country_en":"Ecuador","name":"General Morales","name_adm0":"Ecuador","name_adm1":"Canar","name_adm2":"Canar","name_en":"General Morales"},"geometry":{"type":"Point","coordinates":[-79.03333,-2.4]}},{"type":"feature","properties":{"country_en":"Ecuador","name":"Palestina","name_adm0":"Ecuador","name_adm1":"Guayas","name_adm2":"Palestina","name_en":"Palestina"},"geometry":{"type":"Point","coordinates":[-79.73333,-1.93333]}},{"type":"feature","properties":{"country_en":"Ecuador","name":"Ecuador","name_adm0":"Ecuador","name_en":"Ecuador"},"geometry":{"type":"Point","coordinates":[-78.095787,-1.789939]}},{"type":"feature","properties":{"country_en":"Ecuador","name":"Turupamba","name_adm0":"Ecuador","name_adm1":"Canar","name_adm2":"Azogues","name_en":"Turupamba"},"geometry":{"type":"Point","coordinates":[-78.91365,-2.72687]}},{"type":"feature","properties":{"country_en":"Ecuador","name":"Yuvientza","name_adm0":"Ecuador","name_adm1":"Morona-Santiago","name_adm2":"Pablo Sexto","name_en":"Yuvientza"},"geometry":{"type":"Point","coordinates":[-77.88333,-2.06667]}},{"type":"feature","properties":{"country_en":"Ecuador","name":"Ascázubi","name_adm0":"Ecuador","name_adm1":"Pichincha","name_adm2":"Cayambe","name_en":"Ascázubi"},"geometry":{"type":"Point","coordinates":[-78.29429,-0.07922]}},{"type":"feature","properties":{"country_en":"Ecuador","name":"Esmeraldas","name_adm0":"Ecuador","name_adm1":"Esmeraldas","name_adm2":"Esmeraldas","name_en":"Esmeraldas"},"geometry":{"type":"Point","coordinates":[-79.72778299999999,0.9708700000000001]}},{"type":"feature","properties":{"country_en":"Ecuador","name":"Montalvo","name_adm0":"Ecuador","name_adm1":"Pastaza","name_adm2":"Pastaza","name_en":"Montalvo"},"geometry":{"type":"Point","coordinates":[-76.98191,-2.06707]}},{"type":"feature","properties":{"country_en":"Ecuador","name":"Nabon","name_adm0":"Ecuador","name_adm1":"Azuay","name_adm2":"Nabon","name_en":"Nabon"},"geometry":{"type":"Point","coordinates":[-79.06548999999998,-3.33933]}},{"type":"feature","properties":{"country_en":"Ecuador","name":"Santa Clara","name_adm0":"Ecuador","name_adm1":"Pastaza","name_adm2":"Santa Clara","name_en":"Santa Clara"},"geometry":{"type":"Point","coordinates":[-77.88739,-1.26399]}},{"type":"feature","properties":{"country_en":"Ecuador","name":"Sarayacu","name_adm0":"Ecuador","name_adm1":"Pastaza","name_adm2":"Pastaza","name_en":"Sarayacu"},"geometry":{"type":"Point","coordinates":[-77.48476999999998,-1.73651]}},{"type":"feature","properties":{"country_en":"Ecuador","name":"Shell","name_adm0":"Ecuador","name_adm1":"Pastaza","name_adm2":"Mera","name_en":"Shell"},"geometry":{"type":"Point","coordinates":[-78.064,-1.50373]}},{"type":"feature","properties":{"country_en":"Ecuador","name":"Marcabeli","name_adm0":"Ecuador","name_adm1":"El Oro","name_adm2":"Marcabeli","name_en":"Marcabeli"},"geometry":{"type":"Point","coordinates":[-79.91227,-3.78596]}},{"type":"feature","properties":{"country_en":"Ecuador","name":"Calpi","name_adm0":"Ecuador","name_adm1":"Chimborazo","name_adm2":"Riobamba","name_en":"Calpi"},"geometry":{"type":"Point","coordinates":[-78.745536,-1.6216399999999997]}},{"type":"feature","properties":{"country_en":"Ecuador","name":"Carlos Julio Arosemena Tola","name_adm0":"Ecuador","name_adm1":"Napo","name_adm2":"Carlos Julio Arosemena Tola","name_en":"Carlos Julio Arosemena Tola"},"geometry":{"type":"Point","coordinates":[-77.851055,-1.16948]}},{"type":"feature","properties":{"country_en":"Ecuador","name":"Ambato","name_adm0":"Ecuador","name_adm1":"Tungurahua","name_adm2":"Ambato","name_en":"Ambato"},"geometry":{"type":"Point","coordinates":[-78.76471349999998,-1.3003939999999998]}},{"type":"feature","properties":{"country_en":"Ecuador","name":"Achupallas","name_adm0":"Ecuador","name_adm1":"Chimborazo","name_adm2":"Alausi","name_en":"Achupallas"},"geometry":{"type":"Point","coordinates":[-78.7693,-2.28279]}},{"type":"feature","properties":{"country_en":"Ecuador","name":"Aguapiedra","name_adm0":"Ecuador","name_adm1":"Guayas","name_adm2":"Guayaquil","name_en":"Aguapiedra"},"geometry":{"type":"Point","coordinates":[-80.09303,-2.7057299999999995]}},{"type":"feature","properties":{"country_en":"Ecuador","name":"Anchayacu","name_adm0":"Ecuador","name_adm1":"Esmeraldas","name_adm2":"Eloy Alfaro","name_en":"Anchayacu"},"geometry":{"type":"Point","coordinates":[-79.05896,0.95514]}},{"type":"feature","properties":{"country_en":"Ecuador","name":"Antonio Sotomayor","name_adm0":"Ecuador","name_adm1":"Los Rios","name_adm2":"Vinces","name_en":"Antonio Sotomayor"},"geometry":{"type":"Point","coordinates":[-79.80179,-1.64246]}},{"type":"feature","properties":{"country_en":"Ecuador","name":"Canuto","name_adm0":"Ecuador","name_adm1":"Manabi","name_adm2":"Chone","name_en":"Canuto"},"geometry":{"type":"Point","coordinates":[-80.12815,-0.79961]}},{"type":"feature","properties":{"country_en":"Ecuador","name":"Capzol","name_adm0":"Ecuador","name_adm1":"Chimborazo","name_adm2":"Chunchi","name_en":"Capzol"},"geometry":{"type":"Point","coordinates":[-78.92456,-2.30293]}},{"type":"feature","properties":{"country_en":"Ecuador","name":"Cashapamba","name_adm0":"Ecuador","name_adm1":"Pichincha","name_adm2":"Quito","name_en":"Cashapamba"},"geometry":{"type":"Point","coordinates":[-78.55,-0.35]}},{"type":"feature","properties":{"country_en":"Ecuador","name":"Chantaco","name_adm0":"Ecuador","name_adm1":"Loja","name_adm2":"Loja","name_en":"Chantaco"},"geometry":{"type":"Point","coordinates":[-79.32704,-3.8780899999999994]}},{"type":"feature","properties":{"country_en":"Ecuador","name":"Chaucha","name_adm0":"Ecuador","name_adm1":"Azuay","name_adm2":"Cuenca","name_en":"Chaucha"},"geometry":{"type":"Point","coordinates":[-79.41302999999999,-2.90906]}},{"type":"feature","properties":{"country_en":"Ecuador","name":"Chiquintad","name_adm0":"Ecuador","name_adm1":"Azuay","name_adm2":"Cuenca","name_en":"Chiquintad"},"geometry":{"type":"Point","coordinates":[-79.00706,-2.81771]}},{"type":"feature","properties":{"country_en":"Ecuador","name":"Chitán","name_adm0":"Ecuador","name_adm1":"Carchi","name_adm2":"Montufar","name_en":"Chitán"},"geometry":{"type":"Point","coordinates":[-77.79089999999998,0.62486]}},{"type":"feature","properties":{"country_en":"Ecuador","name":"Chuga","name_adm0":"Ecuador","name_adm1":"Imbabura","name_adm2":"Pimampiro","name_en":"Chuga"},"geometry":{"type":"Point","coordinates":[-77.90412,0.37540999999999997]}},{"type":"feature","properties":{"country_en":"Ecuador","name":"Chumblín","name_adm0":"Ecuador","name_adm1":"Azuay","name_adm2":"San Fernando","name_en":"Chumblín"},"geometry":{"type":"Point","coordinates":[-79.24235,-3.1274499999999996]}},{"type":"feature","properties":{"country_en":"Ecuador","name":"Chura","name_adm0":"Ecuador","name_adm1":"Esmeraldas","name_adm2":"Quininde","name_en":"Chura"},"geometry":{"type":"Point","coordinates":[-79.4843,0.58511]}},{"type":"feature","properties":{"country_en":"Ecuador","name":"Compud","name_adm0":"Ecuador","name_adm1":"Chimborazo","name_adm2":"Chunchi","name_en":"Compud"},"geometry":{"type":"Point","coordinates":[-78.94235,-2.34512]}},{"type":"feature","properties":{"country_en":"Ecuador","name":"Conguillo","name_adm0":"Ecuador","name_adm1":"Guayas","name_adm2":"Balzar","name_en":"Conguillo"},"geometry":{"type":"Point","coordinates":[-79.7922,-1.12753]}},{"type":"feature","properties":{"country_en":"Ecuador","name":"Coronel Carlos Concha Torres","name_adm0":"Ecuador","name_adm1":"Esmeraldas","name_adm2":"Esmeraldas","name_en":"Coronel Carlos Concha Torres"},"geometry":{"type":"Point","coordinates":[-79.68941,0.71191]}},{"type":"feature","properties":{"country_en":"Ecuador","name":"El Coroso","name_adm0":"Ecuador","name_adm1":"Santa Elena","name_adm2":"Santa Elena","name_en":"El Coroso"},"geometry":{"type":"Point","coordinates":[-80.47430999999999,-2.02634]}},{"type":"feature","properties":{"country_en":"Ecuador","name":"El Dorado de Cascales","name_adm0":"Ecuador","name_adm1":"Sucumbios","name_adm2":"Cascales","name_en":"El Dorado de Cascales"},"geometry":{"type":"Point","coordinates":[-77.21,0.08333]}},{"type":"feature","properties":{"country_en":"Ecuador","name":"El Eno","name_adm0":"Ecuador","name_adm1":"Sucumbios","name_adm2":"Lago Agrio","name_en":"El Eno"},"geometry":{"type":"Point","coordinates":[-76.8776,-0.0678]}},{"type":"feature","properties":{"country_en":"Ecuador","name":"El Goaltal","name_adm0":"Ecuador","name_adm1":"Carchi","name_adm2":"Espejo","name_en":"El Goaltal"},"geometry":{"type":"Point","coordinates":[-78.15864,0.80465]}},{"type":"feature","properties":{"country_en":"Ecuador","name":"El Resbalón","name_adm0":"Ecuador","name_adm1":"Manabi","name_adm2":"Portoviejo","name_en":"El Resbalón"},"geometry":{"type":"Point","coordinates":[-80.43795,-0.96481]}},{"type":"feature","properties":{"country_en":"Ecuador","name":"El Rosario","name_adm0":"Ecuador","name_adm1":"Loja","name_adm2":"Chaguarpamba","name_en":"El Rosario"},"geometry":{"type":"Point","coordinates":[-79.61058999999999,-3.7861399999999996]}},{"type":"feature","properties":{"country_en":"Ecuador","name":"General Morales","name_adm0":"Ecuador","name_adm1":"Canar","name_adm2":"Canar","name_en":"General Morales"},"geometry":{"type":"Point","coordinates":[-79.02314,-2.40741]}},{"type":"feature","properties":{"country_en":"Ecuador","name":"General Pedro J. Montero","name_adm0":"Ecuador","name_adm1":"Guayas","name_adm2":"Yaguachi","name_en":"General Pedro J. Montero"},"geometry":{"type":"Point","coordinates":[-79.62423,-2.25754]}},{"type":"feature","properties":{"country_en":"Ecuador","name":"General Proaño","name_adm0":"Ecuador","name_adm1":"Morona-Santiago","name_adm2":"Morona","name_en":"General Proaño"},"geometry":{"type":"Point","coordinates":[-78.10243,-2.2579099999999994]}},{"type":"feature","properties":{"country_en":"Ecuador","name":"General Vernaza","name_adm0":"Ecuador","name_adm1":"Guayas","name_adm2":"Salitre","name_en":"General Vernaza"},"geometry":{"type":"Point","coordinates":[-79.79,-1.76251]}},{"type":"feature","properties":{"country_en":"Ecuador","name":"Gima","name_adm0":"Ecuador","name_adm1":"Azuay","name_adm2":"Sigsig","name_en":"Gima"},"geometry":{"type":"Point","coordinates":[-78.95841,-3.1886099999999997]}},{"type":"feature","properties":{"country_en":"Ecuador","name":"Hacienda Buenos Aires","name_adm0":"Ecuador","name_adm1":"Guayas","name_adm2":"Naranjal","name_en":"Hacienda Buenos Aires"},"geometry":{"type":"Point","coordinates":[-79.46667,-2.55]}},{"type":"feature","properties":{"country_en":"Ecuador","name":"Hacienda Hacha","name_adm0":"Ecuador","name_adm1":"Guayas","name_adm2":"Balzar","name_en":"Hacienda Hacha"},"geometry":{"type":"Point","coordinates":[-79.94999999999999,-1.2999999999999998]}},{"type":"feature","properties":{"country_en":"Ecuador","name":"Hacienda Limones","name_adm0":"Ecuador","name_adm1":"Loja","name_adm2":"Zapotillo","name_en":"Hacienda Limones"},"geometry":{"type":"Point","coordinates":[-79.86667,-4.41667]}},{"type":"feature","properties":{"country_en":"Ecuador","name":"Hacienda Potrerillos","name_adm0":"Ecuador","name_adm1":"Loja","name_adm2":"Zapotillo","name_en":"Hacienda Potrerillos"},"geometry":{"type":"Point","coordinates":[-80.11851,-4.271839999999999]}},{"type":"feature","properties":{"country_en":"Ecuador","name":"Junquillal","name_adm0":"Ecuador","name_adm1":"Guayas","name_adm2":"Salitre","name_en":"Junquillal"},"geometry":{"type":"Point","coordinates":[-79.86477,-1.7148]}},{"type":"feature","properties":{"country_en":"Ecuador","name":"La Cucaracha","name_adm0":"Ecuador","name_adm1":"Manabi","name_adm2":"Santa Ana","name_en":"La Cucaracha"},"geometry":{"type":"Point","coordinates":[-80.03333,-1.2]}},{"type":"feature","properties":{"country_en":"Ecuador","name":"La Estancilla","name_adm0":"Ecuador","name_adm1":"Manabi","name_adm2":"Tosagua","name_en":"La Estancilla"},"geometry":{"type":"Point","coordinates":[-80.21539999999999,-0.81779]}},{"type":"feature","properties":{"country_en":"Ecuador","name":"La Magdalena","name_adm0":"Ecuador","name_adm1":"Bolivar","name_adm2":"Chimbo","name_en":"La Magdalena"},"geometry":{"type":"Point","coordinates":[-79.06789,-1.66411]}},{"type":"feature","properties":{"country_en":"Ecuador","name":"La Providencia","name_adm0":"Ecuador","name_adm1":"Guayas","name_adm2":"Yaguachi","name_en":"La Providencia"},"geometry":{"type":"Point","coordinates":[-79.78333,-2.08333]}},{"type":"feature","properties":{"country_en":"Ecuador","name":"La Tingue","name_adm0":"Ecuador","name_adm1":"Loja","name_adm2":"Paltas","name_en":"La Tingue"},"geometry":{"type":"Point","coordinates":[-79.57545,-3.9085099999999997]}},{"type":"feature","properties":{"country_en":"Ecuador","name":"La Unión","name_adm0":"Ecuador","name_adm1":"Esmeraldas","name_adm2":"Atacames","name_en":"La Unión"},"geometry":{"type":"Point","coordinates":[-79.86577999999999,0.8103799999999999]}},{"type":"feature","properties":{"country_en":"Ecuador","name":"La Victoria","name_adm0":"Ecuador","name_adm1":"Loja","name_adm2":"Macara","name_en":"La Victoria"},"geometry":{"type":"Point","coordinates":[-79.79036,-4.43183]}},{"type":"feature","properties":{"country_en":"Ecuador","name":"La Victoria","name_adm0":"Ecuador","name_adm1":"Guayas","name_adm2":"Salitre","name_en":"La Victoria"},"geometry":{"type":"Point","coordinates":[-79.71667,-2.1]}},{"type":"feature","properties":{"country_en":"Ecuador","name":"Laurel","name_adm0":"Ecuador","name_adm1":"Guayas","name_adm2":"Salitre","name_en":"Laurel"},"geometry":{"type":"Point","coordinates":[-79.90989,-1.7814299999999998]}},{"type":"feature","properties":{"country_en":"Ecuador","name":"Linares","name_adm0":"Ecuador","name_adm1":"Napo","name_adm2":"El Chaco","name_en":"Linares"},"geometry":{"type":"Point","coordinates":[-77.81177999999998,-0.36973]}},{"type":"feature","properties":{"country_en":"Ecuador","name":"Llacao","name_adm0":"Ecuador","name_adm1":"Azuay","name_adm2":"Cuenca","name_en":"Llacao"},"geometry":{"type":"Point","coordinates":[-78.88333,-2.86667]}},{"type":"feature","properties":{"country_en":"Ecuador","name":"Mercadillo","name_adm0":"Ecuador","name_adm1":"Loja","name_adm2":"Puyango","name_en":"Mercadillo"},"geometry":{"type":"Point","coordinates":[-79.97755,-4.024]}},{"type":"feature","properties":{"country_en":"Ecuador","name":"Miasal","name_adm0":"Ecuador","name_adm1":"Morona-Santiago","name_adm2":"Morona","name_en":"Miasal"},"geometry":{"type":"Point","coordinates":[-77.77803,-2.59578]}},{"type":"feature","properties":{"country_en":"Ecuador","name":"Morales","name_adm0":"Ecuador","name_adm1":"El Oro","name_adm2":"Portovelo","name_en":"Morales"},"geometry":{"type":"Point","coordinates":[-79.53919999999998,-3.7202]}},{"type":"feature","properties":{"country_en":"Ecuador","name":"Moraspungo","name_adm0":"Ecuador","name_adm1":"Bolivar","name_adm2":"Guaranda","name_en":"Moraspungo"},"geometry":{"type":"Point","coordinates":[-79.22344999999999,-1.17354]}},{"type":"feature","properties":{"country_en":"Ecuador","name":"Paccha","name_adm0":"Ecuador","name_adm1":"Azuay","name_adm2":"Cuenca","name_en":"Paccha"},"geometry":{"type":"Point","coordinates":[-78.93481999999999,-2.89946]}},