{"type":"FeatureCollection","features":[{"type":"feature","properties":{"country_en":"Georgia","name":"Akhalsopeli","name_adm0":"Georgia","name_adm1":"K´arelis Raioni","name_en":"Akhalsopeli"},"geometry":{"type":"Point","coordinates":[43.67089,42.016259999999996]}},{"type":"feature","properties":{"country_en":"Georgia","name":"Andriatsminda","name_adm0":"Georgia","name_adm1":"Akhalts´ikhis Raioni","name_en":"Andriatsminda"},"geometry":{"type":"Point","coordinates":[43.03181,41.58296]}},{"type":"feature","properties":{"country_en":"Georgia","name":"Arali","name_adm0":"Georgia","name_adm1":"Adigenis Raioni","name_en":"Arali"},"geometry":{"type":"Point","coordinates":[42.85218,41.62942]}},{"type":"feature","properties":{"country_en":"Georgia","name":"Arashenda","name_adm0":"Georgia","name_adm1":"Gurjaanis Raioni","name_en":"Arashenda"},"geometry":{"type":"Point","coordinates":[45.72845,41.6771]}},{"type":"feature","properties":{"country_en":"Georgia","name":"Ch'ak'vi","name_adm0":"Georgia","name_adm1":"Ajaria","name_en":"Ch'ak'vi"},"geometry":{"type":"Point","coordinates":[41.73278,41.72528]}},{"type":"feature","properties":{"country_en":"Georgia","name":"Babushara","name_adm0":"Georgia","name_adm1":"Abkhazia","name_en":"Babushara"},"geometry":{"type":"Point","coordinates":[41.124129999999994,42.8677]}},{"type":"feature","properties":{"country_en":"Georgia","name":"Baghdadi","name_adm0":"Georgia","name_adm1":"Baghdat´is Raioni","name_en":"Baghdadi"},"geometry":{"type":"Point","coordinates":[42.08855,41.93401]}},{"type":"feature","properties":{"country_en":"Georgia","name":"Bandza","name_adm0":"Georgia","name_adm1":"Senakis Raioni","name_en":"Bandza"},"geometry":{"type":"Point","coordinates":[42.2796,42.35162999999999]}},{"type":"feature","properties":{"country_en":"Georgia","name":"Aspindza","name_adm0":"Georgia","name_adm1":"Aspindzis Raioni","name_en":"Aspindza"},"geometry":{"type":"Point","coordinates":[43.24826,41.57389]}},{"type":"feature","properties":{"country_en":"Georgia","name":"Chivchavi","name_adm0":"Georgia","name_adm1":"T´et´ritsqaros Raioni","name_en":"Chivchavi"},"geometry":{"type":"Point","coordinates":[44.422219999999996,41.53472]}},{"type":"feature","properties":{"country_en":"Georgia","name":"Daget-Khachini","name_adm0":"Georgia","name_adm1":"T´et´ritsqaros Raioni","name_en":"Daget-Khachini"},"geometry":{"type":"Point","coordinates":[44.53065,41.52718]}},{"type":"feature","properties":{"country_en":"Georgia","name":"Dagva","name_adm0":"Georgia","name_adm1":"Ajaria","name_en":"Dagva"},"geometry":{"type":"Point","coordinates":[41.8,41.76666999999999]}},{"type":"feature","properties":{"country_en":"Georgia","name":"Derchi","name_adm0":"Georgia","name_adm1":"Tsqaltubo","name_en":"Derchi"},"geometry":{"type":"Point","coordinates":[42.77428,42.47025]}},{"type":"feature","properties":{"country_en":"Georgia","name":"Doyesi","name_adm0":"Georgia","name_adm1":"Kaspis Raioni","name_en":"Doyesi"},"geometry":{"type":"Point","coordinates":[44.25121,41.93610999999999]}},{"type":"feature","properties":{"country_en":"Georgia","name":"Dranda","name_adm0":"Georgia","name_adm1":"Abkhazia","name_en":"Dranda"},"geometry":{"type":"Point","coordinates":[41.15332999999999,42.87167]}},{"type":"feature","properties":{"country_en":"Georgia","name":"Dvabzu","name_adm0":"Georgia","name_adm1":"Ozurget´is Raioni","name_en":"Dvabzu"},"geometry":{"type":"Point","coordinates":[42.05481,41.94068]}},{"type":"feature","properties":{"country_en":"Georgia","name":"Dzegvi","name_adm0":"Georgia","name_adm1":"Mts´khet´is Raioni","name_en":"Dzegvi"},"geometry":{"type":"Point","coordinates":[44.60097,41.84569]}},{"type":"feature","properties":{"country_en":"Georgia","name":"Gumatiges","name_adm0":"Georgia","name_adm1":"Tsqaltubo","name_en":"Gumatiges"},"geometry":{"type":"Point","coordinates":[42.67559,42.338589999999996]}},{"type":"feature","properties":{"country_en":"Georgia","name":"Klde","name_adm0":"Georgia","name_adm1":"Akhalts´ikhis Raioni","name_en":"Klde"},"geometry":{"type":"Point","coordinates":[43.02623,41.67907]}},{"type":"feature","properties":{"country_en":"Georgia","name":"Kvakhchiri","name_adm0":"Georgia","name_adm1":"Tsqaltubo","name_en":"Kvakhchiri"},"geometry":{"type":"Point","coordinates":[42.73444,42.217499999999994]}},{"type":"feature","properties":{"country_en":"Georgia","name":"Kvatskhuti","name_adm0":"Georgia","name_adm1":"Ambrolauris Raioni","name_en":"Kvatskhuti"},"geometry":{"type":"Point","coordinates":[43.17604999999999,42.53222]}},{"type":"feature","properties":{"country_en":"Georgia","name":"Kisiskhevi","name_adm0":"Georgia","name_adm1":"T´elavis Raioni","name_en":"Kisiskhevi"},"geometry":{"type":"Point","coordinates":[45.54732,41.89795]}},{"type":"feature","properties":{"country_en":"Georgia","name":"Kvemo-Nakalakari","name_adm0":"Georgia","name_adm1":"T´ianet´is Raioni","name_en":"Kvemo-Nakalakari"},"geometry":{"type":"Point","coordinates":[45.01373,41.9493]}},{"type":"feature","properties":{"country_en":"Georgia","name":"Likhni","name_adm0":"Georgia","name_adm1":"Abkhazia","name_en":"Likhni"},"geometry":{"type":"Point","coordinates":[40.61472,43.14738]}},{"type":"feature","properties":{"country_en":"Georgia","name":"Metekhi","name_adm0":"Georgia","name_adm1":"Kaspis Raioni","name_en":"Metekhi"},"geometry":{"type":"Point","coordinates":[44.34023,41.92275]}},{"type":"feature","properties":{"country_en":"Georgia","name":"Nakalakevi","name_adm0":"Georgia","name_adm1":"Aspindzis Raioni","name_en":"Nakalakevi"},"geometry":{"type":"Point","coordinates":[43.33549,41.41506]}},{"type":"feature","properties":{"country_en":"Georgia","name":"Naniani","name_adm0":"Georgia","name_adm1":"Gurjaanis Raioni","name_en":"Naniani"},"geometry":{"type":"Point","coordinates":[45.70444,41.665]}},{"type":"feature","properties":{"country_en":"Georgia","name":"T'khilnari","name_adm0":"Georgia","name_adm1":"Ajaria","name_en":"T'khilnari"},"geometry":{"type":"Point","coordinates":[41.65054,41.56078]}},{"type":"feature","properties":{"country_en":"Georgia","name":"Shuakhevi","name_adm0":"Georgia","name_adm1":"Ajaria","name_en":"Shuakhevi"},"geometry":{"type":"Point","coordinates":[42.19083,41.63]}},{"type":"feature","properties":{"country_en":"Georgia","name":"Skhvilisi","name_adm0":"Georgia","name_adm1":"Akhalts´ikhis Raioni","name_en":"Skhvilisi"},"geometry":{"type":"Point","coordinates":[42.93865,41.64284]}},{"type":"feature","properties":{"country_en":"Georgia","name":"Tsinandali","name_adm0":"Georgia","name_adm1":"T´elavis Raioni","name_en":"Tsinandali"},"geometry":{"type":"Point","coordinates":[45.57129,41.89315]}},{"type":"feature","properties":{"country_en":"Georgia","name":"Tserovani","name_adm0":"Georgia","name_adm1":"Mts´khet´is Raioni","name_en":"Tserovani"},"geometry":{"type":"Point","coordinates":[44.675279999999994,41.86667]}},{"type":"feature","properties":{"country_en":"Georgia","name":"Tsesi","name_adm0":"Georgia","name_adm1":"Ambrolauris Raioni","name_en":"Tsesi"},"geometry":{"type":"Point","coordinates":[43.19522,42.54029]}},{"type":"feature","properties":{"country_en":"Georgia","name":"Tsikhisdziri","name_adm0":"Georgia","name_adm1":"Ajaria","name_en":"Tsikhisdziri"},"geometry":{"type":"Point","coordinates":[41.7449,41.75694]}},{"type":"feature","properties":{"country_en":"Georgia","name":"Tsinagari","name_adm0":"Georgia","name_adm1":"Kaspis Raioni","name_en":"Tsinagari"},"geometry":{"type":"Point","coordinates":[44.2875,42.07721999999999]}},{"type":"feature","properties":{"country_en":"Georgia","name":"Tskaltashua","name_adm0":"Georgia","name_adm1":"Baghdat´is Raioni","name_en":"Tskaltashua"},"geometry":{"type":"Point","coordinates":[42.83752,42.01781]}},{"type":"feature","properties":{"country_en":"Georgia","name":"Tskaltbila","name_adm0":"Georgia","name_adm1":"Akhalts´ikhis Raioni","name_en":"Tskaltbila"},"geometry":{"type":"Point","coordinates":[42.86714,41.58278]}},{"type":"feature","properties":{"country_en":"Georgia","name":"Tsnisi","name_adm0":"Georgia","name_adm1":"Akhalts´ikhis Raioni","name_en":"Tsnisi"},"geometry":{"type":"Point","coordinates":[43.06634999999999,41.67486]}},{"type":"feature","properties":{"country_en":"Georgia","name":"Zarati","name_adm0":"Georgia","name_adm1":"Tsqaltubo","name_en":"Zarati"},"geometry":{"type":"Point","coordinates":[42.71972,42.35646]}},{"type":"feature","properties":{"country_en":"Georgia","name":"Pari","name_adm0":"Georgia","name_adm1":"Mestiis Raioni","name_en":"Pari"},"geometry":{"type":"Point","coordinates":[42.49306,43.05234]}},{"type":"feature","properties":{"country_en":"Georgia","name":"Ot'khara","name_adm0":"Georgia","name_adm1":"Abkhazia","name_en":"Ot'khara"},"geometry":{"type":"Point","coordinates":[40.53084,43.22129]}},{"type":"feature","properties":{"country_en":"Georgia","name":"Ozhio","name_adm0":"Georgia","name_adm1":"T´elavis Raioni","name_en":"Ozhio"},"geometry":{"type":"Point","coordinates":[45.37586,41.97946]}},{"type":"feature","properties":{"country_en":"Georgia","name":"Tuzi","name_adm0":"Georgia","name_adm1":"T´erjolis Raioni","name_en":"Tuzi"},"geometry":{"type":"Point","coordinates":[43.10249,42.27486]}},{"type":"feature","properties":{"country_en":"Georgia","name":"Akhalkhibula","name_adm0":"Georgia","name_adm1":"Khobis Raioni","name_en":"Akhalkhibula"},"geometry":{"type":"Point","coordinates":[42.03467,42.42378]}},{"type":"feature","properties":{"country_en":"Georgia","name":"Akhalsop'eli","name_adm0":"Georgia","name_adm1":"Khobis Raioni","name_en":"Akhalsop'eli"},"geometry":{"type":"Point","coordinates":[41.84109,42.05485999999999]}},{"type":"feature","properties":{"country_en":"Georgia","name":"Bugeuli","name_adm0":"Georgia","name_adm1":"Ambrolauris Raioni","name_en":"Bugeuli"},"geometry":{"type":"Point","coordinates":[43.0695,42.53038999999999]}},{"type":"feature","properties":{"country_en":"Georgia","name":"Buknari","name_adm0":"Georgia","name_adm1":"Lanch´khut´is Raioni","name_en":"Buknari"},"geometry":{"type":"Point","coordinates":[41.75,41.75]}},{"type":"feature","properties":{"country_en":"Georgia","name":"Bulitsqu","name_adm0":"Georgia","name_adm1":"Khobis Raioni","name_en":"Bulitsqu"},"geometry":{"type":"Point","coordinates":[41.86806,42.34417]}},{"type":"feature","properties":{"country_en":"Georgia","name":"Burnasheti","name_adm0":"Georgia","name_adm1":"Akhalk´alak´is Raioni","name_en":"Burnasheti"},"geometry":{"type":"Point","coordinates":[43.82796,41.62609]}},{"type":"feature","properties":{"country_en":"Georgia","name":"Ch'khorotsqu","name_adm0":"Georgia","name_adm1":"Ch´khorotsqus Raioni","name_en":"Ch'khorotsqu"},"geometry":{"type":"Point","coordinates":[42.12459,42.521159999999995]}},{"type":"feature","properties":{"country_en":"Georgia","name":"Dzevri","name_adm0":"Georgia","name_adm1":"T´erjolis Raioni","name_en":"Dzevri"},"geometry":{"type":"Point","coordinates":[42.93347,42.24208]}},{"type":"feature","properties":{"country_en":"Georgia","name":"Eredvi","name_adm0":"Georgia","name_adm1":"Goris Raioni","name_en":"Eredvi"},"geometry":{"type":"Point","coordinates":[44.03972,42.24860999999999]}},{"type":"feature","properties":{"country_en":"Georgia","name":"Erge","name_adm0":"Georgia","name_adm1":"Ajaria","name_en":"Erge"},"geometry":{"type":"Point","coordinates":[41.69139,41.56417]}},{"type":"feature","properties":{"country_en":"Georgia","name":"Estonka","name_adm0":"Georgia","name_adm1":"Abkhazia","name_en":"Estonka"},"geometry":{"type":"Point","coordinates":[41.20163,42.88453]}},{"type":"feature","properties":{"country_en":"Georgia","name":"Etseri","name_adm0":"Georgia","name_adm1":"Khonis Raioni","name_en":"Etseri"},"geometry":{"type":"Point","coordinates":[42.245529999999995,42.26028]}},{"type":"feature","properties":{"country_en":"Georgia","name":"Etseri","name_adm0":"Georgia","name_adm1":"T´erjolis Raioni","name_en":"Etseri"},"geometry":{"type":"Point","coordinates":[42.91889,42.20389]}},{"type":"feature","properties":{"country_en":"Georgia","name":"Goraberezhouli","name_adm0":"Georgia","name_adm1":"Ch´okhatauris Raioni","name_en":"Goraberezhouli"},"geometry":{"type":"Point","coordinates":[42.19758,41.99978]}},{"type":"feature","properties":{"country_en":"Georgia","name":"Gvankiti","name_adm0":"Georgia","name_adm1":"Zestap´onis Raioni","name_en":"Gvankiti"},"geometry":{"type":"Point","coordinates":[43.00683,42.17254]}},{"type":"feature","properties":{"country_en":"Georgia","name":"Juruqvet'i","name_adm0":"Georgia","name_adm1":"Lanch´khut´is Raioni","name_en":"Juruqvet'i"},"geometry":{"type":"Point","coordinates":[41.91167,42.077389999999994]}},{"type":"feature","properties":{"country_en":"Georgia","name":"Khashmi","name_adm0":"Georgia","name_adm1":"Sagarejos Raioni","name_en":"Khashmi"},"geometry":{"type":"Point","coordinates":[45.1882,41.759299999999996]}},{"type":"feature","properties":{"country_en":"Georgia","name":"Kheta","name_adm0":"Georgia","name_adm1":"Khobis Raioni","name_en":"Kheta"},"geometry":{"type":"Point","coordinates":[41.85524,42.35903999999999]}},{"type":"feature","properties":{"country_en":"Georgia","name":"Kitsia","name_adm0":"Georgia","name_adm1":"Martvilis Raioni","name_en":"Kitsia"},"geometry":{"type":"Point","coordinates":[42.26667,42.5]}},{"type":"feature","properties":{"country_en":"Georgia","name":"Kitskhi","name_adm0":"Georgia","name_adm1":"Kharagaulis Raioni","name_en":"Kitskhi"},"geometry":{"type":"Point","coordinates":[43.13228999999999,42.03997]}},{"type":"feature","properties":{"country_en":"Georgia","name":"Kochio","name_adm0":"Georgia","name_adm1":"Akhalk´alak´is Raioni","name_en":"Kochio"},"geometry":{"type":"Point","coordinates":[43.5223,41.58063]}},{"type":"feature","properties":{"country_en":"Georgia","name":"Kokhora","name_adm0":"Georgia","name_adm1":"Abkhazia","name_en":"Kokhora"},"geometry":{"type":"Point","coordinates":[41.74058,42.690599999999996]}},{"type":"feature","properties":{"country_en":"Georgia","name":"Lekukhona","name_adm0":"Georgia","name_adm1":"Abkhazia","name_en":"Lekukhona"},"geometry":{"type":"Point","coordinates":[41.91964,42.67988]}},{"type":"feature","properties":{"country_en":"Georgia","name":"Leliani","name_adm0":"Georgia","name_adm1":"Lagodekhis Raioni","name_en":"Leliani"},"geometry":{"type":"Point","coordinates":[45.98597,41.81458]}},{"type":"feature","properties":{"country_en":"Georgia","name":"Lesichine","name_adm0":"Georgia","name_adm1":"Senakis Raioni","name_en":"Lesichine"},"geometry":{"type":"Point","coordinates":[42.09234,42.4374]}},{"type":"feature","properties":{"country_en":"Georgia","name":"Lia","name_adm0":"Georgia","name_adm1":"Zugdidis Raioni","name_en":"Lia"},"geometry":{"type":"Point","coordinates":[41.94806,42.63333]}},{"type":"feature","properties":{"country_en":"Georgia","name":"Machkhvareti","name_adm0":"Georgia","name_adm1":"Lanch´khut´is Raioni","name_en":"Machkhvareti"},"geometry":{"type":"Point","coordinates":[42.03466,42.08172]}},{"type":"feature","properties":{"country_en":"Georgia","name":"Maidani","name_adm0":"Georgia","name_adm1":"Khonis Raioni","name_en":"Maidani"},"geometry":{"type":"Point","coordinates":[42.31597,42.28778]}},{"type":"feature","properties":{"country_en":"Georgia","name":"Mukhuri","name_adm0":"Georgia","name_adm1":"Abkhazia","name_en":"Mukhuri"},"geometry":{"type":"Point","coordinates":[41.70403,42.69331]}},{"type":"feature","properties":{"country_en":"Georgia","name":"Mukuzani","name_adm0":"Georgia","name_adm1":"Gurjaanis Raioni","name_en":"Mukuzani"},"geometry":{"type":"Point","coordinates":[45.7325,41.80834]}},{"type":"feature","properties":{"country_en":"Georgia","name":"Mziuri","name_adm0":"Georgia","name_adm1":"Abkhazia","name_en":"Mziuri"},"geometry":{"type":"Point","coordinates":[41.7274,42.61629]}},{"type":"feature","properties":{"country_en":"Georgia","name":"Nabakevi","name_adm0":"Georgia","name_adm1":"Abkhazia","name_en":"Nabakevi"},"geometry":{"type":"Point","coordinates":[41.6699,42.50525]}},{"type":"feature","properties":{"country_en":"Georgia","name":"Sameba","name_adm0":"Georgia","name_adm1":"Lanch´khut´is Raioni","name_en":"Sameba"},"geometry":{"type":"Point","coordinates":[42.16975999999999,42.03344]}},{"type":"feature","properties":{"country_en":"Georgia","name":"Zhanivri","name_adm0":"Georgia","name_adm1":"Ajaria","name_en":"Zhanivri"},"geometry":{"type":"Point","coordinates":[42.20982,41.71471]}},{"type":"feature","properties":{"country_en":"Georgia","name":"Znakva","name_adm0":"Georgia","name_adm1":"Ambrolauris Raioni","name_en":"Znakva"},"geometry":{"type":"Point","coordinates":[43.08674,42.51162]}},{"type":"feature","properties":{"country_en":"Georgia","name":"Tkviavi","name_adm0":"Georgia","name_adm1":"Goris Raioni","name_en":"Tkviavi"},"geometry":{"type":"Point","coordinates":[44.06869,42.15813]}},{"type":"feature","properties":{"country_en":"Georgia","name":"Tqibuli","name_adm0":"Georgia","name_adm1":"Tqibuli","name_en":"Tqibuli"},"geometry":{"type":"Point","coordinates":[42.99874,42.35121]}},{"type":"feature","properties":{"country_en":"Georgia","name":"Gurjaani","name_adm0":"Georgia","name_adm1":"Gurjaanis Raioni","name_en":"Gurjaani"},"geometry":{"type":"Point","coordinates":[45.80111,41.74292]}},{"type":"feature","properties":{"country_en":"Georgia","name":"Ts'qaltubo","name_adm0":"Georgia","name_adm1":"Tsqaltubo","name_en":"Ts'qaltubo"},"geometry":{"type":"Point","coordinates":[42.5976,42.34129]}},{"type":"feature","properties":{"country_en":"Georgia","name":"Bolnisis Raioni","name_adm0":"Georgia","name_adm1":"Bolnisis Raioni","name_en":"Bolnisis Raioni"},"geometry":{"type":"Point","coordinates":[44.408111,41.49212]}},{"type":"feature","properties":{"country_en":"Georgia","name":"Mestia","name_adm0":"Georgia","name_adm1":"Mestiis Raioni","name_en":"Mestia"},"geometry":{"type":"Point","coordinates":[42.7278,43.045809999999996]}},{"type":"feature","properties":{"country_en":"Georgia","name":"Bakuriani","name_adm0":"Georgia","name_adm1":"Borjomis Raioni","name_en":"Bakuriani"},"geometry":{"type":"Point","coordinates":[43.5325,41.74972]}},{"type":"feature","properties":{"country_en":"Georgia","name":"Utsera","name_adm0":"Georgia","name_adm1":"Onis Raioni","name_en":"Utsera"},"geometry":{"type":"Point","coordinates":[43.5419,42.6367]}},{"type":"feature","properties":{"country_en":"Georgia","name":"Ude","name_adm0":"Georgia","name_adm1":"Adigenis Raioni","name_en":"Ude"},"geometry":{"type":"Point","coordinates":[42.79141,41.6397]}},{"type":"feature","properties":{"country_en":"Georgia","name":"Tsnori","name_adm0":"Georgia","name_adm1":"Marneulis Raioni","name_en":"Tsnori"},"geometry":{"type":"Point","coordinates":[45.96943,41.62088]}},{"type":"feature","properties":{"country_en":"Georgia","name":"Gurgeniani","name_adm0":"Georgia","name_adm1":"Lagodekhis Raioni","name_en":"Gurgeniani"},"geometry":{"type":"Point","coordinates":[46.21999999999999,41.85042]}},{"type":"feature","properties":{"country_en":"Georgia","name":"Sakdari","name_adm0":"Georgia","name_adm1":"Lentekhis Raioni","name_en":"Sakdari"},"geometry":{"type":"Point","coordinates":[42.82049,42.8401]}},{"type":"feature","properties":{"country_en":"Georgia","name":"Ghebi","name_adm0":"Georgia","name_adm1":"Onis Raioni","name_en":"Ghebi"},"geometry":{"type":"Point","coordinates":[43.5085,42.76686]}},{"type":"feature","properties":{"country_en":"Georgia","name":"Kvemo-Kedi","name_adm0":"Georgia","name_adm1":"Dedop´listsqaros Raioni","name_en":"Kvemo-Kedi"},"geometry":{"type":"Point","coordinates":[46.51061,41.3711]}},{"type":"feature","properties":{"country_en":"Georgia","name":"Tsalenjikha","name_adm0":"Georgia","name_adm1":"Tsalenjikhis Raioni","name_en":"Tsalenjikha"},"geometry":{"type":"Point","coordinates":[42.06824999999999,42.60444]}},{"type":"feature","properties":{"country_en":"Georgia","name":"Zemo K'edi","name_adm0":"Georgia","name_adm1":"Dedop´listsqaros Raioni","name_en":"Zemo K'edi"},"geometry":{"type":"Point","coordinates":[46.39238,41.42514]}},{"type":"feature","properties":{"country_en":"Georgia","name":"Lesa","name_adm0":"Georgia","name_adm1":"Lanch´khut´is Raioni","name_en":"Lesa"},"geometry":{"type":"Point","coordinates":[41.95792,42.08417]}},{"type":"feature","properties":{"country_en":"Georgia","name":"Fakhralo","name_adm0":"Georgia","name_adm1":"Bolnisis Raioni","name_en":"Fakhralo"},"geometry":{"type":"Point","coordinates":[44.64867999999999,41.38279]}},{"type":"feature","properties":{"country_en":"Georgia","name":"Vardisubani","name_adm0":"Georgia","name_adm1":"Lagodekhis Raioni","name_en":"Vardisubani"},"geometry":{"type":"Point","coordinates":[46.14944,41.77277999999999]}},{"type":"feature","properties":{"country_en":"Georgia","name":"Tskhneti","name_adm0":"Georgia","name_adm1":"Gardabanis Raioni","name_en":"Tskhneti"},"geometry":{"type":"Point","coordinates":[44.703025,41.68382999999999]}},{"type":"feature","properties":{"country_en":"Georgia","name":"Nazarlo","name_adm0":"Georgia","name_adm1":"Sighnaghis Raioni","name_en":"Nazarlo"},"geometry":{"type":"Point","coordinates":[45.110989999999994,41.42109]}},{"type":"feature","properties":{"country_en":"Georgia","name":"Khonis Raioni","name_adm0":"Georgia","name_adm1":"Khonis Raioni","name_en":"Khonis Raioni"},"geometry":{"type":"Point","coordinates":[42.390747,42.350425]}},{"type":"feature","properties":{"country_en":"Georgia","name":"Makhindzhauri","name_adm0":"Georgia","name_adm1":"Ajaria","name_en":"Makhindzhauri"},"geometry":{"type":"Point","coordinates":[41.69401,41.67385]}},{"type":"feature","properties":{"country_en":"Georgia","name":"Kakhaberi","name_adm0":"Georgia","name_adm1":"Ajaria","name_en":"Kakhaberi"},"geometry":{"type":"Point","coordinates":[41.61333,41.62417]}},{"type":"feature","properties":{"country_en":"Georgia","name":"Karsubani","name_adm0":"Georgia","name_adm1":"Lagodekhis Raioni","name_en":"Karsubani"},"geometry":{"type":"Point","coordinates":[46.13096999999999,41.78986]}},{"type":"feature","properties":{"country_en":"Georgia","name":"Kheltubani","name_adm0":"Georgia","name_adm1":"Goris Raioni","name_en":"Kheltubani"},"geometry":{"type":"Point","coordinates":[44.15460999999999,42.05065]}},{"type":"feature","properties":{"country_en":"Georgia","name":"Khidistavi","name_adm0":"Georgia","name_adm1":"Goris Raioni","name_en":"Khidistavi"},"geometry":{"type":"Point","coordinates":[44.13674,41.95794999999999]}},{"type":"feature","properties":{"country_en":"Georgia","name":"Khikhadziri","name_adm0":"Georgia","name_adm1":"Ajaria","name_en":"Khikhadziri"},"geometry":{"type":"Point","coordinates":[42.470209999999994,41.54579]}},{"type":"feature","properties":{"country_en":"Georgia","name":"Khiso","name_adm0":"Georgia","name_adm1":"Akhmetis Raioni","name_en":"Khiso"},"geometry":{"type":"Point","coordinates":[45.60306,42.34139]}},{"type":"feature","properties":{"country_en":"Georgia","name":"Khunevi","name_adm0":"Georgia","name_adm1":"Kharagaulis Raioni","name_en":"Khunevi"},"geometry":{"type":"Point","coordinates":[43.35871,42.106]}},{"type":"feature","properties":{"country_en":"Georgia","name":"Kvemo-Khodasheni","name_adm0":"Georgia","name_adm1":"Gurjaanis Raioni","name_en":"Kvemo-Khodasheni"},"geometry":{"type":"Point","coordinates":[45.580709999999996,41.88432]}},{"type":"feature","properties":{"country_en":"Georgia","name":"Lakhamula","name_adm0":"Georgia","name_adm1":"Mestiis Raioni","name_en":"Lakhamula"},"geometry":{"type":"Point","coordinates":[42.44766,43.04965]}},{"type":"feature","properties":{"country_en":"Georgia","name":"Tabakhmela","name_adm0":"Georgia","name_adm1":"Gardabanis Raioni","name_en":"Tabakhmela"},"geometry":{"type":"Point","coordinates":[44.75698,41.65163]}},{"type":"feature","properties":{"country_en":"Georgia","name":"Orbeti","name_adm0":"Georgia","name_adm1":"T´et´ritsqaros Raioni","name_en":"Orbeti"},"geometry":{"type":"Point","coordinates":[44.53109,41.66468]}},{"type":"feature","properties":{"country_en":"Georgia","name":"Jugaani","name_adm0":"Georgia","name_adm1":"Marneulis Raioni","name_en":"Jugaani"},"geometry":{"type":"Point","coordinates":[45.98708,41.59746]}},{"type":"feature","properties":{"country_en":"Georgia","name":"Krtsanisi","name_adm0":"Georgia","name_adm1":"Gardabanis Raioni","name_en":"Krtsanisi"},"geometry":{"type":"Point","coordinates":[44.90292,41.60976]}},{"type":"feature","properties":{"country_en":"Georgia","name":"Gamarjveba","name_adm0":"Georgia","name_adm1":"Gardabanis Raioni","name_en":"Gamarjveba"},"geometry":{"type":"Point","coordinates":[44.99600999999999,41.64932]}},{"type":"feature","properties":{"country_en":"Georgia","name":"Gali","name_adm0":"Georgia","name_adm1":"Abkhazia","name_en":"Gali"},"geometry":{"type":"Point","coordinates":[41.73807999999999,42.62655]}},{"type":"feature","properties":{"country_en":"Georgia","name":"Zemo Eshera","name_adm0":"Georgia","name_adm1":"Abkhazia","name_en":"Zemo Eshera"},"geometry":{"type":"Point","coordinates":[40.87855,43.0747]}},{"type":"feature","properties":{"country_en":"Georgia","name":"Och'amch'ire","name_adm0":"Georgia","name_adm1":"Abkhazia","name_en":"Och'amch'ire"},"geometry":{"type":"Point","coordinates":[41.46863,42.71232]}},{"type":"feature","properties":{"country_en":"Georgia","name":"Zhinvali","name_adm0":"Georgia","name_adm1":"Dushet´is Raioni","name_en":"Zhinvali"},"geometry":{"type":"Point","coordinates":[44.77264,42.13181]}},{"type":"feature","properties":{"country_en":"Georgia","name":"Kaspi","name_adm0":"Georgia","name_adm1":"Kaspis Raioni","name_en":"Kaspi"},"geometry":{"type":"Point","coordinates":[44.42568,41.9252]}},{"type":"feature","properties":{"country_en":"Georgia","name":"Gardabani","name_adm0":"Georgia","name_adm1":"Gardabanis Raioni","name_en":"Gardabani"},"geometry":{"type":"Point","coordinates":[45.09283,41.460539999999995]}},{"type":"feature","properties":{"country_en":"Georgia","name":"Abkhazia","name_adm0":"Georgia","name_adm1":"Abkhazia","name_en":"Abkhazia"},"geometry":{"type":"Point","coordinates":[41.00501,43.0005]}},{"type":"feature","properties":{"country_en":"Georgia","name":"Pirvelmaisi","name_adm0":"Georgia","name_adm1":"Ajaria","name_en":"Pirvelmaisi"},"geometry":{"type":"Point","coordinates":[41.8825,41.58639]}},{"type":"feature","properties":{"country_en":"Georgia","name":"Chazhashi","name_adm0":"Georgia","name_adm1":"Lentekhis Raioni","name_en":"Chazhashi"},"geometry":{"type":"Point","coordinates":[43.01743999999999,42.918009999999995]}},{"type":"feature","properties":{"country_en":"Georgia","name":"Signakhi","name_adm0":"Georgia","name_adm1":"Marneulis Raioni","name_en":"Signakhi"},"geometry":{"type":"Point","coordinates":[45.92197999999999,41.62046]}},{"type":"feature","properties":{"country_en":"Georgia","name":"Sarp'i","name_adm0":"Georgia","name_adm1":"Ajaria","name_en":"Sarp'i"},"geometry":{"type":"Point","coordinates":[41.55194,41.52139]}},{"type":"feature","properties":{"country_en":"Georgia","name":"P'ot'i","name_adm0":"Georgia","name_adm1":"P´ot´I","name_en":"P'ot'i"},"geometry":{"type":"Point","coordinates":[41.67197,42.14616]}},{"type":"feature","properties":{"country_en":"Georgia","name":"Omalo","name_adm0":"Georgia","name_adm1":"Akhmetis Raioni","name_en":"Omalo"},"geometry":{"type":"Point","coordinates":[45.63334,42.37047]}},{"type":"feature","properties":{"country_en":"Georgia","name":"Rustavi","name_adm0":"Georgia","name_adm1":"Rust´avi","name_en":"Rustavi"},"geometry":{"type":"Point","coordinates":[44.99323,41.54949]}},{"type":"feature","properties":{"country_en":"Georgia","name":"Talaveri","name_adm0":"Georgia","name_adm1":"Bolnisis Raioni","name_en":"Talaveri"},"geometry":{"type":"Point","coordinates":[44.67316,41.09765999999999]}},{"type":"feature","properties":{"country_en":"Georgia","name":"Keshalo","name_adm0":"Georgia","name_adm1":"Dmanisis Raioni","name_en":"Keshalo"},"geometry":{"type":"Point","coordinates":[45.00436,41.450359999999996]}},{"type":"feature","properties":{"country_en":"Georgia","name":"Shromisubani","name_adm0":"Georgia","name_adm1":"Lanch´khut´is Raioni","name_en":"Shromisubani"},"geometry":{"type":"Point","coordinates":[41.86310999999999,42.03091]}},{"type":"feature","properties":{"country_en":"Georgia","name":"Salominao","name_adm0":"Georgia","name_adm1":"Vanis Raioni","name_en":"Salominao"},"geometry":{"type":"Point","coordinates":[42.71,42.08332999999999]}},{"type":"feature","properties":{"country_en":"Georgia","name":"Japaridze","name_adm0":"Georgia","name_adm1":"Dedop´listsqaros Raioni","name_en":"Japaridze"},"geometry":{"type":"Point","coordinates":[46.14305999999999,41.45555999999999]}},{"type":"feature","properties":{"country_en":"Georgia","name":"Letsurtsume","name_adm0":"Georgia","name_adm1":"Khobis Raioni","name_en":"Letsurtsume"},"geometry":{"type":"Point","coordinates":[42.12378,42.5211]}},{"type":"feature","properties":{"country_en":"Georgia","name":"Jvarisa","name_adm0":"Georgia","name_adm1":"Tqibuli","name_en":"Jvarisa"},"geometry":{"type":"Point","coordinates":[42.81159,42.37816]}},{"type":"feature","properties":{"country_en":"Georgia","name":"Najakhao","name_adm0":"Georgia","name_adm1":"Lentekhis Raioni","name_en":"Najakhao"},"geometry":{"type":"Point","coordinates":[42.332739999999994,42.34882]}},{"type":"feature","properties":{"country_en":"Georgia","name":"Zugdidi","name_adm0":"Georgia","name_adm1":"Zugdidi","name_en":"Zugdidi"},"geometry":{"type":"Point","coordinates":[41.87088,42.5088]}},{"type":"feature","properties":{"country_en":"Georgia","name":"K'obulet'i","name_adm0":"Georgia","name_adm1":"Ajaria","name_en":"K'obulet'i"},"geometry":{"type":"Point","coordinates":[41.77528,41.81999999999999]}},{"type":"feature","properties":{"country_en":"Georgia","name":"Zguderi","name_adm0":"Georgia","name_adm1":"K´arelis Raioni","name_en":"Zguderi"},"geometry":{"type":"Point","coordinates":[43.80203999999999,41.96049]}},{"type":"feature","properties":{"country_en":"Georgia","name":"Ozurget´is Raioni","name_adm0":"Georgia","name_adm1":"Ozurget´is Raioni","name_en":"Ozurget´is Raioni"},"geometry":{"type":"Point","coordinates":[41.976012999999995,41.939062]}},{"type":"feature","properties":{"country_en":"Georgia","name":"Rust´avi","name_adm0":"Georgia","name_adm1":"Rust´avi","name_en":"Rust´avi"},"geometry":{"type":"Point","coordinates":[44.981286,41.547644]}},{"type":"feature","properties":{"country_en":"Georgia","name":"Gardabanis Raioni","name_adm0":"Georgia","name_adm1":"Gardabanis Raioni","name_en":"Gardabanis Raioni"},"geometry":{"type":"Point","coordinates":[44.925981,41.661691]}},{"type":"feature","properties":{"country_en":"Georgia","name":"Abedati","name_adm0":"Georgia","name_adm1":"Senakis Raioni","name_en":"Abedati"},"geometry":{"type":"Point","coordinates":[42.29277,42.38886]}},{"type":"feature","properties":{"country_en":"Georgia","name":"Akhuti","name_adm0":"Georgia","name_adm1":"Senakis Raioni","name_en":"Akhuti"},"geometry":{"type":"Point","coordinates":[42.17651999999999,42.46227999999999]}},{"type":"feature","properties":{"country_en":"Georgia","name":"Artana","name_adm0":"Georgia","name_adm1":"T´elavis Raioni","name_en":"Artana"},"geometry":{"type":"Point","coordinates":[45.50289,42.07357999999999]}},{"type":"feature","properties":{"country_en":"Georgia","name":"Balaani","name_adm0":"Georgia","name_adm1":"Akhalgoris Raioni","name_en":"Balaani"},"geometry":{"type":"Point","coordinates":[44.47722,42.34722]}},{"type":"feature","properties":{"country_en":"Georgia","name":"Bashi","name_adm0":"Georgia","name_adm1":"Samtrediis Raioni","name_en":"Bashi"},"geometry":{"type":"Point","coordinates":[41.92279,42.56001]}},{"type":"feature","properties":{"country_en":"Georgia","name":"Benara","name_adm0":"Georgia","name_adm1":"Adigenis Raioni","name_en":"Benara"},"geometry":{"type":"Point","coordinates":[42.82925,41.65911]}},{"type":"feature","properties":{"country_en":"Georgia","name":"Cholabargi","name_adm0":"Georgia","name_adm1":"Lanch´khut´is Raioni","name_en":"Cholabargi"},"geometry":{"type":"Point","coordinates":[42.13294,42.08615]}},{"type":"feature","properties":{"country_en":"Georgia","name":"Didi-Medzhvriskhevi","name_adm0":"Georgia","name_adm1":"Goris Raioni","name_en":"Didi-Medzhvriskhevi"},"geometry":{"type":"Point","coordinates":[44.21497,42.1298]}},{"type":"feature","properties":{"country_en":"Georgia","name":"Didi-Nedzi","name_adm0":"Georgia","name_adm1":"Zugdidis Raioni","name_en":"Didi-Nedzi"},"geometry":{"type":"Point","coordinates":[41.73667,42.40889]}},{"type":"feature","properties":{"country_en":"Georgia","name":"Didi-Vani","name_adm0":"Georgia","name_adm1":"Ch´okhatauris Raioni","name_en":"Didi-Vani"},"geometry":{"type":"Point","coordinates":[42.4,41.96667]}},{"type":"feature","properties":{"country_en":"Georgia","name":"Diliska","name_adm0":"Georgia","name_adm1":"Akhalk´alak´is Raioni","name_en":"Diliska"},"geometry":{"type":"Point","coordinates":[43.46208,41.42924]}},{"type":"feature","properties":{"country_en":"Georgia","name":"Diliti","name_adm0":"Georgia","name_adm1":"Ninotsmindis Raioni","name_en":"Diliti"},"geometry":{"type":"Point","coordinates":[43.47129,41.2769]}},{"type":"feature","properties":{"country_en":"Georgia","name":"Dzveli Abasha","name_adm0":"Georgia","name_adm1":"Abashis Raioni","name_en":"Dzveli Abasha"},"geometry":{"type":"Point","coordinates":[42.24667,42.23973]}},{"type":"feature","properties":{"country_en":"Georgia","name":"Ok'tomberi","name_adm0":"Georgia","name_adm1":"Zugdidis Raioni","name_en":"Ok'tomberi"},"geometry":{"type":"Point","coordinates":[41.75646,42.4416]}},{"type":"feature","properties":{"country_en":"Georgia","name":"Okhurey","name_adm0":"Georgia","name_adm1":"Abkhazia","name_en":"Okhurey"},"geometry":{"type":"Point","coordinates":[41.51607,42.65781]}},{"type":"feature","properties":{"country_en":"Georgia","name":"Sakdrioni","name_adm0":"Georgia","name_adm1":"T´ianet´is Raioni","name_en":"Sakdrioni"},"geometry":{"type":"Point","coordinates":[44.957449999999994,41.97555]}},{"type":"feature","properties":{"country_en":"Georgia","name":"Jinvali","name_adm0":"Georgia","name_adm1":"Dushet´is Raioni","name_en":"Jinvali"},"geometry":{"type":"Point","coordinates":[44.77264,42.13181]}},{"type":"feature","properties":{"country_en":"Georgia","name":"Charnali","name_adm0":"Georgia","name_adm1":"Ajaria","name_en":"Charnali"},"geometry":{"type":"Point","coordinates":[41.614169999999994,41.5675]}},{"type":"feature","properties":{"country_en":"Georgia","name":"Chekuriaantgori","name_adm0":"Georgia","name_adm1":"T´ianet´is Raioni","name_en":"Chekuriaantgori"},"geometry":{"type":"Point","coordinates":[44.955279999999995,42.07056]}},{"type":"feature","properties":{"country_en":"Georgia","name":"Didi Gondrio","name_adm0":"Georgia","name_adm1":"Ninotsmindis Raioni","name_en":"Didi Gondrio"},"geometry":{"type":"Point","coordinates":[43.48293,41.29204]}},{"type":"feature","properties":{"country_en":"Georgia","name":"Khtsisi","name_adm0":"Georgia","name_adm1":"Khashuris Raioni","name_en":"Khtsisi"},"geometry":{"type":"Point","coordinates":[43.67676,41.98202]}},{"type":"feature","properties":{"country_en":"Georgia","name":"Abastumani","name_adm0":"Georgia","name_adm1":"Adigenis Raioni","name_en":"Abastumani"},"geometry":{"type":"Point","coordinates":[42.84572,41.7075]}},{"type":"feature","properties":{"country_en":"Georgia","name":"Tsinsvla","name_adm0":"Georgia","name_adm1":"Ajaria","name_en":"Tsinsvla"},"geometry":{"type":"Point","coordinates":[41.70361,41.6425]}},{"type":"feature","properties":{"country_en":"Georgia","name":"Mazeri","name_adm0":"Georgia","name_adm1":"Mestiis Raioni","name_en":"Mazeri"},"geometry":{"type":"Point","coordinates":[42.6099,43.0737]}},{"type":"feature","properties":{"country_en":"Georgia","name":"Surami","name_adm0":"Georgia","name_adm1":"Khashuris Raioni","name_en":"Surami"},"geometry":{"type":"Point","coordinates":[43.55556,42.02431]}},{"type":"feature","properties":{"country_en":"Georgia","name":"Samtredia","name_adm0":"Georgia","name_adm1":"Samtrediis Raioni","name_en":"Samtredia"},"geometry":{"type":"Point","coordinates":[42.33516999999999,42.1537]}},{"type":"feature","properties":{"country_en":"Georgia","name":"Pshaveli","name_adm0":"Georgia","name_adm1":"T´elavis Raioni","name_en":"Pshaveli"},"geometry":{"type":"Point","coordinates":[45.4425,42.08388999999999]}},{"type":"feature","properties":{"country_en":"Georgia","name":"Keda","name_adm0":"Georgia","name_adm1":"Ajaria","name_en":"Keda"},"geometry":{"type":"Point","coordinates":[41.94139,41.59694]}},{"type":"feature","properties":{"country_en":"Georgia","name":"Martvili","name_adm0":"Georgia","name_adm1":"Senakis Raioni","name_en":"Martvili"},"geometry":{"type":"Point","coordinates":[42.37924,42.41436]}},{"type":"feature","properties":{"country_en":"Georgia","name":"Okami","name_adm0":"Georgia","name_adm1":"Kaspis Raioni","name_en":"Okami"},"geometry":{"type":"Point","coordinates":[44.47912,41.98387]}},{"type":"feature","properties":{"country_en":"Georgia","name":"Okami","name_adm0":"Georgia","name_adm1":"Akhalk´alak´is Raioni","name_en":"Okami"},"geometry":{"type":"Point","coordinates":[43.34047,41.3193]}},{"type":"feature","properties":{"country_en":"Georgia","name":"Shorapani","name_adm0":"Georgia","name_adm1":"Zestap´onis Raioni","name_en":"Shorapani"},"geometry":{"type":"Point","coordinates":[43.08662,42.0898]}},{"type":"feature","properties":{"country_en":"Georgia","name":"Senaki","name_adm0":"Georgia","name_adm1":"Senakis Raioni","name_en":"Senaki"},"geometry":{"type":"Point","coordinates":[42.0675,42.27042]}},{"type":"feature","properties":{"country_en":"Georgia","name":"Vazisubani","name_adm0":"Georgia","name_adm1":"Gurjaanis Raioni","name_en":"Vazisubani"},"geometry":{"type":"Point","coordinates":[45.69458,41.82458]}},{"type":"feature","properties":{"country_en":"Georgia","name":"Amamlo","name_adm0":"Georgia","name_adm1":"Dmanisis Raioni","name_en":"Amamlo"},"geometry":{"type":"Point","coordinates":[44.23219,41.27822999999999]}},{"type":"feature","properties":{"country_en":"Georgia","name":"Georgia","name_adm0":"Georgia","name_en":"Georgia"},"geometry":{"type":"Point","coordinates":[41.781005,42.024813]}},{"type":"feature","properties":{"country_en":"Georgia","name":"Khashuri","name_adm0":"Georgia","name_adm1":"Khashuris Raioni","name_en":"Khashuri"},"geometry":{"type":"Point","coordinates":[43.59994,41.99414]}},{"type":"feature","properties":{"country_en":"Georgia","name":"Abasha","name_adm0":"Georgia","name_adm1":"Abashis Raioni","name_en":"Abasha"},"geometry":{"type":"Point","coordinates":[42.22111,42.20959]}},{"type":"feature","properties":{"country_en":"Georgia","name":"Okumi","name_adm0":"Georgia","name_adm1":"Abkhazia","name_en":"Okumi"},"geometry":{"type":"Point","coordinates":[41.74055,42.71591]}},{"type":"feature","properties":{"country_en":"Georgia","name":"Sazano","name_adm0":"Georgia","name_adm1":"T´erjolis Raioni","name_en":"Sazano"},"geometry":{"type":"Point","coordinates":[43.06708,42.21666]}},{"type":"feature","properties":{"country_en":"Georgia","name":"Zemo Barghebi","name_adm0":"Georgia","name_adm1":"Abkhazia","name_en":"Zemo Barghebi"},"geometry":{"type":"Point","coordinates":[41.65539,42.56541]}},{"type":"feature","properties":{"country_en":"Georgia","name":"Zemo-Aketi","name_adm0":"Georgia","name_adm1":"Lanch´khut´is Raioni","name_en":"Zemo-Aketi"},"geometry":{"type":"Point","coordinates":[42.09492,42.04619]}},{"type":"feature","properties":{"country_en":"Georgia","name":"Zemo-Azhara","name_adm0":"Georgia","name_adm1":"Abkhazia","name_en":"Zemo-Azhara"},"geometry":{"type":"Point","coordinates":[41.76688,43.11212]}},{"type":"feature","properties":{"country_en":"Georgia","name":"Didi-Gupta","name_adm0":"Georgia","name_adm1":"Goris Raioni","name_en":"Didi-Gupta"},"geometry":{"type":"Point","coordinates":[43.9007,42.35435]}},{"type":"feature","properties":{"country_en":"Georgia","name":"Shua-Nosiri","name_adm0":"Georgia","name_adm1":"Senakis Raioni","name_en":"Shua-Nosiri"},"geometry":{"type":"Point","coordinates":[42.11402,42.27167]}},{"type":"feature","properties":{"country_en":"Georgia","name":"Khotevi","name_adm0":"Georgia","name_adm1":"Ambrolauris Raioni","name_en":"Khotevi"},"geometry":{"type":"Point","coordinates":[43.15238,42.46859]}},{"type":"feature","properties":{"country_en":"Georgia","name":"Akhalsopeli","name_adm0":"Georgia","name_adm1":"T´ianet´is Raioni","name_en":"Akhalsopeli"},"geometry":{"type":"Point","coordinates":[44.78444,41.89921]}},{"type":"feature","properties":{"country_en":"Georgia","name":"Nakiyeti","name_adm0":"Georgia","name_adm1":"Onis Raioni","name_en":"Nakiyeti"},"geometry":{"type":"Point","coordinates":[43.50022,42.61982]}},{"type":"feature","properties":{"country_en":"Georgia","name":"Nikortsminda","name_adm0":"Georgia","name_adm1":"Ambrolauris Raioni","name_en":"Nikortsminda"},"geometry":{"type":"Point","coordinates":[43.09182,42.46194]}},{"type":"feature","properties":{"country_en":"Georgia","name":"Akhalsop'eli","name_adm0":"Georgia","name_adm1":"Zugdidis Raioni","name_en":"Akhalsop'eli"},"geometry":{"type":"Point","coordinates":[41.84109,42.05485999999999]}},{"type":"feature","properties":{"country_en":"Georgia","name":"Berbuki","name_adm0":"Georgia","name_adm1":"Goris Raioni","name_en":"Berbuki"},"geometry":{"type":"Point","coordinates":[44.126189999999994,42.01412]}},{"type":"feature","properties":{"country_en":"Georgia","name":"Dzveli-Senaki","name_adm0":"Georgia","name_adm1":"Senakis Raioni","name_en":"Dzveli-Senaki"},"geometry":{"type":"Point","coordinates":[42.14514,42.29458]}},{"type":"feature","properties":{"country_en":"Georgia","name":"Tekali","name_adm0":"Georgia","name_adm1":"Lentekhis Raioni","name_en":"Tekali"},"geometry":{"type":"Point","coordinates":[42.86610999999999,42.83472]}},{"type":"feature","properties":{"country_en":"Georgia","name":"Gumista","name_adm0":"Georgia","name_adm1":"Abkhazia","name_en":"Gumista"},"geometry":{"type":"Point","coordinates":[40.97389,43.02694]}},{"type":"feature","properties":{"country_en":"Georgia","name":"Iskari","name_adm0":"Georgia","name_adm1":"Mestiis Raioni","name_en":"Iskari"},"geometry":{"type":"Point","coordinates":[42.521,43.04319]}},{"type":"feature","properties":{"country_en":"Georgia","name":"Kachagani","name_adm0":"Georgia","name_adm1":"Sighnaghis Raioni","name_en":"Kachagani"},"geometry":{"type":"Point","coordinates":[44.93107,41.33396]}},{"type":"feature","properties":{"country_en":"Georgia","name":"Vakhani","name_adm0":"Georgia","name_adm1":"Kharagaulis Raioni","name_en":"Vakhani"},"geometry":{"type":"Point","coordinates":[43.31935,41.94581]}},{"type":"feature","properties":{"country_en":"Georgia","name":"Vakiri","name_adm0":"Georgia","name_adm1":"Marneulis Raioni","name_en":"Vakiri"},"geometry":{"type":"Point","coordinates":[45.91743,41.64677]}},{"type":"feature","properties":{"country_en":"Georgia","name":"Vanta","name_adm0":"Georgia","name_adm1":"Gurjaanis Raioni","name_en":"Vanta"},"geometry":{"type":"Point","coordinates":[45.61295,41.87287]}},{"type":"feature","properties":{"country_en":"Georgia","name":"T´erjolis Raioni","name_adm0":"Georgia","name_adm1":"T´erjolis Raioni","name_en":"T´erjolis Raioni"},"geometry":{"type":"Point","coordinates":[42.75878899999999,42.244785]}},{"type":"feature","properties":{"country_en":"Georgia","name":"Akhalkakhat'i","name_adm0":"Georgia","name_adm1":"Zugdidis Raioni","name_en":"Akhalkakhat'i"},"geometry":{"type":"Point","coordinates":[41.72878,42.45595999999999]}},{"type":"feature","properties":{"country_en":"Georgia","name":"Chotori","name_adm0":"Georgia","name_adm1":"Marneulis Raioni","name_en":"Chotori"},"geometry":{"type":"Point","coordinates":[45.86371,41.603289999999994]}},{"type":"feature","properties":{"country_en":"Georgia","name":"Chrebalo","name_adm0":"Georgia","name_adm1":"Ambrolauris Raioni","name_en":"Chrebalo"},"geometry":{"type":"Point","coordinates":[42.965,42.56328]}},{"type":"feature","properties":{"country_en":"Georgia","name":"Chuneshi","name_adm0":"Georgia","name_adm1":"Tsqaltubo","name_en":"Chuneshi"},"geometry":{"type":"Point","coordinates":[42.56931,42.35167]}},{"type":"feature","properties":{"country_en":"Georgia","name":"Chitakhevi","name_adm0":"Georgia","name_adm1":"Akhalts´ikhis Raioni","name_en":"Chitakhevi"},"geometry":{"type":"Point","coordinates":[43.30259,41.791709999999995]}},{"type":"feature","properties":{"country_en":"Georgia","name":"Bazaleti","name_adm0":"Georgia","name_adm1":"Dushet´is Raioni","name_en":"Bazaleti"},"geometry":{"type":"Point","coordinates":[44.64819,42.07125]}},{"type":"feature","properties":{"country_en":"Georgia","name":"Borbalo","name_adm0":"Georgia","name_adm1":"T´et´ritsqaros Raioni","name_en":"Borbalo"},"geometry":{"type":"Point","coordinates":[44.73111,41.60361]}},{"type":"feature","properties":{"country_en":"Georgia","name":"Marelisi","name_adm0":"Georgia","name_adm1":"Kharagaulis Raioni","name_en":"Marelisi"},"geometry":{"type":"Point","coordinates":[43.27927,41.96113]}},{"type":"feature","properties":{"country_en":"Georgia","name":"Mugudzirkhva","name_adm0":"Georgia","name_adm1":"Abkhazia","name_en":"Mugudzirkhva"},"geometry":{"type":"Point","coordinates":[40.51295,43.15338]}},{"type":"feature","properties":{"country_en":"Georgia","name":"Natakhtari","name_adm0":"Georgia","name_adm1":"Mts´khet´is Raioni","name_en":"Natakhtari"},"geometry":{"type":"Point","coordinates":[44.729169999999996,41.91889]}},{"type":"feature","properties":{"country_en":"Georgia","name":"Opurchkheti","name_adm0":"Georgia","name_adm1":"Tsqaltubo","name_en":"Opurchkheti"},"geometry":{"type":"Point","coordinates":[42.70582,42.35195]}},{"type":"feature","properties":{"country_en":"Georgia","name":"Marneuli","name_adm0":"Georgia","name_adm1":"Sighnaghis Raioni","name_en":"Marneuli"},"geometry":{"type":"Point","coordinates":[44.80894,41.47587999999999]}},{"type":"feature","properties":{"country_en":"Georgia","name":"Sveri","name_adm0":"Georgia","name_adm1":"Chiat´ura","name_en":"Sveri"},"geometry":{"type":"Point","coordinates":[43.30638,42.22472]}},{"type":"feature","properties":{"country_en":"Georgia","name":"Tirdznisi","name_adm0":"Georgia","name_adm1":"Goris Raioni","name_en":"Tirdznisi"},"geometry":{"type":"Point","coordinates":[44.04333,42.17778]}},{"type":"feature","properties":{"country_en":"Georgia","name":"Chalaubani","name_adm0":"Georgia","name_adm1":"Marneulis Raioni","name_en":"Chalaubani"},"geometry":{"type":"Point","coordinates":[45.81721999999999,41.635]}},{"type":"feature","properties":{"country_en":"Georgia","name":"Mashavera","name_adm0":"Georgia","name_adm1":"Dmanisis Raioni","name_en":"Mashavera"},"geometry":{"type":"Point","coordinates":[44.3652,41.34971999999999]}},{"type":"feature","properties":{"country_en":"Georgia","name":"Melaani","name_adm0":"Georgia","name_adm1":"Marneulis Raioni","name_en":"Melaani"},"geometry":{"type":"Point","coordinates":[45.78583,41.64860999999999]}},{"type":"feature","properties":{"country_en":"Georgia","name":"Mereti","name_adm0":"Georgia","name_adm1":"Goris Raioni","name_en":"Mereti"},"geometry":{"type":"Point","coordinates":[44.07861,42.22333]}},{"type":"feature","properties":{"country_en":"Georgia","name":"Tsvirmi","name_adm0":"Georgia","name_adm1":"Mestiis Raioni","name_en":"Tsvirmi"},"geometry":{"type":"Point","coordinates":[42.806619999999995,43.0148]}},{"type":"feature","properties":{"country_en":"Georgia","name":"Vale","name_adm0":"Georgia","name_adm1":"Akhalts´ikhis Raioni","name_en":"Vale"},"geometry":{"type":"Point","coordinates":[42.87224,41.61558]}},{"type":"feature","properties":{"country_en":"Georgia","name":"Khashuris Raioni","name_adm0":"Georgia","name_adm1":"Khashuris Raioni","name_en":"Khashuris Raioni"},"geometry":{"type":"Point","coordinates":[43.500366,42.038074]}},{"type":"feature","properties":{"country_en":"Georgia","name":"Gurjaanis Raioni","name_adm0":"Georgia","name_adm1":"Gurjaanis Raioni","name_en":"Gurjaanis Raioni"},"geometry":{"type":"Point","coordinates":[45.886802,41.624168]}},{"type":"feature","properties":{"country_en":"Georgia","name":"Dedop´listsqaros Raioni","name_adm0":"Georgia","name_adm1":"Dedop´listsqaros Raioni","name_en":"Dedop´listsqaros Raioni"},"geometry":{"type":"Point","coordinates":[46.354064,41.200356]}},{"type":"feature","properties":{"country_en":"Georgia","name":"K´arelis Raioni","name_adm0":"Georgia","name_adm1":"K´arelis Raioni","name_en":"K´arelis Raioni"},"geometry":{"type":"Point","coordinates":[43.828125,42.147114]}},{"type":"feature","properties":{"country_en":"Georgia","name":"Marneulis Raioni","name_adm0":"Georgia","name_adm1":"Marneulis Raioni","name_en":"Marneulis Raioni"},"geometry":{"type":"Point","coordinates":[45.7147975,41.47418]}},{"type":"feature","properties":{"country_en":"Georgia","name":"Akhmetis Raioni","name_adm0":"Georgia","name_adm1":"Akhmetis Raioni","name_en":"Akhmetis Raioni"},"geometry":{"type":"Point","coordinates":[45.5827635,42.441700999999995]}},{"type":"feature","properties":{"country_en":"Georgia","name":"T´elavis Raioni","name_adm0":"Georgia","name_adm1":"T´elavis Raioni","name_en":"T´elavis Raioni"},"geometry":{"type":"Point","coordinates":[45.499616,42.275397]}},{"type":"feature","properties":{"country_en":"Georgia","name":"Goris Raioni","name_adm0":"Georgia","name_adm1":"Goris Raioni","name_en":"Goris Raioni"},"geometry":{"type":"Point","coordinates":[44.066162,42.16666]}},{"type":"feature","properties":{"country_en":"Georgia","name":"Chikhareshi","name_adm0":"Georgia","name_adm1":"Lentekhis Raioni","name_en":"Chikhareshi"},"geometry":{"type":"Point","coordinates":[43.04186,42.78820999999999]}},{"type":"feature","properties":{"country_en":"Georgia","name":"Chiora","name_adm0":"Georgia","name_adm1":"Onis Raioni","name_en":"Chiora"},"geometry":{"type":"Point","coordinates":[43.55403,42.74374]}},{"type":"feature","properties":{"country_en":"Georgia","name":"Dacha","name_adm0":"Georgia","name_adm1":"Abkhazia","name_en":"Dacha"},"geometry":{"type":"Point","coordinates":[41.2093,42.83166]}},{"type":"feature","properties":{"country_en":"Georgia","name":"Okureshi","name_adm0":"Georgia","name_adm1":"Khonis Raioni","name_en":"Okureshi"},"geometry":{"type":"Point","coordinates":[42.68479,42.54355]}},{"type":"feature","properties":{"country_en":"Georgia","name":"Skra","name_adm0":"Georgia","name_adm1":"Goris Raioni","name_en":"Skra"},"geometry":{"type":"Point","coordinates":[44.01361,41.9944]}},{"type":"feature","properties":{"country_en":"Georgia","name":"Borjomis Raioni","name_adm0":"Georgia","name_adm1":"Borjomis Raioni","name_en":"Borjomis Raioni"},"geometry":{"type":"Point","coordinates":[43.945311999999994,41.574361]}},{"type":"feature","properties":{"country_en":"Georgia","name":"Tqibuli","name_adm0":"Georgia","name_adm1":"Tqibuli","name_en":"Tqibuli"},"geometry":{"type":"Point","coordinates":[43.042716,42.427511]}},{"type":"feature","properties":{"country_en":"Georgia","name":"Abast'umani","name_adm0":"Georgia","name_adm1":"Khobis Raioni","name_en":"Abast'umani"},"geometry":{"type":"Point","coordinates":[41.87181999999999,42.40197]}},{"type":"feature","properties":{"country_en":"Georgia","name":"Abgharkhuk'i","name_adm0":"Georgia","name_adm1":"Abkhazia","name_en":"Abgharkhuk'i"},"geometry":{"type":"Point","coordinates":[40.70453,43.115649999999995]}},{"type":"feature","properties":{"country_en":"Georgia","name":"Abisi","name_adm0":"Georgia","name_adm1":"Khashuris Raioni","name_en":"Abisi"},"geometry":{"type":"Point","coordinates":[43.76243,42.09622]}},{"type":"feature","properties":{"country_en":"Georgia","name":"Abrevi","name_adm0":"Georgia","name_adm1":"Kaspis Raioni","name_en":"Abrevi"},"geometry":{"type":"Point","coordinates":[44.3575,42.05695]}},{"type":"feature","properties":{"country_en":"Georgia","name":"Adadzeyebi","name_adm0":"Georgia","name_adm1":"Ajaria","name_en":"Adadzeyebi"},"geometry":{"type":"Point","coordinates":[42.37623,41.71318]}},{"type":"feature","properties":{"country_en":"Georgia","name":"Adzharisagmarti","name_adm0":"Georgia","name_adm1":"Ajaria","name_en":"Adzharisagmarti"},"geometry":{"type":"Point","coordinates":[41.79611,41.51889]}},{"type":"feature","properties":{"country_en":"Georgia","name":"Adzhimchigra","name_adm0":"Georgia","name_adm1":"Abkhazia","name_en":"Adzhimchigra"},"geometry":{"type":"Point","coordinates":[40.61411999999999,43.17904]}},{"type":"feature","properties":{"country_en":"Georgia","name":"Akhalbediseuli","name_adm0":"Georgia","name_adm1":"Khonis Raioni","name_en":"Akhalbediseuli"},"geometry":{"type":"Point","coordinates":[42.52667,42.37778]}},{"type":"feature","properties":{"country_en":"Georgia","name":"Akhali Samgori","name_adm0":"Georgia","name_adm1":"Gardabanis Raioni","name_en":"Akhali Samgori"},"geometry":{"type":"Point","coordinates":[45.06861,41.574999999999996]}},{"type":"feature","properties":{"country_en":"Georgia","name":"Akhasheni","name_adm0":"Georgia","name_adm1":"Gurjaanis Raioni","name_en":"Akhasheni"},"geometry":{"type":"Point","coordinates":[45.74291999999999,41.79111]}},{"type":"feature","properties":{"country_en":"Georgia","name":"Alastani","name_adm0":"Georgia","name_adm1":"Akhalk´alak´is Raioni","name_en":"Alastani"},"geometry":{"type":"Point","coordinates":[43.39871,41.54604]}},{"type":"feature","properties":{"country_en":"Georgia","name":"Algeti","name_adm0":"Georgia","name_adm1":"Sighnaghis Raioni","name_en":"Algeti"},"geometry":{"type":"Point","coordinates":[44.89517,41.448]}},{"type":"feature","properties":{"country_en":"Georgia","name":"Alioni","name_adm0":"Georgia","name_adm1":"Khobis Raioni","name_en":"Alioni"},"geometry":{"type":"Point","coordinates":[41.94680999999999,42.28694]}},{"type":"feature","properties":{"country_en":"Georgia","name":"Almati","name_adm0":"Georgia","name_adm1":"Qvarlis Raioni","name_en":"Almati"},"geometry":{"type":"Point","coordinates":[45.68082999999999,42.02972]}},{"type":"feature","properties":{"country_en":"Georgia","name":"Alpana","name_adm0":"Georgia","name_adm1":"Tsqaltubo","name_en":"Alpana"},"geometry":{"type":"Point","coordinates":[42.830059999999996,42.56294]}},{"type":"feature","properties":{"country_en":"Georgia","name":"Amagleba","name_adm0":"Georgia","name_adm1":"Vanis Raioni","name_en":"Amagleba"},"geometry":{"type":"Point","coordinates":[42.63999999999999,42.08164]}},{"type":"feature","properties":{"country_en":"Georgia","name":"Amtqeli","name_adm0":"Georgia","name_adm1":"Abkhazia","name_en":"Amtqeli"},"geometry":{"type":"Point","coordinates":[41.32499,43.03705]}},{"type":"feature","properties":{"country_en":"Georgia","name":"Anaga","name_adm0":"Georgia","name_adm1":"Marneulis Raioni","name_en":"Anaga"},"geometry":{"type":"Point","coordinates":[45.89639,41.66541999999999]}},{"type":"feature","properties":{"country_en":"Georgia","name":"Arpalo","name_adm0":"Georgia","name_adm1":"Sighnaghis Raioni","name_en":"Arpalo"},"geometry":{"type":"Point","coordinates":[44.85134999999999,41.35789]}},{"type":"feature","properties":{"country_en":"Georgia","name":"Atsana","name_adm0":"Georgia","name_adm1":"Lanch´khut´is Raioni","name_en":"Atsana"},"geometry":{"type":"Point","coordinates":[42.07618,42.05437]}},{"type":"feature","properties":{"country_en":"Georgia","name":"Avlevi","name_adm0":"Georgia","name_adm1":"K´arelis Raioni","name_en":"Avlevi"},"geometry":{"type":"Point","coordinates":[43.7775,42.13583]}},{"type":"feature","properties":{"country_en":"Georgia","name":"Avnevi","name_adm0":"Georgia","name_adm1":"Goris Raioni","name_en":"Avnevi"},"geometry":{"type":"Point","coordinates":[43.87778,42.19264]}},{"type":"feature","properties":{"country_en":"Georgia","name":"Azavreti","name_adm0":"Georgia","name_adm1":"Akhalk´alak´is Raioni","name_en":"Azavreti"},"geometry":{"type":"Point","coordinates":[43.45403,41.586569999999995]}},{"type":"feature","properties":{"country_en":"Georgia","name":"Bagmarani","name_adm0":"Georgia","name_adm1":"Abkhazia","name_en":"Bagmarani"},"geometry":{"type":"Point","coordinates":[41.15401,43.025279999999995]}},{"type":"feature","properties":{"country_en":"Georgia","name":"Baisubani","name_adm0":"Georgia","name_adm1":"Lagodekhis Raioni","name_en":"Baisubani"},"geometry":{"type":"Point","coordinates":[46.169309999999996,41.83125]}},{"type":"feature","properties":{"country_en":"Georgia","name":"Bakurianskiy Andezit","name_adm0":"Georgia","name_adm1":"Borjomis Raioni","name_en":"Bakurianskiy Andezit"},"geometry":{"type":"Point","coordinates":[43.47518,41.73424]}},{"type":"feature","properties":{"country_en":"Georgia","name":"Beslakhuba","name_adm0":"Georgia","name_adm1":"Abkhazia","name_en":"Beslakhuba"},"geometry":{"type":"Point","coordinates":[41.51444,42.7575]}},{"type":"feature","properties":{"country_en":"Georgia","name":"Bobokvati","name_adm0":"Georgia","name_adm1":"Ajaria","name_en":"Bobokvati"},"geometry":{"type":"Point","coordinates":[41.79361,41.77277999999999]}},{"type":"feature","properties":{"country_en":"Georgia","name":"Bochorma","name_adm0":"Georgia","name_adm1":"T´ianet´is Raioni","name_en":"Bochorma"},"geometry":{"type":"Point","coordinates":[45.12005,41.91528]}},{"type":"feature","properties":{"country_en":"Georgia","name":"Ch'och'khat'i","name_adm0":"Georgia","name_adm1":"Lanch´khut´is Raioni","name_en":"Ch'och'khat'i"},"geometry":{"type":"Point","coordinates":[41.889709999999994,42.029819999999994]}},{"type":"feature","properties":{"country_en":"Georgia","name":"Chabukiani","name_adm0":"Georgia","name_adm1":"Lagodekhis Raioni","name_en":"Chabukiani"},"geometry":{"type":"Point","coordinates":[45.99859,41.80268]}},{"type":"feature","properties":{"country_en":"Georgia","name":"Chaisubani","name_adm0":"Georgia","name_adm1":"Ch´okhatauris Raioni","name_en":"Chaisubani"},"geometry":{"type":"Point","coordinates":[41.76361,41.70278]}},{"type":"feature","properties":{"country_en":"Georgia","name":"Chale","name_adm0":"Georgia","name_adm1":"Abkhazia","name_en":"Chale"},"geometry":{"type":"Point","coordinates":[41.35,43.05]}},{"type":"feature","properties":{"country_en":"Georgia","name":"Chandari","name_adm0":"Georgia","name_adm1":"Marneulis Raioni","name_en":"Chandari"},"geometry":{"type":"Point","coordinates":[45.8175,41.72361]}},{"type":"feature","properties":{"country_en":"Georgia","name":"Chit'atsqari","name_adm0":"Georgia","name_adm1":"Zugdidis Raioni","name_en":"Chit'atsqari"},"geometry":{"type":"Point","coordinates":[41.85240999999999,42.47871]}},{"type":"feature","properties":{"country_en":"Georgia","name":"Chkhalta","name_adm0":"Georgia","name_adm1":"Abkhazia","name_en":"Chkhalta"},"geometry":{"type":"Point","coordinates":[41.67425999999999,43.09432]}},{"type":"feature","properties":{"country_en":"Georgia","name":"Chkhenishi","name_adm0":"Georgia","name_adm1":"Abashis Raioni","name_en":"Chkhenishi"},"geometry":{"type":"Point","coordinates":[42.31625,42.22916]}},{"type":"feature","properties":{"country_en":"Georgia","name":"Chokhatauri","name_adm0":"Georgia","name_adm1":"Ch´okhatauris Raioni","name_en":"Chokhatauri"},"geometry":{"type":"Point","coordinates":[42.25917,42.0185]}},{"type":"feature","properties":{"country_en":"Georgia","name":"Chvana","name_adm0":"Georgia","name_adm1":"Ajaria","name_en":"Chvana"},"geometry":{"type":"Point","coordinates":[42.15405,41.67341]}},{"type":"feature","properties":{"country_en":"Georgia","name":"Dadeshi","name_adm0":"Georgia","name_adm1":"Akhalk´alak´is Raioni","name_en":"Dadeshi"},"geometry":{"type":"Point","coordinates":[43.42303999999999,41.28284]}},{"type":"feature","properties":{"country_en":"Georgia","name":"Damala","name_adm0":"Georgia","name_adm1":"Aspindzis Raioni","name_en":"Damala"},"geometry":{"type":"Point","coordinates":[43.29444,41.58121]}},{"type":"feature","properties":{"country_en":"Georgia","name":"Darch'eli","name_adm0":"Georgia","name_adm1":"Zugdidis Raioni","name_en":"Darch'eli"},"geometry":{"type":"Point","coordinates":[41.70851,42.4356]}},{"type":"feature","properties":{"country_en":"Georgia","name":"Dedalauri","name_adm0":"Georgia","name_adm1":"Tsqaltubo","name_en":"Dedalauri"},"geometry":{"type":"Point","coordinates":[42.51799,42.35363]}},{"type":"feature","properties":{"country_en":"Georgia","name":"Dertseli","name_adm0":"Georgia","name_adm1":"Adigenis Raioni","name_en":"Dertseli"},"geometry":{"type":"Point","coordinates":[42.58361,41.74762]}},{"type":"feature","properties":{"country_en":"Georgia","name":"Dirbi","name_adm0":"Georgia","name_adm1":"K´arelis Raioni","name_en":"Dirbi"},"geometry":{"type":"Point","coordinates":[43.8746,42.11378]}},{"type":"feature","properties":{"country_en":"Georgia","name":"Gantiadi","name_adm0":"Georgia","name_adm1":"Dmanisis Raioni","name_en":"Gantiadi"},"geometry":{"type":"Point","coordinates":[44.25678,41.34100999999999]}},{"type":"feature","properties":{"country_en":"Georgia","name":"Gargadzeyebi","name_adm0":"Georgia","name_adm1":"Ajaria","name_en":"Gargadzeyebi"},"geometry":{"type":"Point","coordinates":[41.77427,41.71242999999999]}},{"type":"feature","properties":{"country_en":"Georgia","name":"Gavazi","name_adm0":"Georgia","name_adm1":"Qvarlis Raioni","name_en":"Gavazi"},"geometry":{"type":"Point","coordinates":[45.86736,41.85278]}},{"type":"feature","properties":{"country_en":"Georgia","name":"Gormagali","name_adm0":"Georgia","name_adm1":"Abashis Raioni","name_en":"Gormagali"},"geometry":{"type":"Point","coordinates":[42.31908,42.05116]}},{"type":"feature","properties":{"country_en":"Georgia","name":"Grigolishi","name_adm0":"Georgia","name_adm1":"Zugdidis Raioni","name_en":"Grigolishi"},"geometry":{"type":"Point","coordinates":[41.97282,42.53527]}},{"type":"feature","properties":{"country_en":"Georgia","name":"Gumbra","name_adm0":"Georgia","name_adm1":"Tsqaltubo","name_en":"Gumbra"},"geometry":{"type":"Point","coordinates":[42.63902,42.30403]}},{"type":"feature","properties":{"country_en":"Georgia","name":"Gup","name_adm0":"Georgia","name_adm1":"Abkhazia","name_en":"Gup"},"geometry":{"type":"Point","coordinates":[41.59639,42.84639]}},{"type":"feature","properties":{"country_en":"Georgia","name":"Gup-Agu","name_adm0":"Georgia","name_adm1":"Abkhazia","name_en":"Gup-Agu"},"geometry":{"type":"Point","coordinates":[41.59444,42.89139]}},{"type":"feature","properties":{"country_en":"Georgia","name":"Guristke","name_adm0":"Georgia","name_adm1":"Ch´okhatauris Raioni","name_en":"Guristke"},"geometry":{"type":"Point","coordinates":[42.36932,41.9938]}},{"type":"feature","properties":{"country_en":"Georgia","name":"Gurna","name_adm0":"Georgia","name_adm1":"Tqibuli","name_en":"Gurna"},"geometry":{"type":"Point","coordinates":[42.86222,42.4075]}},{"type":"feature","properties":{"country_en":"Georgia","name":"Iri","name_adm0":"Georgia","name_adm1":"Onis Raioni","name_en":"Iri"},"geometry":{"type":"Point","coordinates":[43.54704,42.51589]}},{"type":"feature","properties":{"country_en":"Georgia","name":"Irtavaza","name_adm0":"Georgia","name_adm1":"Sach´kheris Raioni","name_en":"Irtavaza"},"geometry":{"type":"Point","coordinates":[43.4815,42.29]}},{"type":"feature","properties":{"country_en":"Georgia","name":"Ivandidi","name_adm0":"Georgia","name_adm1":"Khonis Raioni","name_en":"Ivandidi"},"geometry":{"type":"Point","coordinates":[42.42347,42.30611]}},{"type":"feature","properties":{"country_en":"Georgia","name":"Khabume","name_adm0":"Georgia","name_adm1":"Ch´khorotsqus Raioni","name_en":"Khabume"},"geometry":{"type":"Point","coordinates":[42.15924,42.56924999999999]}},{"type":"feature","properties":{"country_en":"Georgia","name":"Khando","name_adm0":"Georgia","name_adm1":"Akhalk´alak´is Raioni","name_en":"Khando"},"geometry":{"type":"Point","coordinates":[43.40343,41.49149]}},{"type":"feature","properties":{"country_en":"Georgia","name":"Khutsubani","name_adm0":"Georgia","name_adm1":"Ajaria","name_en":"Khutsubani"},"geometry":{"type":"Point","coordinates":[41.83194,41.80361]}},{"type":"feature","properties":{"country_en":"Georgia","name":"Khvanchkara","name_adm0":"Georgia","name_adm1":"Ambrolauris Raioni","name_en":"Khvanchkara"},"geometry":{"type":"Point","coordinates":[43.023329999999994,42.55917]}},{"type":"feature","properties":{"country_en":"Georgia","name":"Kinchkha","name_adm0":"Georgia","name_adm1":"Khonis Raioni","name_en":"Kinchkha"},"geometry":{"type":"Point","coordinates":[42.56651,42.49471]}},{"type":"feature","properties":{"country_en":"Georgia","name":"Korbouli","name_adm0":"Georgia","name_adm1":"Kharagaulis Raioni","name_en":"Korbouli"},"geometry":{"type":"Point","coordinates":[43.48333,42.24264]}},{"type":"feature","properties":{"country_en":"Georgia","name":"Korinta","name_adm0":"Georgia","name_adm1":"Akhalgoris Raioni","name_en":"Korinta"},"geometry":{"type":"Point","coordinates":[44.48583,42.18097]}},{"type":"feature","properties":{"country_en":"Georgia","name":"Korkhi","name_adm0":"Georgia","name_adm1":"Akhalk´alak´is Raioni","name_en":"Korkhi"},"geometry":{"type":"Point","coordinates":[43.46795,41.46118]}},{"type":"feature","properties":{"country_en":"Georgia","name":"Korts'kheli","name_adm0":"Georgia","name_adm1":"Zugdidis Raioni","name_en":"Korts'kheli"},"geometry":{"type":"Point","coordinates":[41.9351,42.56183]}},{"type":"feature","properties":{"country_en":"Georgia","name":"Kotianeti","name_adm0":"Georgia","name_adm1":"Senakis Raioni","name_en":"Kotianeti"},"geometry":{"type":"Point","coordinates":[42.21278,42.320829999999994]}},{"type":"feature","properties":{"country_en":"Georgia","name":"Kvemo-Azhara","name_adm0":"Georgia","name_adm1":"Abkhazia","name_en":"Kvemo-Azhara"},"geometry":{"type":"Point","coordinates":[41.71288,43.10467]}},{"type":"feature","properties":{"country_en":"Georgia","name":"Kvemo-Bari","name_adm0":"Georgia","name_adm1":"Ambrolauris Raioni","name_en":"Kvemo-Bari"},"geometry":{"type":"Point","coordinates":[43.29893,42.52559]}},{"type":"feature","properties":{"country_en":"Georgia","name":"Kvemo-Boshuri","name_adm0":"Georgia","name_adm1":"Goris Raioni","name_en":"Kvemo-Boshuri"},"geometry":{"type":"Point","coordinates":[43.93425,41.86274]}},{"type":"feature","properties":{"country_en":"Georgia","name":"Kvemo-Chala","name_adm0":"Georgia","name_adm1":"Kaspis Raioni","name_en":"Kvemo-Chala"},"geometry":{"type":"Point","coordinates":[44.394709999999996,42.02548999999999]}},{"type":"feature","properties":{"country_en":"Georgia","name":"Kvemo-Kheti","name_adm0":"Georgia","name_adm1":"Samtrediis Raioni","name_en":"Kvemo-Kheti"},"geometry":{"type":"Point","coordinates":[42.35278,42.0425]}},{"type":"feature","properties":{"country_en":"Georgia","name":"Kvemo-Khuntsi","name_adm0":"Georgia","name_adm1":"Khonis Raioni","name_en":"Kvemo-Khuntsi"},"geometry":{"type":"Point","coordinates":[42.40376,42.39087]}},{"type":"feature","properties":{"country_en":"Georgia","name":"Kvemo-Orozmani","name_adm0":"Georgia","name_adm1":"Dmanisis Raioni","name_en":"Kvemo-Orozmani"},"geometry":{"type":"Point","coordinates":[44.19892999999999,41.30541]}},{"type":"feature","properties":{"country_en":"Georgia","name":"Kviani","name_adm0":"Georgia","name_adm1":"Lanch´khut´is Raioni","name_en":"Kviani"},"geometry":{"type":"Point","coordinates":[42.17464999999999,42.09207]}},{"type":"feature","properties":{"country_en":"Georgia","name":"Labra","name_adm0":"Georgia","name_adm1":"Abkhazia","name_en":"Labra"},"geometry":{"type":"Point","coordinates":[41.3928,42.80257]}},{"type":"feature","properties":{"country_en":"Georgia","name":"Lashe","name_adm0":"Georgia","name_adm1":"Kharagaulis Raioni","name_en":"Lashe"},"geometry":{"type":"Point","coordinates":[43.19361,42.06722]}},{"type":"feature","properties":{"country_en":"Georgia","name":"Lat'a","name_adm0":"Georgia","name_adm1":"Abkhazia","name_en":"Lat'a"},"geometry":{"type":"Point","coordinates":[41.47249,43.03584]}},{"type":"feature","properties":{"country_en":"Georgia","name":"Marani","name_adm0":"Georgia","name_adm1":"Abashis Raioni","name_en":"Marani"},"geometry":{"type":"Point","coordinates":[42.28529999999999,42.16115]}},{"type":"feature","properties":{"country_en":"Georgia","name":"Mardzhvena-Gentsvishi","name_adm0":"Georgia","name_adm1":"Abkhazia","name_en":"Mardzhvena-Gentsvishi"},"geometry":{"type":"Point","coordinates":[41.8024,43.10401]}},{"type":"feature","properties":{"country_en":"Georgia","name":"Mekvena","name_adm0":"Georgia","name_adm1":"Tsqaltubo","name_en":"Mekvena"},"geometry":{"type":"Point","coordinates":[42.75558999999999,42.47878999999999]}},{"type":"feature","properties":{"country_en":"Georgia","name":"Melauri","name_adm0":"Georgia","name_adm1":"Samtrediis Raioni","name_en":"Melauri"},"geometry":{"type":"Point","coordinates":[42.35083,42.16972]}},{"type":"feature","properties":{"country_en":"Georgia","name":"Meore Gudava","name_adm0":"Georgia","name_adm1":"Abkhazia","name_en":"Meore Gudava"},"geometry":{"type":"Point","coordinates":[41.54282,42.64946]}},{"type":"feature","properties":{"country_en":"Georgia","name":"Meore-Ontopo","name_adm0":"Georgia","name_adm1":"Abashis Raioni","name_en":"Meore-Ontopo"},"geometry":{"type":"Point","coordinates":[42.26861,42.22624]}},{"type":"feature","properties":{"country_en":"Georgia","name":"Meria","name_adm0":"Georgia","name_adm1":"Ozurget´is Raioni","name_en":"Meria"},"geometry":{"type":"Point","coordinates":[41.88315,41.94226]}},{"type":"feature","properties":{"country_en":"Georgia","name":"Mtisdziri","name_adm0":"Georgia","name_adm1":"Dmanisis Raioni","name_en":"Mtisdziri"},"geometry":{"type":"Point","coordinates":[44.16898,41.2866]}},{"type":"feature","properties":{"country_en":"Georgia","name":"Mtispiri","name_adm0":"Georgia","name_adm1":"Ozurget´is Raioni","name_en":"Mtispiri"},"geometry":{"type":"Point","coordinates":[42.16918,41.94063]}},{"type":"feature","properties":{"country_en":"Georgia","name":"Mugareti","name_adm0":"Georgia","name_adm1":"Akhalts´ikhis Raioni","name_en":"Mugareti"},"geometry":{"type":"Point","coordinates":[43.08421,41.69886999999999]}},{"type":"feature","properties":{"country_en":"Georgia","name":"Narazeni","name_adm0":"Georgia","name_adm1":"Zugdidis Raioni","name_en":"Narazeni"},"geometry":{"type":"Point","coordinates":[41.91083,42.37194]}},{"type":"feature","properties":{"country_en":"Georgia","name":"Nayesakao","name_adm0":"Georgia","name_adm1":"Abashis Raioni","name_en":"Nayesakao"},"geometry":{"type":"Point","coordinates":[42.20003,42.17491]}},{"type":"feature","properties":{"country_en":"Georgia","name":"Nigozeti","name_adm0":"Georgia","name_adm1":"Chiat´ura","name_en":"Nigozeti"},"geometry":{"type":"Point","coordinates":[43.33819,42.22375]}},{"type":"feature","properties":{"country_en":"Georgia","name":"Ninigori","name_adm0":"Georgia","name_adm1":"Lagodekhis Raioni","name_en":"Ninigori"},"geometry":{"type":"Point","coordinates":[46.21111,41.83709]}},{"type":"feature","properties":{"country_en":"Georgia","name":"Ninoshvili","name_adm0":"Georgia","name_adm1":"Lanch´khut´is Raioni","name_en":"Ninoshvili"},"geometry":{"type":"Point","coordinates":[41.942519999999995,42.03459]}},{"type":"feature","properties":{"country_en":"Georgia","name":"Nojikhevi","name_adm0":"Georgia","name_adm1":"Khobis Raioni","name_en":"Nojikhevi"},"geometry":{"type":"Point","coordinates":[41.9292,42.29472]}},{"type":"feature","properties":{"country_en":"Georgia","name":"Odishi","name_adm0":"Georgia","name_adm1":"Zugdidis Raioni","name_en":"Odishi"},"geometry":{"type":"Point","coordinates":[41.92691,42.5266]}},{"type":"feature","properties":{"country_en":"Georgia","name":"Oladauri","name_adm0":"Georgia","name_adm1":"Ajaria","name_en":"Oladauri"},"geometry":{"type":"Point","coordinates":[42.29139,41.56167]}},{"type":"feature","properties":{"country_en":"Georgia","name":"Onogia","name_adm0":"Georgia","name_adm1":"Senakis Raioni","name_en":"Onogia"},"geometry":{"type":"Point","coordinates":[42.30819,42.323339999999995]}},{"type":"feature","properties":{"country_en":"Georgia","name":"Opshkviti","name_adm0":"Georgia","name_adm1":"Tsqaltubo","name_en":"Opshkviti"},"geometry":{"type":"Point","coordinates":[42.61359,42.14833]}},{"type":"feature","properties":{"country_en":"Georgia","name":"Orsantia","name_adm0":"Georgia","name_adm1":"Zugdidis Raioni","name_en":"Orsantia"},"geometry":{"type":"Point","coordinates":[41.67294,42.48177999999999]}},{"type":"feature","properties":{"country_en":"Georgia","name":"Pirveli-Gurdzemi","name_adm0":"Georgia","name_adm1":"Senakis Raioni","name_en":"Pirveli-Gurdzemi"},"geometry":{"type":"Point","coordinates":[42.26764,42.47422]}},{"type":"feature","properties":{"country_en":"Georgia","name":"Plavi","name_adm0":"Georgia","name_adm1":"Goris Raioni","name_en":"Plavi"},"geometry":{"type":"Point","coordinates":[44.11333,42.16972]}},{"type":"feature","properties":{"country_en":"Georgia","name":"Pskhu","name_adm0":"Georgia","name_adm1":"Abkhazia","name_en":"Pskhu"},"geometry":{"type":"Point","coordinates":[40.81472,43.39305999999999]}},{"type":"feature","properties":{"country_en":"Georgia","name":"Ptsa","name_adm0":"Georgia","name_adm1":"Khashuris Raioni","name_en":"Ptsa"},"geometry":{"type":"Point","coordinates":[43.89417,42.35721999999999]}},{"type":"feature","properties":{"country_en":"Georgia","name":"Qulishkari","name_adm0":"Georgia","name_adm1":"Zugdidis Raioni","name_en":"Qulishkari"},"geometry":{"type":"Point","coordinates":[41.94609,42.51389]}},{"type":"feature","properties":{"country_en":"Georgia","name":"Rgani","name_adm0":"Georgia","name_adm1":"Chiat´ura","name_en":"Rgani"},"geometry":{"type":"Point","coordinates":[43.23361,42.31674]}},{"type":"feature","properties":{"country_en":"Georgia","name":"Riqe","name_adm0":"Georgia","name_adm1":"Zugdidis Raioni","name_en":"Riqe"},"geometry":{"type":"Point","coordinates":[41.90305,42.58973]}},{"type":"feature","properties":{"country_en":"Georgia","name":"Sakao","name_adm0":"Georgia","name_adm1":"Onis Raioni","name_en":"Sakao"},"geometry":{"type":"Point","coordinates":[43.450849999999996,42.63586]}},{"type":"feature","properties":{"country_en":"Georgia","name":"Sakire","name_adm0":"Georgia","name_adm1":"Dmanisis Raioni","name_en":"Sakire"},"geometry":{"type":"Point","coordinates":[44.27487,41.26331]}},{"type":"feature","properties":{"country_en":"Georgia","name":"Sakulia","name_adm0":"Georgia","name_adm1":"Samtrediis Raioni","name_en":"Sakulia"},"geometry":{"type":"Point","coordinates":[42.56211,42.13353]}},{"type":"feature","properties":{"country_en":"Georgia","name":"Salkhino","name_adm0":"Georgia","name_adm1":"Martvilis Raioni","name_en":"Salkhino"},"geometry":{"type":"Point","coordinates":[41.77731,42.58924]}},{"type":"feature","properties":{"country_en":"Georgia","name":"Shroma","name_adm0":"Georgia","name_adm1":"Ambrolauris Raioni","name_en":"Shroma"},"geometry":{"type":"Point","coordinates":[43.06472,42.52132999999999]}},{"type":"feature","properties":{"country_en":"Georgia","name":"Shroma","name_adm0":"Georgia","name_adm1":"Ozurget´is Raioni","name_en":"Shroma"},"geometry":{"type":"Point","coordinates":[41.84042,41.98811]}},{"type":"feature","properties":{"country_en":"Georgia","name":"Shubani","name_adm0":"Georgia","name_adm1":"Ajaria","name_en":"Shubani"},"geometry":{"type":"Point","coordinates":[42.36262,41.51953]}},{"type":"feature","properties":{"country_en":"Georgia","name":"Sori","name_adm0":"Georgia","name_adm1":"Ambrolauris Raioni","name_en":"Sori"},"geometry":{"type":"Point","coordinates":[43.29444,42.56815]}},{"type":"feature","properties":{"country_en":"Georgia","name":"Sormoni","name_adm0":"Georgia","name_adm1":"Tsqaltubo","name_en":"Sormoni"},"geometry":{"type":"Point","coordinates":[42.7332,42.32558]}},{"type":"feature","properties":{"country_en":"Georgia","name":"Sulda","name_adm0":"Georgia","name_adm1":"Akhalk´alak´is Raioni","name_en":"Sulda"},"geometry":{"type":"Point","coordinates":[43.37039999999999,41.27905]}},{"type":"feature","properties":{"country_en":"Georgia","name":"Sulori","name_adm0":"Georgia","name_adm1":"Vanis Raioni","name_en":"Sulori"},"geometry":{"type":"Point","coordinates":[42.57018,42.02635]}},{"type":"feature","properties":{"country_en":"Georgia","name":"Sviri","name_adm0":"Georgia","name_adm1":"Akhalts´ikhis Raioni","name_en":"Sviri"},"geometry":{"type":"Point","coordinates":[42.989709999999995,41.71001]}},{"type":"feature","properties":{"country_en":"Georgia","name":"T'orsa","name_adm0":"Georgia","name_adm1":"Zugdidis Raioni","name_en":"T'orsa"},"geometry":{"type":"Point","coordinates":[41.781659999999995,42.367309999999996]}},{"type":"feature","properties":{"country_en":"Georgia","name":"Tamarasheni","name_adm0":"Georgia","name_adm1":"Goris Raioni","name_en":"Tamarasheni"},"geometry":{"type":"Point","coordinates":[43.96041,42.27043]}},{"type":"feature","properties":{"country_en":"Georgia","name":"Tavasa","name_adm0":"Georgia","name_adm1":"T´erjolis Raioni","name_en":"Tavasa"},"geometry":{"type":"Point","coordinates":[43.08362,42.27862]}},{"type":"feature","properties":{"country_en":"Georgia","name":"Tezeri","name_adm0":"Georgia","name_adm1":"Khashuris Raioni","name_en":"Tezeri"},"geometry":{"type":"Point","coordinates":[43.52036,41.98770999999999]}},{"type":"feature","properties":{"country_en":"Georgia","name":"Tkachiri","name_adm0":"Georgia","name_adm1":"Tsqaltubo","name_en":"Tkachiri"},"geometry":{"type":"Point","coordinates":[42.63198,42.13909]}},{"type":"feature","properties":{"country_en":"Georgia","name":"Tolebi","name_adm0":"Georgia","name_adm1":"Abashis Raioni","name_en":"Tolebi"},"geometry":{"type":"Point","coordinates":[42.25194,42.07721999999999]}},{"type":"feature","properties":{"country_en":"Georgia","name":"Toria","name_adm0":"Georgia","name_adm1":"Ninotsmindis Raioni","name_en":"Toria"},"geometry":{"type":"Point","coordinates":[43.5744,41.36911]}},{"type":"feature","properties":{"country_en":"Georgia","name":"Ts'aishi","name_adm0":"Georgia","name_adm1":"Zugdidis Raioni","name_en":"Ts'aishi"},"geometry":{"type":"Point","coordinates":[41.8033,42.4325]}},{"type":"feature","properties":{"country_en":"Georgia","name":"Tsipa","name_adm0":"Georgia","name_adm1":"Kharagaulis Raioni","name_en":"Tsipa"},"geometry":{"type":"Point","coordinates":[43.454359999999994,42.00880999999999]}},{"type":"feature","properties":{"country_en":"Georgia","name":"Tsirkvali","name_adm0":"Georgia","name_adm1":"Chiat´ura","name_en":"Tsirkvali"},"geometry":{"type":"Point","coordinates":[43.27719,42.34692]}},{"type":"feature","properties":{"country_en":"Georgia","name":"Tsitelkhevi","name_adm0":"Georgia","name_adm1":"Baghdat´is Raioni","name_en":"Tsitelkhevi"},"geometry":{"type":"Point","coordinates":[42.77467,42.08603]}},{"type":"feature","properties":{"country_en":"Georgia","name":"Tskhmori","name_adm0":"Georgia","name_adm1":"Onis Raioni","name_en":"Tskhmori"},"geometry":{"type":"Point","coordinates":[43.47639,42.53861]}},{"type":"feature","properties":{"country_en":"Georgia","name":"Tskhmorisi","name_adm0":"Georgia","name_adm1":"Ajaria","name_en":"Tskhmorisi"},"geometry":{"type":"Point","coordinates":[42.05972,41.63667]}},{"type":"feature","properties":{"country_en":"Georgia","name":"Tskruti","name_adm0":"Georgia","name_adm1":"Akhalts´ikhis Raioni","name_en":"Tskruti"},"geometry":{"type":"Point","coordinates":[42.94586,41.67677]}},{"type":"feature","properties":{"country_en":"Georgia","name":"Tsonarisi","name_adm0":"Georgia","name_adm1":"Ajaria","name_en":"Tsonarisi"},"geometry":{"type":"Point","coordinates":[42.02361,41.66111]}},{"type":"feature","properties":{"country_en":"Georgia","name":"Turtskhi","name_adm0":"Georgia","name_adm1":"Akhalk´alak´is Raioni","name_en":"Turtskhi"},"geometry":{"type":"Point","coordinates":[43.46886,41.55813]}},{"type":"feature","properties":{"country_en":"Georgia","name":"Vakidzhvari","name_adm0":"Georgia","name_adm1":"Ozurget´is Raioni","name_en":"Vakidzhvari"},"geometry":{"type":"Point","coordinates":[42.14107,41.91604]}},{"type":"feature","properties":{"country_en":"Georgia","name":"Vardigora","name_adm0":"Georgia","name_adm1":"T´erjolis Raioni","name_en":"Vardigora"},"geometry":{"type":"Point","coordinates":[43.08458,42.25124999999999]}},{"type":"feature","properties":{"country_en":"Georgia","name":"Velevi","name_adm0":"Georgia","name_adm1":"Ambrolauris Raioni","name_en":"Velevi"},"geometry":{"type":"Point","coordinates":[43.18405,42.46122]}},{"type":"feature","properties":{"country_en":"Georgia","name":"Zakvi","name_adm0":"Georgia","name_adm1":"Akhalk´alak´is Raioni","name_en":"Zakvi"},"geometry":{"type":"Point","coordinates":[43.50302,41.50497]}},{"type":"feature","properties":{"country_en":"Georgia","name":"Zana","name_adm0":"Georgia","name_adm1":"Senakis Raioni","name_en":"Zana"},"geometry":{"type":"Point","coordinates":[42.095369999999996,42.39196]}},{"type":"feature","properties":{"country_en":"Georgia","name":"Zeda-Vani","name_adm0":"Georgia","name_adm1":"Vanis Raioni","name_en":"Zeda-Vani"},"geometry":{"type":"Point","coordinates":[42.533289999999994,42.0581]}},{"type":"feature","properties":{"country_en":"Georgia","name":"Zemo-Bari","name_adm0":"Georgia","name_adm1":"Ambrolauris Raioni","name_en":"Zemo-Bari"},"geometry":{"type":"Point","coordinates":[43.30327,42.52303]}},{"type":"feature","properties":{"country_en":"Georgia","name":"Zemo-Gumurishi","name_adm0":"Georgia","name_adm1":"Abkhazia","name_en":"Zemo-Gumurishi"},"geometry":{"type":"Point","coordinates":[41.79572,42.70938]}},{"type":"feature","properties":{"country_en":"Georgia","name":"Zemo-Karabulakhi","name_adm0":"Georgia","name_adm1":"Dmanisis Raioni","name_en":"Zemo-Karabulakhi"},"geometry":{"type":"Point","coordinates":[44.09776999999999,41.41428]}},{"type":"feature","properties":{"country_en":"Georgia","name":"Zemo-Khandaki","name_adm0":"Georgia","name_adm1":"Kaspis Raioni","name_en":"Zemo-Khandaki"},"geometry":{"type":"Point","coordinates":[44.31141,41.90062]}},{"type":"feature","properties":{"country_en":"Georgia","name":"Zemo-Machkhaani","name_adm0":"Georgia","name_adm1":"Dedop´listsqaros Raioni","name_en":"Zemo-Machkhaani"},"geometry":{"type":"Point","coordinates":[45.95328,41.56593]}},{"type":"feature","properties":{"country_en":"Georgia","name":"Adzlagara","name_adm0":"Georgia","name_adm1":"Abkhazia","name_en":"Adzlagara"},"geometry":{"type":"Point","coordinates":[40.62767999999999,43.14573]}},{"type":"feature","properties":{"country_en":"Georgia","name":"Agara","name_adm0":"Georgia","name_adm1":"Ajaria","name_en":"Agara"},"geometry":{"type":"Point","coordinates":[41.65139,41.54471999999999]}},{"type":"feature","properties":{"country_en":"Georgia","name":"Durgena","name_adm0":"Georgia","name_adm1":"Senakis Raioni","name_en":"Durgena"},"geometry":{"type":"Point","coordinates":[41.94264,42.24555]}},{"type":"feature","properties":{"country_en":"Georgia","name":"Grigoleti","name_adm0":"Georgia","name_adm1":"Lanch´khut´is Raioni","name_en":"Grigoleti"},"geometry":{"type":"Point","coordinates":[41.73917,42.03694]}},{"type":"feature","properties":{"country_en":"Georgia","name":"Gvara","name_adm0":"Georgia","name_adm1":"Ajaria","name_en":"Gvara"},"geometry":{"type":"Point","coordinates":[41.84499999999999,41.81722]}},{"type":"feature","properties":{"country_en":"Georgia","name":"Kabali","name_adm0":"Georgia","name_adm1":"Lagodekhis Raioni","name_en":"Kabali"},"geometry":{"type":"Point","coordinates":[46.12945,41.8368]}},{"type":"feature","properties":{"country_en":"Georgia","name":"Kartikami","name_adm0":"Georgia","name_adm1":"Akhalk´alak´is Raioni","name_en":"Kartikami"},"geometry":{"type":"Point","coordinates":[43.53940999999999,41.40843]}},{"type":"feature","properties":{"country_en":"Georgia","name":"Kveda-Tlugi","name_adm0":"Georgia","name_adm1":"Ambrolauris Raioni","name_en":"Kveda-Tlugi"},"geometry":{"type":"Point","coordinates":[43.15006,42.45013]}},{"type":"feature","properties":{"country_en":"Georgia","name":"Kvemo-Chibati","name_adm0":"Georgia","name_adm1":"Lanch´khut´is Raioni","name_en":"Kvemo-Chibati"},"geometry":{"type":"Point","coordinates":[41.97709,42.08488]}},{"type":"feature","properties":{"country_en":"Georgia","name":"Largvisi","name_adm0":"Georgia","name_adm1":"Akhalgoris Raioni","name_en":"Largvisi"},"geometry":{"type":"Point","coordinates":[44.49014,42.27056]}},{"type":"feature","properties":{"country_en":"Georgia","name":"Maltakva","name_adm0":"Georgia","name_adm1":"Lanch´khut´is Raioni","name_en":"Maltakva"},"geometry":{"type":"Point","coordinates":[41.72722,42.05888999999999]}},{"type":"feature","properties":{"country_en":"Georgia","name":"Matani","name_adm0":"Georgia","name_adm1":"Akhmetis Raioni","name_en":"Matani"},"geometry":{"type":"Point","coordinates":[45.19562,42.078039999999994]}},{"type":"feature","properties":{"country_en":"Georgia","name":"Samkvari","name_adm0":"Georgia","name_adm1":"Abkhazia","name_en":"Samkvari"},"geometry":{"type":"Point","coordinates":[41.73103,42.64462]}},{"type":"feature","properties":{"country_en":"Georgia","name":"Sanavardo","name_adm0":"Georgia","name_adm1":"Qvarlis Raioni","name_en":"Sanavardo"},"geometry":{"type":"Point","coordinates":[45.82731,41.90129]}},{"type":"feature","properties":{"country_en":"Georgia","name":"Sua-Gezruli","name_adm0":"Georgia","name_adm1":"Zestap´onis Raioni","name_en":"Sua-Gezruli"},"geometry":{"type":"Point","coordinates":[43.22417,42.155]}},{"type":"feature","properties":{"country_en":"Georgia","name":"Brotseula","name_adm0":"Georgia","name_adm1":"Tsqaltubo","name_en":"Brotseula"},"geometry":{"type":"Point","coordinates":[42.97917,42.2339]}},{"type":"feature","properties":{"country_en":"Georgia","name":"Chunkuri","name_adm0":"Georgia","name_adm1":"Khonis Raioni","name_en":"Chunkuri"},"geometry":{"type":"Point","coordinates":[43.01747,42.81152]}},{"type":"feature","properties":{"country_en":"Georgia","name":"Akhalk´alak´is Raioni","name_adm0":"Georgia","name_adm1":"Akhalk´alak´is Raioni","name_en":"Akhalk´alak´is Raioni"},"geometry":{"type":"Point","coordinates":[43.53875,41.656558]}},{"type":"feature","properties":{"country_en":"Georgia","name":"Qvarlis Raioni","name_adm0":"Georgia","name_adm1":"Qvarlis Raioni","name_en":"Qvarlis Raioni"},"geometry":{"type":"Point","coordinates":[45.731277,41.908217]}},{"type":"feature","properties":{"country_en":"Georgia","name":"Dmanisis Raioni","name_adm0":"Georgia","name_adm1":"Dmanisis Raioni","name_en":"Dmanisis Raioni"},"geometry":{"type":"Point","coordinates":[44.165039,41.409775]}},{"type":"feature","properties":{"country_en":"Georgia","name":"Lagodekhis Raioni","name_adm0":"Georgia","name_adm1":"Lagodekhis Raioni","name_en":"Lagodekhis Raioni"},"geometry":{"type":"Point","coordinates":[46.253557,41.890266]}},{"type":"feature","properties":{"country_en":"Georgia","name":"Vanis Raioni","name_adm0":"Georgia","name_adm1":"Vanis Raioni","name_en":"Vanis Raioni"},"geometry":{"type":"Point","coordinates":[42.764741,41.951686]}},{"type":"feature","properties":{"country_en":"Georgia","name":"Senakis Raioni","name_adm0":"Georgia","name_adm1":"Senakis Raioni","name_en":"Senakis Raioni"},"geometry":{"type":"Point","coordinates":[42.192821,42.357909]}},{"type":"feature","properties":{"country_en":"Georgia","name":"Vani","name_adm0":"Georgia","name_adm1":"Vanis Raioni","name_en":"Vani"},"geometry":{"type":"Point","coordinates":[42.52163,42.08319999999999]}},{"type":"feature","properties":{"country_en":"Georgia","name":"Adigenis Raioni","name_adm0":"Georgia","name_adm1":"Adigenis Raioni","name_en":"Adigenis Raioni"},"geometry":{"type":"Point","coordinates":[42.601032,41.6612005]}},{"type":"feature","properties":{"country_en":"Georgia","name":"Chuburkhinji","name_adm0":"Georgia","name_adm1":"Abkhazia","name_en":"Chuburkhinji"},"geometry":{"type":"Point","coordinates":[41.82614,42.5851]}},{"type":"feature","properties":{"country_en":"Georgia","name":"Kojori","name_adm0":"Georgia","name_adm1":"Gardabanis Raioni","name_en":"Kojori"},"geometry":{"type":"Point","coordinates":[44.70005999999999,41.65887]}},{"type":"feature","properties":{"country_en":"Georgia","name":"ზესტაფონი","name_adm0":"Georgia","name_adm1":"Zestap´onis Raioni","name_en":"ზესტაფონი"},"geometry":{"type":"Point","coordinates":[43.013709999999996,42.11077]}},{"type":"feature","properties":{"country_en":"Georgia","name":"Gagra","name_adm0":"Georgia","name_adm1":"Abkhazia","name_en":"Gagra"},"geometry":{"type":"Point","coordinates":[40.25614,43.30387]}},{"type":"feature","properties":{"country_en":"Georgia","name":"Khobis Raioni","name_adm0":"Georgia","name_adm1":"Khobis Raioni","name_en":"Khobis Raioni"},"geometry":{"type":"Point","coordinates":[41.781005,42.024813]}},{"type":"feature","properties":{"country_en":"Georgia","name":"Chiatura","name_adm0":"Georgia","name_adm1":"Chiat´ura","name_en":"Chiatura"},"geometry":{"type":"Point","coordinates":[43.29889,42.29806]}},{"type":"feature","properties":{"country_en":"Georgia","name":"Zestap´onis Raioni","name_adm0":"Georgia","name_adm1":"Zestap´onis Raioni","name_en":"Zestap´onis Raioni"},"geometry":{"type":"Point","coordinates":[43.348188,41.988842]}},{"type":"feature","properties":{"country_en":"Georgia","name":"Ts´ageris Raioni","name_adm0":"Georgia","name_adm1":"Ts´ageris Raioni","name_en":"Ts´ageris Raioni"},"geometry":{"type":"Point","coordinates":[41.781005,42.024813]}},{"type":"feature","properties":{"country_en":"Georgia","name":"Ts'khinvali","name_adm0":"Georgia","name_adm1":"Goris Raioni","name_en":"Ts'khinvali"},"geometry":{"type":"Point","coordinates":[43.96861,42.227639999999994]}},{"type":"feature","properties":{"country_en":"Georgia","name":"Apnia","name_adm0":"Georgia","name_adm1":"Akhalk´alak´is Raioni","name_en":"Apnia"},"geometry":{"type":"Point","coordinates":[43.27971,41.36815]}},{"type":"feature","properties":{"country_en":"Georgia","name":"Borjomi","name_adm0":"Georgia","name_adm1":"Borjomis Raioni","name_en":"Borjomi"},"geometry":{"type":"Point","coordinates":[43.41284,41.85272]}},{"type":"feature","properties":{"country_en":"Georgia","name":"Bichvint'a","name_adm0":"Georgia","name_adm1":"Abkhazia","name_en":"Bichvint'a"},"geometry":{"type":"Point","coordinates":[40.34102,43.16198]}},{"type":"feature","properties":{"country_en":"Georgia","name":"Bat'umi","name_adm0":"Georgia","name_adm1":"Ajaria","name_en":"Bat'umi"},"geometry":{"type":"Point","coordinates":[41.63593,41.641589999999994]}},{"type":"feature","properties":{"country_en":"Georgia","name":"P´ot´I","name_adm0":"Georgia","name_adm1":"P´ot´I","name_en":"P´ot´I"},"geometry":{"type":"Point","coordinates":[41.03015799999999,42.163403]}},{"type":"feature","properties":{"country_en":"Georgia","name":"Sioni","name_adm0":"Georgia","name_adm1":"Qazbegis Raioni","name_en":"Sioni"},"geometry":{"type":"Point","coordinates":[44.585119999999996,42.60799]}},{"type":"feature","properties":{"country_en":"Georgia","name":"Gremi","name_adm0":"Georgia","name_adm1":"Qvarlis Raioni","name_en":"Gremi"},"geometry":{"type":"Point","coordinates":[45.67857,42.01339999999999]}},{"type":"feature","properties":{"country_en":"Georgia","name":"T'et'ri Tsqaro","name_adm0":"Georgia","name_adm1":"T´et´ritsqaros Raioni","name_en":"T'et'ri Tsqaro"},"geometry":{"type":"Point","coordinates":[44.46153,41.54448]}},{"type":"feature","properties":{"country_en":"Georgia","name":"Akhalgori","name_adm0":"Georgia","name_adm1":"Akhalgoris Raioni","name_en":"Akhalgori"},"geometry":{"type":"Point","coordinates":[44.48333,42.12597]}},{"type":"feature","properties":{"country_en":"Georgia","name":"Naruja","name_adm0":"Georgia","name_adm1":"Ozurget´is Raioni","name_en":"Naruja"},"geometry":{"type":"Point","coordinates":[41.95417,41.90694]}},{"type":"feature","properties":{"country_en":"Georgia","name":"Zugdidi","name_adm0":"Georgia","name_adm1":"Zugdidi","name_en":"Zugdidi"},"geometry":{"type":"Point","coordinates":[41.863403,42.5095635]}},{"type":"feature","properties":{"country_en":"Georgia","name":"Ach'adara","name_adm0":"Georgia","name_adm1":"Abkhazia","name_en":"Ach'adara"},"geometry":{"type":"Point","coordinates":[40.9846,43.03782]}},{"type":"feature","properties":{"country_en":"Georgia","name":"Badiauri","name_adm0":"Georgia","name_adm1":"Gurjaanis Raioni","name_en":"Badiauri"},"geometry":{"type":"Point","coordinates":[45.55377,41.64442]}},{"type":"feature","properties":{"country_en":"Georgia","name":"Bolnisi","name_adm0":"Georgia","name_adm1":"Bolnisis Raioni","name_en":"Bolnisi"},"geometry":{"type":"Point","coordinates":[44.53837999999999,41.44794]}},{"type":"feature","properties":{"country_en":"Georgia","name":"Nakalakevi","name_adm0":"Georgia","name_adm1":"Senakis Raioni","name_en":"Nakalakevi"},"geometry":{"type":"Point","coordinates":[42.19167,42.34944]}},{"type":"feature","properties":{"country_en":"Georgia","name":"Dushet´is Raioni","name_adm0":"Georgia","name_adm1":"Dushet´is Raioni","name_en":"Dushet´is Raioni"},"geometry":{"type":"Point","coordinates":[44.824218,42.552068]}},{"type":"feature","properties":{"country_en":"Georgia","name":"Aats'i","name_adm0":"Georgia","name_adm1":"Abkhazia","name_en":"Aats'i"},"geometry":{"type":"Point","coordinates":[40.73221999999999,43.13639]}},{"type":"feature","properties":{"country_en":"Georgia","name":"Gachedili","name_adm0":"Georgia","name_adm1":"Martvilis Raioni","name_en":"Gachedili"},"geometry":{"type":"Point","coordinates":[42.37987999999999,42.47124999999999]}},{"type":"feature","properties":{"country_en":"Georgia","name":"Gagma-Sadzhidzhao","name_adm0":"Georgia","name_adm1":"Khobis Raioni","name_en":"Gagma-Sadzhidzhao"},"geometry":{"type":"Point","coordinates":[42.03754,42.36357]}},{"type":"feature","properties":{"country_en":"Georgia","name":"Khani","name_adm0":"Georgia","name_adm1":"Baghdat´is Raioni","name_en":"Khani"},"geometry":{"type":"Point","coordinates":[42.95758,41.95533]}},{"type":"feature","properties":{"country_en":"Georgia","name":"Kveda-Sazano","name_adm0":"Georgia","name_adm1":"T´erjolis Raioni","name_en":"Kveda-Sazano"},"geometry":{"type":"Point","coordinates":[43.06639,42.19083]}},{"type":"feature","properties":{"country_en":"Georgia","name":"Laliskuri","name_adm0":"Georgia","name_adm1":"T´elavis Raioni","name_en":"Laliskuri"},"geometry":{"type":"Point","coordinates":[45.42083,42.0725]}},{"type":"feature","properties":{"country_en":"Georgia","name":"Legva","name_adm0":"Georgia","name_adm1":"Ajaria","name_en":"Legva"},"geometry":{"type":"Point","coordinates":[41.90971,41.85455]}},{"type":"feature","properties":{"country_en":"Georgia","name":"Lekhaindravo","name_adm0":"Georgia","name_adm1":"Senakis Raioni","name_en":"Lekhaindravo"},"geometry":{"type":"Point","coordinates":[42.33984999999999,42.35951]}},{"type":"feature","properties":{"country_en":"Georgia","name":"Mokhisi","name_adm0":"Georgia","name_adm1":"Khashuris Raioni","name_en":"Mokhisi"},"geometry":{"type":"Point","coordinates":[43.76917,42.05249]}},{"type":"feature","properties":{"country_en":"Georgia","name":"Moliti","name_adm0":"Georgia","name_adm1":"Kharagaulis Raioni","name_en":"Moliti"},"geometry":{"type":"Point","coordinates":[43.41167,42.00278]}},{"type":"feature","properties":{"country_en":"Georgia","name":"Mukhaestate","name_adm0":"Georgia","name_adm1":"Ajaria","name_en":"Mukhaestate"},"geometry":{"type":"Point","coordinates":[41.86639,41.84194]}},{"type":"feature","properties":{"country_en":"Georgia","name":"Mukhiani","name_adm0":"Georgia","name_adm1":"Tsqaltubo","name_en":"Mukhiani"},"geometry":{"type":"Point","coordinates":[42.60111,42.20403]}},{"type":"feature","properties":{"country_en":"Georgia","name":"Mukhura","name_adm0":"Georgia","name_adm1":"Tqibuli","name_en":"Mukhura"},"geometry":{"type":"Point","coordinates":[43.10677,42.32506]}},{"type":"feature","properties":{"country_en":"Georgia","name":"Mukhurcha","name_adm0":"Georgia","name_adm1":"Senakis Raioni","name_en":"Mukhurcha"},"geometry":{"type":"Point","coordinates":[42.24635,42.31679999999999]}},{"type":"feature","properties":{"country_en":"Georgia","name":"Patara-Oni","name_adm0":"Georgia","name_adm1":"Ambrolauris Raioni","name_en":"Patara-Oni"},"geometry":{"type":"Point","coordinates":[42.98333,42.53333]}},{"type":"feature","properties":{"country_en":"Georgia","name":"Patarap'ot'i","name_adm0":"Georgia","name_adm1":"Khobis Raioni","name_en":"Patarap'ot'i"},"geometry":{"type":"Point","coordinates":[41.724079999999994,42.19065]}},{"type":"feature","properties":{"country_en":"Georgia","name":"Perevi","name_adm0":"Georgia","name_adm1":"Sach´kheris Raioni","name_en":"Perevi"},"geometry":{"type":"Point","coordinates":[43.60204,42.373419999999996]}},{"type":"feature","properties":{"country_en":"Georgia","name":"Petriani","name_adm0":"Georgia","name_adm1":"Akhalgoris Raioni","name_en":"Petriani"},"geometry":{"type":"Point","coordinates":[44.55639,42.0875]}},{"type":"feature","properties":{"country_en":"Georgia","name":"Pirveli Choga","name_adm0":"Georgia","name_adm1":"Ch´khorotsqus Raioni","name_en":"Pirveli Choga"},"geometry":{"type":"Point","coordinates":[42.19727,42.57194]}},{"type":"feature","properties":{"country_en":"Georgia","name":"Pirveli Otobaia","name_adm0":"Georgia","name_adm1":"Abkhazia","name_en":"Pirveli Otobaia"},"geometry":{"type":"Point","coordinates":[41.62295,42.48586]}},{"type":"feature","properties":{"country_en":"Georgia","name":"Pirveli-Gudava","name_adm0":"Georgia","name_adm1":"Abkhazia","name_en":"Pirveli-Gudava"},"geometry":{"type":"Point","coordinates":[41.55664,42.66009]}},{"type":"feature","properties":{"country_en":"Georgia","name":"Salkhino","name_adm0":"Georgia","name_adm1":"Vanis Raioni","name_en":"Salkhino"},"geometry":{"type":"Point","coordinates":[42.5572,42.0782]}},{"type":"feature","properties":{"country_en":"Georgia","name":"Samikao","name_adm0":"Georgia","name_adm1":"Khonis Raioni","name_en":"Samikao"},"geometry":{"type":"Point","coordinates":[42.299989999999994,42.26527]}},{"type":"feature","properties":{"country_en":"Georgia","name":"Saprasia","name_adm0":"Georgia","name_adm1":"Vanis Raioni","name_en":"Saprasia"},"geometry":{"type":"Point","coordinates":[42.62867,42.029729999999994]}},{"type":"feature","properties":{"country_en":"Georgia","name":"Silauri","name_adm0":"Georgia","name_adm1":"Lanch´khut´is Raioni","name_en":"Silauri"},"geometry":{"type":"Point","coordinates":[42.0024,41.996199999999995]}},{"type":"feature","properties":{"country_en":"Georgia","name":"Simoniantkhevi","name_adm0":"Georgia","name_adm1":"T´ianet´is Raioni","name_en":"Simoniantkhevi"},"geometry":{"type":"Point","coordinates":[44.905629999999995,42.00278]}},{"type":"feature","properties":{"country_en":"Georgia","name":"Skhalta","name_adm0":"Georgia","name_adm1":"Ajaria","name_en":"Skhalta"},"geometry":{"type":"Point","coordinates":[42.33281,41.58452]}},{"type":"feature","properties":{"country_en":"Georgia","name":"Leningori","name_adm0":"Georgia","name_adm1":"Akhalgoris Raioni","name_en":"Leningori"},"geometry":{"type":"Point","coordinates":[44.10105,41.2542]}},{"type":"feature","properties":{"country_en":"Georgia","name":"Nebodziri","name_adm0":"Georgia","name_adm1":"Kharagaulis Raioni","name_en":"Nebodziri"},"geometry":{"type":"Point","coordinates":[43.37454,41.99002]}},{"type":"feature","properties":{"country_en":"Georgia","name":"Norio","name_adm0":"Georgia","name_adm1":"Gardabanis Raioni","name_en":"Norio"},"geometry":{"type":"Point","coordinates":[44.975559999999994,41.794999999999995]}},{"type":"feature","properties":{"country_en":"Georgia","name":"Odzisi","name_adm0":"Georgia","name_adm1":"Kaspis Raioni","name_en":"Odzisi"},"geometry":{"type":"Point","coordinates":[44.49889,42.04722]}},{"type":"feature","properties":{"country_en":"Georgia","name":"Omaraani","name_adm0":"Georgia","name_adm1":"Sagarejos Raioni","name_en":"Omaraani"},"geometry":{"type":"Point","coordinates":[45.12557,41.927139999999994]}},{"type":"feature","properties":{"country_en":"Georgia","name":"Ozaani","name_adm0":"Georgia","name_adm1":"Marneulis Raioni","name_en":"Ozaani"},"geometry":{"type":"Point","coordinates":[45.9995,41.55069999999999]}},{"type":"feature","properties":{"country_en":"Georgia","name":"Eniseli","name_adm0":"Georgia","name_adm1":"Qvarlis Raioni","name_en":"Eniseli"},"geometry":{"type":"Point","coordinates":[45.67548,42.00353]}},