{"type":"FeatureCollection","features":[{"type":"feature","properties":{"country_en":"French Guiana","name":"Dégrad Brigette","name_adm0":"Guyane Française","name_adm1":"Cayenne","name_adm2":"Roura","name_en":"Dégrad Brigette"},"geometry":{"type":"Point","coordinates":[-52.61667,4.28333]}},{"type":"feature","properties":{"country_en":"French Guiana","name":"Malterre","name_adm0":"Guyane Française","name_adm1":"Cayenne","name_adm2":"Cayenne","name_en":"Malterre"},"geometry":{"type":"Point","coordinates":[-52.325,4.92573]}},{"type":"feature","properties":{"country_en":"French Guiana","name":"Barthélemy","name_adm0":"Guyane Française","name_adm1":"Cayenne","name_adm2":"Roura","name_en":"Barthélemy"},"geometry":{"type":"Point","coordinates":[-52.54532,4.24972]}},{"type":"feature","properties":{"country_en":"French Guiana","name":"Cité Laurie","name_adm0":"Guyane Française","name_adm1":"Cayenne","name_adm2":"Cayenne","name_en":"Cité Laurie"},"geometry":{"type":"Point","coordinates":[-52.31592,4.931839999999999]}},{"type":"feature","properties":{"country_en":"French Guiana","name":"La Madeleine","name_adm0":"Guyane Française","name_adm1":"Cayenne","name_adm2":"Cayenne","name_en":"La Madeleine"},"geometry":{"type":"Point","coordinates":[-52.32366,4.92061]}},{"type":"feature","properties":{"country_en":"French Guiana","name":"Coralie","name_adm0":"Guyane Française","name_adm1":"Cayenne","name_adm2":"Roura","name_en":"Coralie"},"geometry":{"type":"Point","coordinates":[-52.35943,4.50881]}},{"type":"feature","properties":{"country_en":"French Guiana","name":"Citron","name_adm0":"Guyane Française","name_adm1":"St. Laurent du Maroni","name_adm2":"Saint-Laurent-du-Maroni","name_en":"Citron"},"geometry":{"type":"Point","coordinates":[-53.95669999999999,4.7331]}},{"type":"feature","properties":{"country_en":"French Guiana","name":"Matoury","name_adm0":"Guyane Française","name_adm1":"Cayenne","name_adm2":"Matoury","name_en":"Matoury"},"geometry":{"type":"Point","coordinates":[-52.339897,4.649144]}},{"type":"feature","properties":{"country_en":"French Guiana","name":"Sinnamary","name_adm0":"Guyane Française","name_adm1":"Cayenne","name_adm2":"Sinnamary","name_en":"Sinnamary"},"geometry":{"type":"Point","coordinates":[-52.929039,5.249597]}},{"type":"feature","properties":{"country_en":"French Guiana","name":"Remire-Montjoly","name_adm0":"Guyane Française","name_adm1":"Cayenne","name_adm2":"Remire-Montjoly","name_en":"Remire-Montjoly"},"geometry":{"type":"Point","coordinates":[-52.207031,4.925068]}},{"type":"feature","properties":{"country_en":"French Guiana","name":"Ekiny","name_adm0":"Guyane Française","name_adm1":"Cayenne","name_adm2":"Régina","name_en":"Ekiny"},"geometry":{"type":"Point","coordinates":[-52.46667,4.05]}},{"type":"feature","properties":{"country_en":"French Guiana","name":"Tonate","name_adm0":"Guyane Française","name_adm1":"Cayenne","name_adm2":"Macouria","name_en":"Tonate"},"geometry":{"type":"Point","coordinates":[-52.47442,5.01429]}},{"type":"feature","properties":{"country_en":"French Guiana","name":"Simon","name_adm0":"Guyane Française","name_adm1":"Cayenne","name_adm2":"Roura","name_en":"Simon"},"geometry":{"type":"Point","coordinates":[-52.38333,4.41667]}},{"type":"feature","properties":{"country_en":"French Guiana","name":"Awala-Yalimapo","name_adm0":"Guyane Française","name_adm1":"St. Laurent du Maroni","name_adm2":"Awala-Yalimapo","name_en":"Awala-Yalimapo"},"geometry":{"type":"Point","coordinates":[-53.99230899999999,5.360271999999999]}},{"type":"feature","properties":{"country_en":"French Guiana","name":"Saint-Laurent-du-Maroni","name_adm0":"Guyane Française","name_adm1":"St. Laurent du Maroni","name_adm2":"Saint-Laurent-du-Maroni","name_en":"Saint-Laurent-du-Maroni"},"geometry":{"type":"Point","coordinates":[-54.046005,5.342241]}},{"type":"feature","properties":{"country_en":"French Guiana","name":"Saül","name_adm0":"Guyane Française","name_adm1":"St. Laurent du Maroni","name_adm2":"Saül","name_en":"Saül"},"geometry":{"type":"Point","coordinates":[-53.99230899999999,5.360271999999999]}},{"type":"feature","properties":{"country_en":"French Guiana","name":"Apatou","name_adm0":"Guyane Française","name_adm1":"St. Laurent du Maroni","name_adm2":"Apatou","name_en":"Apatou"},"geometry":{"type":"Point","coordinates":[-53.99230899999999,5.360271999999999]}},{"type":"feature","properties":{"country_en":"French Guiana","name":"Javouhey","name_adm0":"Guyane Française","name_adm1":"St. Laurent du Maroni","name_adm2":"Mana","name_en":"Javouhey"},"geometry":{"type":"Point","coordinates":[-53.816669999999995,5.6]}},{"type":"feature","properties":{"country_en":"French Guiana","name":"Grand Bassin","name_adm0":"Guyane Française","name_adm1":"Cayenne","name_adm2":"Roura","name_en":"Grand Bassin"},"geometry":{"type":"Point","coordinates":[-52.512829999999994,4.53089]}},{"type":"feature","properties":{"country_en":"French Guiana","name":"Guatemala","name_adm0":"Guyane Française","name_adm1":"Cayenne","name_adm2":"Kourou","name_en":"Guatemala"},"geometry":{"type":"Point","coordinates":[-52.63333,5.15]}},{"type":"feature","properties":{"country_en":"French Guiana","name":"Saint-Élie","name_adm0":"Guyane Française","name_adm1":"Cayenne","name_adm2":"Saint-Élie","name_en":"Saint-Élie"},"geometry":{"type":"Point","coordinates":[-52.311401,4.943197]}},{"type":"feature","properties":{"country_en":"French Guiana","name":"Cité Ampigny","name_adm0":"Guyane Française","name_adm1":"Cayenne","name_adm2":"Cayenne","name_en":"Cité Ampigny"},"geometry":{"type":"Point","coordinates":[-52.31667,4.93333]}},{"type":"feature","properties":{"country_en":"French Guiana","name":"Cité Anatole","name_adm0":"Guyane Française","name_adm1":"Cayenne","name_adm2":"Cayenne","name_en":"Cité Anatole"},"geometry":{"type":"Point","coordinates":[-52.31776,4.936729999999999]}},{"type":"feature","properties":{"country_en":"French Guiana","name":"Mont Valérien","name_adm0":"Guyane Française","name_adm1":"Cayenne","name_adm2":"Saint-Élie","name_en":"Mont Valérien"},"geometry":{"type":"Point","coordinates":[-53.04964,4.93607]}},{"type":"feature","properties":{"country_en":"French Guiana","name":"Montjoly","name_adm0":"Guyane Française","name_adm1":"Cayenne","name_adm2":"Remire-Montjoly","name_en":"Montjoly"},"geometry":{"type":"Point","coordinates":[-52.26666999999999,4.91667]}},{"type":"feature","properties":{"country_en":"French Guiana","name":"Faubourg l'Abri","name_adm0":"Guyane Française","name_adm1":"Cayenne","name_adm2":"Cayenne","name_en":"Faubourg l'Abri"},"geometry":{"type":"Point","coordinates":[-52.32177,4.93604]}},{"type":"feature","properties":{"country_en":"French Guiana","name":"Mango","name_adm0":"Guyane Française","name_adm1":"Cayenne","name_adm2":"Cayenne","name_en":"Mango"},"geometry":{"type":"Point","coordinates":[-52.3181,4.93352]}},{"type":"feature","properties":{"country_en":"French Guiana","name":"Cité Lafaurie","name_adm0":"Guyane Française","name_adm1":"Cayenne","name_adm2":"Cayenne","name_en":"Cité Lafaurie"},"geometry":{"type":"Point","coordinates":[-52.32309,4.93284]}},{"type":"feature","properties":{"country_en":"French Guiana","name":"Rémiré","name_adm0":"Guyane Française","name_adm1":"Cayenne","name_adm2":"Remire-Montjoly","name_en":"Rémiré"},"geometry":{"type":"Point","coordinates":[-52.27868,4.88441]}},{"type":"feature","properties":{"country_en":"French Guiana","name":"Gare Tigre","name_adm0":"Guyane Française","name_adm1":"Cayenne","name_adm2":"Saint-Élie","name_en":"Gare Tigre"},"geometry":{"type":"Point","coordinates":[-53.1332,4.95586]}},{"type":"feature","properties":{"country_en":"French Guiana","name":"Régina","name_adm0":"Guyane Française","name_adm1":"Cayenne","name_adm2":"Régina","name_en":"Régina"},"geometry":{"type":"Point","coordinates":[-52.311401,4.943197]}},{"type":"feature","properties":{"country_en":"French Guiana","name":"Macouria","name_adm0":"Guyane Française","name_adm1":"Cayenne","name_adm2":"Macouria","name_en":"Macouria"},"geometry":{"type":"Point","coordinates":[-52.311401,4.943197]}},{"type":"feature","properties":{"country_en":"French Guiana","name":"Baduel","name_adm0":"Guyane Française","name_adm1":"Cayenne","name_adm2":"Cayenne","name_en":"Baduel"},"geometry":{"type":"Point","coordinates":[-52.31243,4.92778]}},{"type":"feature","properties":{"country_en":"French Guiana","name":"Cité Jean-François","name_adm0":"Guyane Française","name_adm1":"Cayenne","name_adm2":"Cayenne","name_en":"Cité Jean-François"},"geometry":{"type":"Point","coordinates":[-52.31667,4.91667]}},{"type":"feature","properties":{"country_en":"French Guiana","name":"Cité Mirza","name_adm0":"Guyane Française","name_adm1":"Cayenne","name_adm2":"Cayenne","name_en":"Cité Mirza"},"geometry":{"type":"Point","coordinates":[-52.32484,4.93598]}},{"type":"feature","properties":{"country_en":"French Guiana","name":"Kokioko","name_adm0":"Guyane Française","name_adm1":"St. Laurent du Maroni","name_adm2":"Mana","name_en":"Kokioko"},"geometry":{"type":"Point","coordinates":[-53.49929,4.92022]}},{"type":"feature","properties":{"country_en":"French Guiana","name":"Victor","name_adm0":"Guyane Française","name_adm1":"Cayenne","name_adm2":"Cayenne","name_en":"Victor"},"geometry":{"type":"Point","coordinates":[-52.31264,4.93043]}},{"type":"feature","properties":{"country_en":"French Guiana","name":"Oscar","name_adm0":"Guyane Française","name_adm1":"Cayenne","name_adm2":"Camopi","name_en":"Oscar"},"geometry":{"type":"Point","coordinates":[-52.44779,2.8520299999999996]}},{"type":"feature","properties":{"country_en":"French Guiana","name":"Buja-le-Haut","name_adm0":"Guyane Française","name_adm1":"Cayenne","name_adm2":"Camopi","name_en":"Buja-le-Haut"},"geometry":{"type":"Point","coordinates":[-52.68333,3.16667]}},{"type":"feature","properties":{"country_en":"French Guiana","name":"Santonia","name_adm0":"Guyane Française","name_adm1":"St. Laurent du Maroni","name_adm2":"Apatou","name_en":"Santonia"},"geometry":{"type":"Point","coordinates":[-54.45526,4.73551]}},{"type":"feature","properties":{"country_en":"French Guiana","name":"Carbet Mitan","name_adm0":"Guyane Française","name_adm1":"St. Laurent du Maroni","name_adm2":"Saül","name_en":"Carbet Mitan"},"geometry":{"type":"Point","coordinates":[-53.46251,4.930469999999999]}},{"type":"feature","properties":{"country_en":"French Guiana","name":"Acarouany","name_adm0":"Guyane Française","name_adm1":"St. Laurent du Maroni","name_adm2":"Mana","name_en":"Acarouany"},"geometry":{"type":"Point","coordinates":[-53.81226,5.59222]}},{"type":"feature","properties":{"country_en":"French Guiana","name":"Aloïké","name_adm0":"Guyane Française","name_adm1":"St. Laurent du Maroni","name_adm2":"Maripasoula","name_en":"Aloïké"},"geometry":{"type":"Point","coordinates":[-53.98333,3.63333]}},{"type":"feature","properties":{"country_en":"French Guiana","name":"Marquis","name_adm0":"Guyane Française","name_adm1":"St. Laurent du Maroni","name_adm2":"Maripasoula","name_en":"Marquis"},"geometry":{"type":"Point","coordinates":[-53.57335,3.71479]}},{"type":"feature","properties":{"country_en":"French Guiana","name":"Kourou","name_adm0":"Guyane Française","name_adm1":"Cayenne","name_adm2":"Kourou","name_en":"Kourou"},"geometry":{"type":"Point","coordinates":[-52.605972,5.18079]}},{"type":"feature","properties":{"country_en":"French Guiana","name":"Cité Homat","name_adm0":"Guyane Française","name_adm1":"Cayenne","name_adm2":"Cayenne","name_en":"Cité Homat"},"geometry":{"type":"Point","coordinates":[-52.31667,4.91667]}},{"type":"feature","properties":{"country_en":"French Guiana","name":"Kourou","name_adm0":"Guyane Française","name_adm1":"Cayenne","name_adm2":"Kourou","name_en":"Kourou"},"geometry":{"type":"Point","coordinates":[-52.64778999999999,5.15518]}},{"type":"feature","properties":{"country_en":"French Guiana","name":"Cité Pasteur","name_adm0":"Guyane Française","name_adm1":"Cayenne","name_adm2":"Cayenne","name_en":"Cité Pasteur"},"geometry":{"type":"Point","coordinates":[-52.313539999999996,4.937969999999999]}},{"type":"feature","properties":{"country_en":"French Guiana","name":"Cité Rebard","name_adm0":"Guyane Française","name_adm1":"Cayenne","name_adm2":"Cayenne","name_en":"Cité Rebard"},"geometry":{"type":"Point","coordinates":[-52.318479999999994,4.94135]}},{"type":"feature","properties":{"country_en":"French Guiana","name":"Cité Themire","name_adm0":"Guyane Française","name_adm1":"Cayenne","name_adm2":"Cayenne","name_en":"Cité Themire"},"geometry":{"type":"Point","coordinates":[-52.32023,4.93504]}},{"type":"feature","properties":{"country_en":"French Guiana","name":"Cité des Manguiers","name_adm0":"Guyane Française","name_adm1":"Cayenne","name_adm2":"Cayenne","name_en":"Cité des Manguiers"},"geometry":{"type":"Point","coordinates":[-52.32542,4.93344]}},{"type":"feature","properties":{"country_en":"French Guiana","name":"Bélizon","name_adm0":"Guyane Française","name_adm1":"Cayenne","name_adm2":"Roura","name_en":"Bélizon"},"geometry":{"type":"Point","coordinates":[-52.65696,4.26882]}},{"type":"feature","properties":{"country_en":"French Guiana","name":"Dégrad Vitalo","name_adm0":"Guyane Française","name_adm1":"St. Laurent du Maroni","name_adm2":"Maripasoula","name_en":"Dégrad Vitalo"},"geometry":{"type":"Point","coordinates":[-53.58332999999999,3.25]}},{"type":"feature","properties":{"country_en":"French Guiana","name":"Siminiout","name_adm0":"Guyane Française","name_adm1":"Cayenne","name_adm2":"Camopi","name_en":"Siminiout"},"geometry":{"type":"Point","coordinates":[-52.83022999999999,2.91002]}},{"type":"feature","properties":{"country_en":"French Guiana","name":"Kaw","name_adm0":"Guyane Française","name_adm1":"Cayenne","name_adm2":"Régina","name_en":"Kaw"},"geometry":{"type":"Point","coordinates":[-52.04046,4.48869]}},{"type":"feature","properties":{"country_en":"French Guiana","name":"Bernardin","name_adm0":"Guyane Française","name_adm1":"St. Laurent du Maroni","name_adm2":"Maripasoula","name_en":"Bernardin"},"geometry":{"type":"Point","coordinates":[-53.734,3.6094]}},{"type":"feature","properties":{"country_en":"French Guiana","name":"Îlet Malouin","name_adm0":"Guyane Française","name_adm1":"Cayenne","name_adm2":"Cayenne","name_en":"Îlet Malouin"},"geometry":{"type":"Point","coordinates":[-52.33346999999999,4.92947]}},{"type":"feature","properties":{"country_en":"French Guiana","name":"Village Saramaka","name_adm0":"Guyane Française","name_adm1":"Cayenne","name_adm2":"Kourou","name_en":"Village Saramaka"},"geometry":{"type":"Point","coordinates":[-52.63333,5.15]}},{"type":"feature","properties":{"country_en":"French Guiana","name":"Guyane Française","name_adm0":"Guyane Française","name_en":"French Guiana"},"geometry":{"type":"Point","coordinates":[-52.401866,4.595589]}},{"type":"feature","properties":{"country_en":"French Guiana","name":"Sinnamary","name_adm0":"Guyane Française","name_adm1":"Cayenne","name_adm2":"Sinnamary","name_en":"Sinnamary"},"geometry":{"type":"Point","coordinates":[-52.95,5.38333]}},{"type":"feature","properties":{"country_en":"French Guiana","name":"Ouanary","name_adm0":"Guyane Française","name_adm1":"Cayenne","name_adm2":"Ouanary","name_en":"Ouanary"},"geometry":{"type":"Point","coordinates":[-51.68317,4.2019899999999994]}},{"type":"feature","properties":{"country_en":"French Guiana","name":"Organabo","name_adm0":"Guyane Française","name_adm1":"St. Laurent du Maroni","name_adm2":"Mana","name_en":"Organabo"},"geometry":{"type":"Point","coordinates":[-53.45992,5.54155]}},{"type":"feature","properties":{"country_en":"French Guiana","name":"Maripasoula","name_adm0":"Guyane Française","name_adm1":"St. Laurent du Maroni","name_adm2":"Maripasoula","name_en":"Maripasoula"},"geometry":{"type":"Point","coordinates":[-54.01196,3.6421799999999998]}},{"type":"feature","properties":{"country_en":"French Guiana","name":"Les Hattes","name_adm0":"Guyane Française","name_adm1":"St. Laurent du Maroni","name_adm2":"Awala-Yalimapo","name_en":"Les Hattes"},"geometry":{"type":"Point","coordinates":[-53.94554,5.739509999999999]}},{"type":"feature","properties":{"country_en":"French Guiana","name":"Cité Césaire","name_adm0":"Guyane Française","name_adm1":"Cayenne","name_adm2":"Cayenne","name_en":"Cité Césaire"},"geometry":{"type":"Point","coordinates":[-52.323719999999994,4.93104]}},{"type":"feature","properties":{"country_en":"French Guiana","name":"Camopi","name_adm0":"Guyane Française","name_adm1":"Cayenne","name_adm2":"Camopi","name_en":"Camopi"},"geometry":{"type":"Point","coordinates":[-52.315749999999994,3.16548]}},{"type":"feature","properties":{"country_en":"French Guiana","name":"Roura","name_adm0":"Guyane Française","name_adm1":"Cayenne","name_adm2":"Matoury","name_en":"Roura"},"geometry":{"type":"Point","coordinates":[-52.32742,4.72629]}},{"type":"feature","properties":{"country_en":"French Guiana","name":"Roura","name_adm0":"Guyane Française","name_adm1":"Cayenne","name_adm2":"Roura","name_en":"Roura"},"geometry":{"type":"Point","coordinates":[-52.31826699999999,4.577621999999999]}},{"type":"feature","properties":{"country_en":"French Guiana","name":"Akouménaï","name_adm0":"Guyane Française","name_adm1":"Cayenne","name_adm2":"Camopi","name_en":"Akouménaï"},"geometry":{"type":"Point","coordinates":[-52.3949,2.94031]}},{"type":"feature","properties":{"country_en":"French Guiana","name":"Chatenay","name_adm0":"Guyane Française","name_adm1":"Cayenne","name_adm2":"Cayenne","name_en":"Chatenay"},"geometry":{"type":"Point","coordinates":[-52.31176,4.94251]}},{"type":"feature","properties":{"country_en":"French Guiana","name":"Dosmond","name_adm0":"Guyane Française","name_adm1":"Cayenne","name_adm2":"Kourou","name_en":"Dosmond"},"geometry":{"type":"Point","coordinates":[-52.73697,4.57528]}},{"type":"feature","properties":{"country_en":"French Guiana","name":"Banlieue-Sud","name_adm0":"Guyane Française","name_adm1":"Cayenne","name_adm2":"Cayenne","name_en":"Banlieue-Sud"},"geometry":{"type":"Point","coordinates":[-52.3370645,4.926741]}},{"type":"feature","properties":{"country_en":"French Guiana","name":"Diamant","name_adm0":"Guyane Française","name_adm1":"Cayenne","name_adm2":"Kourou","name_en":"Diamant"},"geometry":{"type":"Point","coordinates":[-52.63333,5.16667]}},{"type":"feature","properties":{"country_en":"French Guiana","name":"Cité Eau Lisette","name_adm0":"Guyane Française","name_adm1":"Cayenne","name_adm2":"Cayenne","name_en":"Cité Eau Lisette"},"geometry":{"type":"Point","coordinates":[-52.32176,4.926949999999999]}},{"type":"feature","properties":{"country_en":"French Guiana","name":"St.-Laurent du Maroni","name_adm0":"Guyane Française","name_adm1":"St. Laurent du Maroni","name_adm2":"Saint-Laurent-du-Maroni","name_en":"St.-Laurent du Maroni"},"geometry":{"type":"Point","coordinates":[-54.03333,5.5]}},{"type":"feature","properties":{"country_en":"French Guiana","name":"Saint-Georges","name_adm0":"Guyane Française","name_adm1":"Cayenne","name_adm2":"Saint-Georges","name_en":"Saint-Georges"},"geometry":{"type":"Point","coordinates":[-51.767406,3.5211309999999996]}},{"type":"feature","properties":{"country_en":"French Guiana","name":"Pierrette","name_adm0":"Guyane Française","name_adm1":"Cayenne","name_adm2":"Régina","name_en":"Pierrette"},"geometry":{"type":"Point","coordinates":[-52.56003,4.02144]}},{"type":"feature","properties":{"country_en":"French Guiana","name":"Mana","name_adm0":"Guyane Française","name_adm1":"St. Laurent du Maroni","name_adm2":"Mana","name_en":"Mana"},"geometry":{"type":"Point","coordinates":[-53.99230899999999,5.360271999999999]}},{"type":"feature","properties":{"country_en":"French Guiana","name":"Les Roches","name_adm0":"Guyane Française","name_adm1":"Cayenne","name_adm2":"Kourou","name_en":"Les Roches"},"geometry":{"type":"Point","coordinates":[-52.63333,5.15]}},{"type":"feature","properties":{"country_en":"French Guiana","name":"Iracoubo","name_adm0":"Guyane Française","name_adm1":"Cayenne","name_adm2":"Iracoubo","name_en":"Iracoubo"},"geometry":{"type":"Point","coordinates":[-53.233566,5.48716]}},{"type":"feature","properties":{"country_en":"French Guiana","name":"Camopi","name_adm0":"Guyane Française","name_adm1":"Cayenne","name_adm2":"Camopi","name_en":"Camopi"},"geometry":{"type":"Point","coordinates":[-52.331185,3.1726105]}},{"type":"feature","properties":{"country_en":"French Guiana","name":"Ouanary","name_adm0":"Guyane Française","name_adm1":"Cayenne","name_adm2":"Ouanary","name_en":"Ouanary"},"geometry":{"type":"Point","coordinates":[-52.311401,4.943197]}},{"type":"feature","properties":{"country_en":"French Guiana","name":"Maripasoula","name_adm0":"Guyane Française","name_adm1":"St. Laurent du Maroni","name_adm2":"Maripasoula","name_en":"Maripasoula"},"geometry":{"type":"Point","coordinates":[-54.017850499999994,3.6762349999999997]}},{"type":"feature","properties":{"country_en":"French Guiana","name":"Tampac","name_adm0":"Guyane Française","name_adm1":"Cayenne","name_adm2":"Camopi","name_en":"Tampac"},"geometry":{"type":"Point","coordinates":[-52.52664,3.19384]}},{"type":"feature","properties":{"country_en":"French Guiana","name":"Cayenne","name_adm0":"Guyane Française","name_adm1":"Cayenne","name_adm2":"Cayenne","name_en":"Cayenne"},"geometry":{"type":"Point","coordinates":[-52.324447,4.942854]}},{"type":"feature","properties":{"country_en":"French Guiana","name":"Cité Brutus","name_adm0":"Guyane Française","name_adm1":"Cayenne","name_adm2":"Cayenne","name_en":"Cité Brutus"},"geometry":{"type":"Point","coordinates":[-52.31667,4.93333]}},{"type":"feature","properties":{"country_en":"French Guiana","name":"Cité des Palétuviers","name_adm0":"Guyane Française","name_adm1":"Cayenne","name_adm2":"Cayenne","name_en":"Cité des Palétuviers"},"geometry":{"type":"Point","coordinates":[-52.33197,4.92875]}},{"type":"feature","properties":{"country_en":"French Guiana","name":"Village Chinois","name_adm0":"Guyane Française","name_adm1":"Cayenne","name_adm2":"Cayenne","name_en":"Village Chinois"},"geometry":{"type":"Point","coordinates":[-52.333819999999996,4.93376]}},{"type":"feature","properties":{"country_en":"French Guiana","name":"Cayenne","name_adm0":"Guyane Française","name_adm1":"Cayenne","name_adm2":"Cayenne","name_en":"Cayenne"},"geometry":{"type":"Point","coordinates":[-52.349853,4.92541]}},{"type":"feature","properties":{"country_en":"French Guiana","name":"Remire-Montjoly","name_adm0":"Guyane Française","name_adm1":"Cayenne","name_adm2":"Remire-Montjoly","name_en":"Remire-Montjoly"},"geometry":{"type":"Point","coordinates":[-52.26666999999999,4.91667]}},{"type":"feature","properties":{"country_en":"French Guiana","name":"Cité Pascaline","name_adm0":"Guyane Française","name_adm1":"Cayenne","name_adm2":"Cayenne","name_en":"Cité Pascaline"},"geometry":{"type":"Point","coordinates":[-52.31643,4.92658]}},{"type":"feature","properties":{"country_en":"French Guiana","name":"Cayenne","name_adm0":"Guyane Française","name_adm1":"Cayenne","name_en":"Cayenne"},"geometry":{"type":"Point","coordinates":[-52.311401,4.943197]}},{"type":"feature","properties":{"country_en":"French Guiana","name":"St. Laurent du Maroni","name_adm0":"Guyane Française","name_adm1":"St. Laurent du Maroni","name_en":"St. Laurent du Maroni"},"geometry":{"type":"Point","coordinates":[-53.99230899999999,5.360271999999999]}},{"type":"feature","properties":{"country_en":"French Guiana","name":"Les Roches","name_adm0":"Guyane Française","name_adm1":"Cayenne","name_adm2":"Kourou","name_en":"Les Roches"},"geometry":{"type":"Point","coordinates":[-52.63333,5.16667]}},{"type":"feature","properties":{"country_en":"French Guiana","name":"Village Brésilien","name_adm0":"Guyane Française","name_adm1":"Cayenne","name_adm2":"Kourou","name_en":"Village Brésilien"},"geometry":{"type":"Point","coordinates":[-52.64999999999999,5.15]}},{"type":"feature","properties":{"country_en":"French Guiana","name":"Dorlin","name_adm0":"Guyane Française","name_adm1":"St. Laurent du Maroni","name_adm2":"Maripasoula","name_en":"Dorlin"},"geometry":{"type":"Point","coordinates":[-53.53213,3.7227]}},{"type":"feature","properties":{"country_en":"French Guiana","name":"Blicade","name_adm0":"Guyane Française","name_adm1":"St. Laurent du Maroni","name_adm2":"Maripasoula","name_en":"Blicade"},"geometry":{"type":"Point","coordinates":[-53.84237,3.29986]}},{"type":"feature","properties":{"country_en":"French Guiana","name":"Clément","name_adm0":"Guyane Française","name_adm1":"Cayenne","name_adm2":"Camopi","name_en":"Clément"},"geometry":{"type":"Point","coordinates":[-52.35,3.38333]}},{"type":"feature","properties":{"country_en":"French Guiana","name":"Dégrad Claude","name_adm0":"Guyane Française","name_adm1":"Cayenne","name_adm2":"Camopi","name_en":"Dégrad Claude"},"geometry":{"type":"Point","coordinates":[-53.08778,2.8845]}},{"type":"feature","properties":{"country_en":"French Guiana","name":"Dégrad Haut Camopi","name_adm0":"Guyane Française","name_adm1":"Cayenne","name_adm2":"Camopi","name_en":"Dégrad Haut Camopi"},"geometry":{"type":"Point","coordinates":[-53.06924,2.50285]}},{"type":"feature","properties":{"country_en":"French Guiana","name":"Châton","name_adm0":"Guyane Française","name_adm1":"Cayenne","name_adm2":"Cayenne","name_en":"Châton"},"geometry":{"type":"Point","coordinates":[-52.3217,4.94433]}},{"type":"feature","properties":{"country_en":"French Guiana","name":"Cité Alexandre","name_adm0":"Guyane Française","name_adm1":"Cayenne","name_adm2":"Cayenne","name_en":"Cité Alexandre"},"geometry":{"type":"Point","coordinates":[-52.31065,4.93648]}},{"type":"feature","properties":{"country_en":"French Guiana","name":"Le Bourg","name_adm0":"Guyane Française","name_adm1":"Cayenne","name_adm2":"Kourou","name_en":"Le Bourg"},"geometry":{"type":"Point","coordinates":[-52.64999999999999,5.15]}},{"type":"feature","properties":{"country_en":"French Guiana","name":"Régina","name_adm0":"Guyane Française","name_adm1":"Cayenne","name_adm2":"Régina","name_en":"Régina"},"geometry":{"type":"Point","coordinates":[-52.13007,4.31606]}},{"type":"feature","properties":{"country_en":"French Guiana","name":"Guisanbourg","name_adm0":"Guyane Française","name_adm1":"Cayenne","name_adm2":"Régina","name_en":"Guisanbourg"},"geometry":{"type":"Point","coordinates":[-51.925619999999995,4.4085]}},{"type":"feature","properties":{"country_en":"French Guiana","name":"Grigel","name_adm0":"Guyane Française","name_adm1":"St. Laurent du Maroni","name_adm2":"Maripasoula","name_en":"Grigel"},"geometry":{"type":"Point","coordinates":[-53.65258,3.3254199999999994]}},{"type":"feature","properties":{"country_en":"French Guiana","name":"Espérance","name_adm0":"Guyane Française","name_adm1":"St. Laurent du Maroni","name_adm2":"Maripasoula","name_en":"Espérance"},"geometry":{"type":"Point","coordinates":[-53.52886,3.64671]}},{"type":"feature","properties":{"country_en":"French Guiana","name":"Cacao","name_adm0":"Guyane Française","name_adm1":"Cayenne","name_adm2":"Roura","name_en":"Cacao"},"geometry":{"type":"Point","coordinates":[-52.47223999999999,4.57779]}},{"type":"feature","properties":{"country_en":"French Guiana","name":"Eau Claire","name_adm0":"Guyane Française","name_adm1":"St. Laurent du Maroni","name_adm2":"Maripasoula","name_en":"Eau Claire"},"geometry":{"type":"Point","coordinates":[-53.59655,3.56075]}},{"type":"feature","properties":{"country_en":"French Guiana","name":"Dépôt Lézard","name_adm0":"Guyane Française","name_adm1":"St. Laurent du Maroni","name_adm2":"Saint-Laurent-du-Maroni","name_en":"Dépôt Lézard"},"geometry":{"type":"Point","coordinates":[-53.79847999999999,4.96626]}},{"type":"feature","properties":{"country_en":"French Guiana","name":"Délices","name_adm0":"Guyane Française","name_adm1":"St. Laurent du Maroni","name_adm2":"Saint-Laurent-du-Maroni","name_en":"Délices"},"geometry":{"type":"Point","coordinates":[-53.74907,4.7372]}},{"type":"feature","properties":{"country_en":"French Guiana","name":"St.-Pierre","name_adm0":"Guyane Française","name_adm1":"Cayenne","name_adm2":"Camopi","name_en":"St.-Pierre"},"geometry":{"type":"Point","coordinates":[-52.66012,3.14734]}},{"type":"feature","properties":{"country_en":"French Guiana","name":"Perdu Temps","name_adm0":"Guyane Française","name_adm1":"Cayenne","name_adm2":"Iracoubo","name_en":"Perdu Temps"},"geometry":{"type":"Point","coordinates":[-53.361729999999994,4.99444]}},{"type":"feature","properties":{"country_en":"French Guiana","name":"Ouaqui","name_adm0":"Guyane Française","name_adm1":"St. Laurent du Maroni","name_adm2":"Maripasoula","name_en":"Ouaqui"},"geometry":{"type":"Point","coordinates":[-53.99198,3.45358]}},{"type":"feature","properties":{"country_en":"French Guiana","name":"Saut Sabbat","name_adm0":"Guyane Française","name_adm1":"St. Laurent du Maroni","name_adm2":"Mana","name_en":"Saut Sabbat"},"geometry":{"type":"Point","coordinates":[-53.66667,5.38333]}},{"type":"feature","properties":{"country_en":"French Guiana","name":"Ste.-Marie-les-Mines","name_adm0":"Guyane Française","name_adm1":"Cayenne","name_adm2":"Roura","name_en":"Ste.-Marie-les-Mines"},"geometry":{"type":"Point","coordinates":[-52.4477,4.50615]}},{"type":"feature","properties":{"country_en":"French Guiana","name":"Tampak","name_adm0":"Guyane Française","name_adm1":"Cayenne","name_adm2":"Camopi","name_en":"Tampak"},"geometry":{"type":"Point","coordinates":[-52.52664,3.19384]}},{"type":"feature","properties":{"country_en":"French Guiana","name":"Village Créole","name_adm0":"Guyane Française","name_adm1":"St. Laurent du Maroni","name_adm2":"Maripasoula","name_en":"Village Créole"},"geometry":{"type":"Point","coordinates":[-53.70628,3.2199899999999997]}},{"type":"feature","properties":{"country_en":"French Guiana","name":"Sursaut","name_adm0":"Guyane Française","name_adm1":"Cayenne","name_adm2":"Saint-Élie","name_en":"Sursaut"},"geometry":{"type":"Point","coordinates":[-53.15233,4.9607]}},{"type":"feature","properties":{"country_en":"French Guiana","name":"Moyoco","name_adm0":"Guyane Française","name_adm1":"Cayenne","name_adm2":"Kourou","name_en":"Moyoco"},"geometry":{"type":"Point","coordinates":[-52.64999999999999,5.16667]}}]}