{"type":"FeatureCollection","features":[{"type":"feature","properties":{"country_en":"Guatemala","name":"San Pedro Pinula","name_adm0":"Guatemala","name_adm1":"Jalapa","name_adm2":"San Pedro Pinula","name_en":"San Pedro Pinula"},"geometry":{"type":"Point","coordinates":[-89.86043899999999,14.588567]}},{"type":"feature","properties":{"country_en":"Guatemala","name":"San Miguel Ixtahuacán","name_adm0":"Guatemala","name_adm1":"San Marcos","name_adm2":"San Miguel Ixtahuacan","name_en":"San Miguel Ixtahuacán"},"geometry":{"type":"Point","coordinates":[-91.75,15.249999999999998]}},{"type":"feature","properties":{"country_en":"Guatemala","name":"San Miguel Acatán","name_adm0":"Guatemala","name_adm1":"Huehuetenango","name_adm2":"San Miguel Acatan","name_en":"S. Miguel Acatan"},"geometry":{"type":"Point","coordinates":[-91.61666999999998,15.7]}},{"type":"feature","properties":{"country_en":"Guatemala","name":"San Rafael Pié la Cuesta","name_adm0":"Guatemala","name_adm1":"San Marcos","name_adm2":"San Rafael Pie de la Cuesta","name_en":"San Rafael Pié la Cuesta"},"geometry":{"type":"Point","coordinates":[-91.91667,14.933329999999998]}},{"type":"feature","properties":{"country_en":"Guatemala","name":"San Rafael Petzal","name_adm0":"Guatemala","name_adm1":"Huehuetenango","name_adm2":"San Rafael Petzal","name_en":"San Rafael Petzal"},"geometry":{"type":"Point","coordinates":[-91.66451,15.404869999999999]}},{"type":"feature","properties":{"country_en":"Guatemala","name":"Concepción Tutuapa","name_adm0":"Guatemala","name_adm1":"San Marcos","name_adm2":"Concepcion Tutuapa","name_en":"Concepción Tutuapa"},"geometry":{"type":"Point","coordinates":[-91.78333,15.28333]}},{"type":"feature","properties":{"country_en":"Guatemala","name":"Concepción Las Minas","name_adm0":"Guatemala","name_adm1":"Chiquimula","name_adm2":"Concepción Las Minas","name_en":"Concepción Las Minas"},"geometry":{"type":"Point","coordinates":[-89.45,14.51667]}},{"type":"feature","properties":{"country_en":"Guatemala","name":"Papaljá","name_adm0":"Guatemala","name_adm1":"Alta Verapaz","name_adm2":"Santa Catarina la Tinta","name_en":"Papaljá"},"geometry":{"type":"Point","coordinates":[-89.91667,15.299999999999999]}},{"type":"feature","properties":{"country_en":"Guatemala","name":"Río Blanco","name_adm0":"Guatemala","name_adm1":"San Marcos","name_adm2":"Rio Blanco","name_en":"Río Blanco"},"geometry":{"type":"Point","coordinates":[-91.68333,15.03333]}},{"type":"feature","properties":{"country_en":"Guatemala","name":"Quezaltepeque","name_adm0":"Guatemala","name_adm1":"Chiquimula","name_adm2":"Quezaltepeque","name_en":"Quezaltepeque"},"geometry":{"type":"Point","coordinates":[-89.45,14.63333]}},{"type":"feature","properties":{"country_en":"Guatemala","name":"Santa Catarina Mita","name_adm0":"Guatemala","name_adm1":"Jutiapa","name_adm2":"Santa Catarina Mita","name_en":"Santa Catarina Mita"},"geometry":{"type":"Point","coordinates":[-89.75,14.449999999999998]}},{"type":"feature","properties":{"country_en":"Guatemala","name":"Santa Bárbara","name_adm0":"Guatemala","name_adm1":"Suchitepequez","name_adm2":"Santa Barbara","name_en":"Santa Bárbara"},"geometry":{"type":"Point","coordinates":[-91.23333,14.433329999999998]}},{"type":"feature","properties":{"country_en":"Guatemala","name":"Santa Ana Huista","name_adm0":"Guatemala","name_adm1":"Huehuetenango","name_adm2":"Santa Ana Huista","name_en":"Santa Ana Huista"},"geometry":{"type":"Point","coordinates":[-91.81667,15.68333]}},{"type":"feature","properties":{"country_en":"Guatemala","name":"Amatillo","name_adm0":"Guatemala","name_adm1":"Chiquimula","name_adm2":"Ipala","name_en":"Amatillo"},"geometry":{"type":"Point","coordinates":[-89.6,14.533329999999998]}},{"type":"feature","properties":{"country_en":"Guatemala","name":"Sabaneta","name_adm0":"Guatemala","name_adm1":"Peten","name_adm2":"Poptun","name_en":"Sabaneta"},"geometry":{"type":"Point","coordinates":[-89.32499999999999,16.325]}},{"type":"feature","properties":{"country_en":"Guatemala","name":"San Miguel Panan","name_adm0":"Guatemala","name_adm1":"Suchitepequez","name_adm2":"San Miguel Panan","name_en":"San Miguel Panan"},"geometry":{"type":"Point","coordinates":[-91.36667,14.533329999999998]}},{"type":"feature","properties":{"country_en":"Guatemala","name":"Santo Domingo Suchitepéquez","name_adm0":"Guatemala","name_adm1":"Suchitepequez","name_adm2":"Santo Domingo Suchitepéquez","name_en":"Santo Domingo Suchitepéquez"},"geometry":{"type":"Point","coordinates":[-91.1483985,14.492046499999999]}},{"type":"feature","properties":{"country_en":"Guatemala","name":"Alotenango","name_adm0":"Guatemala","name_adm1":"Sacatepequez","name_adm2":"Alotenango","name_en":"Alotenango"},"geometry":{"type":"Point","coordinates":[-90.8075,14.480279999999999]}},{"type":"feature","properties":{"country_en":"Guatemala","name":"Uspantán","name_adm0":"Guatemala","name_adm1":"Quiche","name_adm2":"Uspantan","name_en":"Uspantán"},"geometry":{"type":"Point","coordinates":[-90.83333,15.383329999999999]}},{"type":"feature","properties":{"country_en":"Guatemala","name":"Cubulco","name_adm0":"Guatemala","name_adm1":"Baja Verapaz","name_adm2":"Cubulco","name_en":"Cubulco"},"geometry":{"type":"Point","coordinates":[-90.58333,15.133329999999999]}},{"type":"feature","properties":{"country_en":"Guatemala","name":"Barberena","name_adm0":"Guatemala","name_adm1":"Santa Rosa","name_adm2":"Barberena","name_en":"Barberena"},"geometry":{"type":"Point","coordinates":[-90.36111,14.30944]}},{"type":"feature","properties":{"country_en":"Guatemala","name":"Concepción","name_adm0":"Guatemala","name_adm1":"Huehuetenango","name_adm2":"Concepcion Huista","name_en":"Concepción"},"geometry":{"type":"Point","coordinates":[-91.68333,15.61667]}},{"type":"feature","properties":{"country_en":"Guatemala","name":"Zacapa","name_adm0":"Guatemala","name_adm1":"Zacapa","name_en":"Zacapa"},"geometry":{"type":"Point","coordinates":[-89.5,14.999999999999998]}},{"type":"feature","properties":{"country_en":"Guatemala","name":"Juana de Arco","name_adm0":"Guatemala","name_adm1":"Guatemala","name_adm2":"Guatemala","name_en":"Juana de Arco"},"geometry":{"type":"Point","coordinates":[-90.46667,14.65]}},{"type":"feature","properties":{"country_en":"Guatemala","name":"Los Esclavos","name_adm0":"Guatemala","name_adm1":"Sacatepequez","name_adm2":"Pastores","name_en":"Los Esclavos"},"geometry":{"type":"Point","coordinates":[-90.28333,14.249999999999998]}},{"type":"feature","properties":{"country_en":"Guatemala","name":"El Serinal","name_adm0":"Guatemala","name_adm1":"Santa Rosa","name_adm2":"Taxisco","name_en":"El Serinal"},"geometry":{"type":"Point","coordinates":[-90.6,14.41667]}},{"type":"feature","properties":{"country_en":"Guatemala","name":"La Barrita","name_adm0":"Guatemala","name_adm1":"Escuintla","name_adm2":"San José","name_en":"La Barrita"},"geometry":{"type":"Point","coordinates":[-90.91639,13.91806]}},{"type":"feature","properties":{"country_en":"Guatemala","name":"Ocós","name_adm0":"Guatemala","name_adm1":"San Marcos","name_adm2":"Ocos","name_en":"Ocós"},"geometry":{"type":"Point","coordinates":[-92.19333,14.50944]}},{"type":"feature","properties":{"country_en":"Guatemala","name":"San Antonio Aguas Calientes","name_adm0":"Guatemala","name_adm1":"Sacatepequez","name_adm2":"San Antonio Aguas Calientes","name_en":"San Antonio Aguas Calientes"},"geometry":{"type":"Point","coordinates":[-90.775299,14.5406495]}},{"type":"feature","properties":{"country_en":"Guatemala","name":"Tacana","name_adm0":"Guatemala","name_adm1":"San Marcos","name_adm2":"Tacana","name_en":"Tacana"},"geometry":{"type":"Point","coordinates":[-91.904754,15.043777]}},{"type":"feature","properties":{"country_en":"Guatemala","name":"Magdalena Milpas Altas","name_adm0":"Guatemala","name_adm1":"Sacatepequez","name_adm2":"Magdalena Milpas Altas","name_en":"Magdalena Milpas Altas"},"geometry":{"type":"Point","coordinates":[-90.67528,14.545279999999998]}},{"type":"feature","properties":{"country_en":"Guatemala","name":"Salcaja","name_adm0":"Guatemala","name_adm1":"Quetzaltenango","name_adm2":"Salcaja","name_en":"Salcaja"},"geometry":{"type":"Point","coordinates":[-91.46118099999998,14.85985]}},{"type":"feature","properties":{"country_en":"Guatemala","name":"San Juan Cotzal","name_adm0":"Guatemala","name_adm1":"Quiche","name_adm2":"San Juan Cotzal","name_en":"San Juan Cotzal"},"geometry":{"type":"Point","coordinates":[-91.088676,15.43341]}},{"type":"feature","properties":{"country_en":"Guatemala","name":"San Benito","name_adm0":"Guatemala","name_adm1":"Peten","name_adm2":"San Benito","name_en":"San Benito"},"geometry":{"type":"Point","coordinates":[-89.90868,16.91321]}},{"type":"feature","properties":{"country_en":"Guatemala","name":"Jalapa","name_adm0":"Guatemala","name_adm1":"Jalapa","name_adm2":"Jalapa","name_en":"Jalapa"},"geometry":{"type":"Point","coordinates":[-89.98889,14.634719999999998]}},{"type":"feature","properties":{"country_en":"Guatemala","name":"Iztapa","name_adm0":"Guatemala","name_adm1":"Escuintla","name_adm2":"Iztapa","name_en":"Iztapa"},"geometry":{"type":"Point","coordinates":[-90.7075,13.93333]}},{"type":"feature","properties":{"country_en":"Guatemala","name":"San Andrés Itzapa","name_adm0":"Guatemala","name_adm1":"Chimaltenango","name_adm2":"San Andrés Itzapa","name_en":"S. Andres Itzapa"},"geometry":{"type":"Point","coordinates":[-90.84417,14.62]}},{"type":"feature","properties":{"country_en":"Guatemala","name":"Las Cruces","name_adm0":"Guatemala","name_adm1":"Peten","name_adm2":"La Libertad","name_en":"Las Cruces"},"geometry":{"type":"Point","coordinates":[-90.3,16.65]}},{"type":"feature","properties":{"country_en":"Guatemala","name":"Siquinala","name_adm0":"Guatemala","name_adm1":"Escuintla","name_adm2":"Siquinala","name_en":"Siquinala"},"geometry":{"type":"Point","coordinates":[-90.659179,14.379813]}},{"type":"feature","properties":{"country_en":"Guatemala","name":"San Cristobal Cucho","name_adm0":"Guatemala","name_adm1":"San Marcos","name_adm2":"San Cristobal Cucho","name_en":"San Cristobal Cucho"},"geometry":{"type":"Point","coordinates":[-91.904754,15.043777]}},{"type":"feature","properties":{"country_en":"Guatemala","name":"El Tumbador","name_adm0":"Guatemala","name_adm1":"San Marcos","name_adm2":"El Tumbador","name_en":"El Tumbador"},"geometry":{"type":"Point","coordinates":[-91.904754,15.043777]}},{"type":"feature","properties":{"country_en":"Guatemala","name":"Boca del Monte","name_adm0":"Guatemala","name_adm1":"Guatemala","name_adm2":"Santa Catarina Pinula","name_en":"Boca del Monte"},"geometry":{"type":"Point","coordinates":[-90.52417,14.550830000000001]}},{"type":"feature","properties":{"country_en":"Guatemala","name":"Cahabón","name_adm0":"Guatemala","name_adm1":"Alta Verapaz","name_adm2":"Cahabón","name_en":"Cahabón"},"geometry":{"type":"Point","coordinates":[-89.81667,15.566669999999998]}},{"type":"feature","properties":{"country_en":"Guatemala","name":"San Sebastian Huehuetenango","name_adm0":"Guatemala","name_adm1":"Huehuetenango","name_adm2":"San Sebastian Huehuetenango","name_en":"San Sebastian Huehuetenango"},"geometry":{"type":"Point","coordinates":[-91.58333,15.383329999999999]}},{"type":"feature","properties":{"country_en":"Guatemala","name":"Jutiapa","name_adm0":"Guatemala","name_adm1":"Jutiapa","name_adm2":"Jutiapa","name_en":"Jutiapa"},"geometry":{"type":"Point","coordinates":[-89.89582999999999,14.29167]}},{"type":"feature","properties":{"country_en":"Guatemala","name":"Coatepeque","name_adm0":"Guatemala","name_adm1":"Quetzaltenango","name_adm2":"Coatepeque","name_en":"Coatepeque"},"geometry":{"type":"Point","coordinates":[-91.86667,14.699999999999998]}},{"type":"feature","properties":{"country_en":"Guatemala","name":"Los Amates","name_adm0":"Guatemala","name_adm1":"Izabal","name_adm2":"Los Amates","name_en":"Los Amates"},"geometry":{"type":"Point","coordinates":[-89.1,15.266669999999998]}},{"type":"feature","properties":{"country_en":"Guatemala","name":"Poptún","name_adm0":"Guatemala","name_adm1":"Peten","name_adm2":"Poptun","name_en":"Poptún"},"geometry":{"type":"Point","coordinates":[-89.41693999999998,16.33111]}},{"type":"feature","properties":{"country_en":"Guatemala","name":"Petapa","name_adm0":"Guatemala","name_adm1":"Guatemala","name_adm2":"Petapa","name_en":"Petapa"},"geometry":{"type":"Point","coordinates":[-90.55166999999999,14.502779999999998]}},{"type":"feature","properties":{"country_en":"Guatemala","name":"Parramos","name_adm0":"Guatemala","name_adm1":"Chimaltenango","name_adm2":"Parramos","name_en":"Parramos"},"geometry":{"type":"Point","coordinates":[-90.80306,14.60778]}},{"type":"feature","properties":{"country_en":"Guatemala","name":"San Mateo Ixtatán","name_adm0":"Guatemala","name_adm1":"Huehuetenango","name_adm2":"San Mateo Ixtatan","name_en":"S. Mateo Ixtatan"},"geometry":{"type":"Point","coordinates":[-91.47806,15.83194]}},{"type":"feature","properties":{"country_en":"Guatemala","name":"Sayaxché","name_adm0":"Guatemala","name_adm1":"Peten","name_adm2":"Sayaxché","name_en":"Sayaxché"},"geometry":{"type":"Point","coordinates":[-90.16667,16.516669999999998]}},{"type":"feature","properties":{"country_en":"Guatemala","name":"Momostenango","name_adm0":"Guatemala","name_adm1":"Totonicapan","name_adm2":"Momostenango","name_en":"Momostenango"},"geometry":{"type":"Point","coordinates":[-91.419811,15.039928]}},{"type":"feature","properties":{"country_en":"Guatemala","name":"Palin","name_adm0":"Guatemala","name_adm1":"Escuintla","name_adm2":"Palin","name_en":"Palin"},"geometry":{"type":"Point","coordinates":[-90.758056,14.360190999999999]}},{"type":"feature","properties":{"country_en":"Guatemala","name":"Tamahú","name_adm0":"Guatemala","name_adm1":"Alta Verapaz","name_adm2":"Tamahú","name_en":"Tamahú"},"geometry":{"type":"Point","coordinates":[-90.20144399999998,15.272592999999999]}},{"type":"feature","properties":{"country_en":"Guatemala","name":"San Juan Sacatepéquez","name_adm0":"Guatemala","name_adm1":"Guatemala","name_adm2":"San Juan Sacatepéquez","name_en":"San Juan Sacatepéquez"},"geometry":{"type":"Point","coordinates":[-90.625122,14.81206]}},{"type":"feature","properties":{"country_en":"Guatemala","name":"Chinautla","name_adm0":"Guatemala","name_adm1":"Guatemala","name_adm2":"Chinautla","name_en":"Chinautla"},"geometry":{"type":"Point","coordinates":[-90.45593199999999,14.679253000000001]}},{"type":"feature","properties":{"country_en":"Guatemala","name":"San José","name_adm0":"Guatemala","name_adm1":"Peten","name_adm2":"San José","name_en":"San José"},"geometry":{"type":"Point","coordinates":[-89.803619,17.174906]}},{"type":"feature","properties":{"country_en":"Guatemala","name":"Santa Cruz del Quiché","name_adm0":"Guatemala","name_adm1":"Quiche","name_adm2":"Santa Cruz del Quiché","name_en":"Santa Cruz del Quiché"},"geometry":{"type":"Point","coordinates":[-91.137084,14.963359]}},{"type":"feature","properties":{"country_en":"Guatemala","name":"Antigua Guatemala","name_adm0":"Guatemala","name_adm1":"Sacatepequez","name_adm2":"Antigua Guatemala","name_en":"Antigua Guatemala"},"geometry":{"type":"Point","coordinates":[-90.749816,14.560987999999998]}},{"type":"feature","properties":{"country_en":"Guatemala","name":"Caballo Blanco","name_adm0":"Guatemala","name_adm1":"Retalhuleu","name_adm2":"Retalhuleu","name_en":"Caballo Blanco"},"geometry":{"type":"Point","coordinates":[-91.83333,14.483330000000002]}},{"type":"feature","properties":{"country_en":"Guatemala","name":"El Rico","name_adm0":"Guatemala","name_adm1":"Izabal","name_adm2":"Los Amates","name_en":"El Rico"},"geometry":{"type":"Point","coordinates":[-89.11667,15.233329999999999]}},{"type":"feature","properties":{"country_en":"Guatemala","name":"El Quetzal","name_adm0":"Guatemala","name_adm1":"San Marcos","name_adm2":"El Quetzal","name_en":"El Quetzal"},"geometry":{"type":"Point","coordinates":[-91.81667,14.766670000000001]}},{"type":"feature","properties":{"country_en":"Guatemala","name":"El Progreso","name_adm0":"Guatemala","name_adm1":"El Progreso","name_adm2":"Guastatoya","name_en":"El Progreso"},"geometry":{"type":"Point","coordinates":[-90.06944,14.854169999999998]}},{"type":"feature","properties":{"country_en":"Guatemala","name":"Cabañas","name_adm0":"Guatemala","name_adm1":"Zacapa","name_adm2":"Cabañas","name_en":"Cabañas"},"geometry":{"type":"Point","coordinates":[-89.79999999999998,14.933329999999998]}},{"type":"feature","properties":{"country_en":"Guatemala","name":"Pueblo Nuevo Tiquisate","name_adm0":"Guatemala","name_adm1":"Escuintla","name_adm2":"Pueblo Nuevo Tiquisate","name_en":"Pueblo Nuevo Tiquisate"},"geometry":{"type":"Point","coordinates":[-91.36667,14.28333]}},{"type":"feature","properties":{"country_en":"Guatemala","name":"Pueblo Nuevo","name_adm0":"Guatemala","name_adm1":"Suchitepequez","name_adm2":"Pueblo Nuevo","name_en":"Pueblo Nuevo"},"geometry":{"type":"Point","coordinates":[-91.53333,14.65]}},{"type":"feature","properties":{"country_en":"Guatemala","name":"Olopa","name_adm0":"Guatemala","name_adm1":"Chiquimula","name_adm2":"Olopa","name_en":"Olopa"},"geometry":{"type":"Point","coordinates":[-89.35,14.683329999999998]}},{"type":"feature","properties":{"country_en":"Guatemala","name":"Olintepeque","name_adm0":"Guatemala","name_adm1":"Quetzaltenango","name_adm2":"Olintepeque","name_en":"Olintepeque"},"geometry":{"type":"Point","coordinates":[-91.51666999999999,14.883329999999999]}},{"type":"feature","properties":{"country_en":"Guatemala","name":"San Francisco","name_adm0":"Guatemala","name_adm1":"Peten","name_adm2":"San Francisco","name_en":"San Francisco"},"geometry":{"type":"Point","coordinates":[-90.61348,16.48506]}},{"type":"feature","properties":{"country_en":"Guatemala","name":"San Francisco","name_adm0":"Guatemala","name_adm1":"San Marcos","name_adm2":"El Quetzal","name_en":"San Francisco"},"geometry":{"type":"Point","coordinates":[-91.8,14.949999999999998]}},{"type":"feature","properties":{"country_en":"Guatemala","name":"Zacapa","name_adm0":"Guatemala","name_adm1":"Zacapa","name_adm2":"Zacapa","name_en":"Zacapa"},"geometry":{"type":"Point","coordinates":[-89.53056,14.97222]}},{"type":"feature","properties":{"country_en":"Guatemala","name":"Yupiltepeque","name_adm0":"Guatemala","name_adm1":"Jutiapa","name_adm2":"Yupiltepeque","name_en":"Yupiltepeque"},"geometry":{"type":"Point","coordinates":[-89.78333,14.2]}},{"type":"feature","properties":{"country_en":"Guatemala","name":"Tikal","name_adm0":"Guatemala","name_adm1":"Peten","name_adm2":"Flores","name_en":"Tikal"},"geometry":{"type":"Point","coordinates":[-89.61333,17.224999999999998]}},{"type":"feature","properties":{"country_en":"Guatemala","name":"Tecpán Guatemala","name_adm0":"Guatemala","name_adm1":"Chimaltenango","name_adm2":"Tecpan Guatemala","name_en":"Tecpán Guatemala"},"geometry":{"type":"Point","coordinates":[-90.99417,14.76694]}},{"type":"feature","properties":{"country_en":"Guatemala","name":"Tajumulco","name_adm0":"Guatemala","name_adm1":"San Marcos","name_adm2":"Tajumulco","name_en":"Tajumulco"},"geometry":{"type":"Point","coordinates":[-91.88333,15.083329999999998]}},{"type":"feature","properties":{"country_en":"Guatemala","name":"Santa Ana","name_adm0":"Guatemala","name_adm1":"Peten","name_adm2":"Santa Ana","name_en":"Santa Ana"},"geometry":{"type":"Point","coordinates":[-89.83333,16.8]}},{"type":"feature","properties":{"country_en":"Guatemala","name":"San José","name_adm0":"Guatemala","name_adm1":"Escuintla","name_adm2":"San José","name_en":"San José"},"geometry":{"type":"Point","coordinates":[-90.823974,13.928735]}},{"type":"feature","properties":{"country_en":"Guatemala","name":"Zapotitlan","name_adm0":"Guatemala","name_adm1":"Jutiapa","name_adm2":"Zapotitlan","name_en":"Zapotitlan"},"geometry":{"type":"Point","coordinates":[-89.55779949999999,14.559432]}},{"type":"feature","properties":{"country_en":"Guatemala","name":"Jerez","name_adm0":"Guatemala","name_adm1":"Jutiapa","name_adm2":"Jerez","name_en":"Jerez"},"geometry":{"type":"Point","coordinates":[-89.55779949999999,14.559432]}},{"type":"feature","properties":{"country_en":"Guatemala","name":"El Asintal","name_adm0":"Guatemala","name_adm1":"Retalhuleu","name_adm2":"El Asintal","name_en":"El Asintal"},"geometry":{"type":"Point","coordinates":[-91.73333,14.599999999999998]}},{"type":"feature","properties":{"country_en":"Guatemala","name":"San Pedro Sacatepéquez","name_adm0":"Guatemala","name_adm1":"Guatemala","name_adm2":"San Pedro Sacatepéquez","name_en":"San Pedro Sacatepéquez"},"geometry":{"type":"Point","coordinates":[-90.64417,14.68417]}},{"type":"feature","properties":{"country_en":"Guatemala","name":"Palín","name_adm0":"Guatemala","name_adm1":"Escuintla","name_adm2":"Palin","name_en":"Palín"},"geometry":{"type":"Point","coordinates":[-90.69833,14.405559999999998]}},{"type":"feature","properties":{"country_en":"Guatemala","name":"El Estor","name_adm0":"Guatemala","name_adm1":"Izabal","name_adm2":"El Estor","name_en":"El Estor"},"geometry":{"type":"Point","coordinates":[-89.35,15.53333]}},{"type":"feature","properties":{"country_en":"Guatemala","name":"Los Encuentros","name_adm0":"Guatemala","name_adm1":"Solola","name_adm2":"Solola","name_en":"Los Encuentros"},"geometry":{"type":"Point","coordinates":[-91.15,14.849999999999998]}},{"type":"feature","properties":{"country_en":"Guatemala","name":"San Juan Chamelco","name_adm0":"Guatemala","name_adm1":"Alta Verapaz","name_adm2":"San Juan Chamelco","name_en":"San Juan Chamelco"},"geometry":{"type":"Point","coordinates":[-90.33333,15.43333]}},{"type":"feature","properties":{"country_en":"Guatemala","name":"Uaxactún","name_adm0":"Guatemala","name_adm1":"Peten","name_adm2":"Flores","name_en":"Uaxactún"},"geometry":{"type":"Point","coordinates":[-89.63361,17.39361]}},{"type":"feature","properties":{"country_en":"Guatemala","name":"Tactic","name_adm0":"Guatemala","name_adm1":"Alta Verapaz","name_adm2":"Tactic","name_en":"Tactic"},"geometry":{"type":"Point","coordinates":[-90.3,15.33333]}},{"type":"feature","properties":{"country_en":"Guatemala","name":"San Antonio la Paz","name_adm0":"Guatemala","name_adm1":"El Progreso","name_adm2":"San Antonio la Paz","name_en":"San Antonio la Paz"},"geometry":{"type":"Point","coordinates":[-90.28667,14.749720000000002]}},{"type":"feature","properties":{"country_en":"Guatemala","name":"Mazatenango Suchitepéquez","name_adm0":"Guatemala","name_adm1":"Suchitepequez","name_adm2":"Mazatenango","name_en":"Mazatenango Suchitepéquez"},"geometry":{"type":"Point","coordinates":[-91.50332999999999,14.53417]}},{"type":"feature","properties":{"country_en":"Guatemala","name":"Jalapa","name_adm0":"Guatemala","name_adm1":"Jalapa","name_en":"Jalapa"},"geometry":{"type":"Point","coordinates":[-89.91667,14.583329999999998]}},{"type":"feature","properties":{"country_en":"Guatemala","name":"Champerico","name_adm0":"Guatemala","name_adm1":"Retalhuleu","name_adm2":"Champerico","name_en":"Champerico"},"geometry":{"type":"Point","coordinates":[-91.91667,14.3]}},{"type":"feature","properties":{"country_en":"Guatemala","name":"La Maquina","name_adm0":"Guatemala","name_adm1":"Retalhuleu","name_adm2":"El Asintal","name_en":"La Maquina"},"geometry":{"type":"Point","coordinates":[-91.58333,14.38333]}},{"type":"feature","properties":{"country_en":"Guatemala","name":"Las Delicias","name_adm0":"Guatemala","name_adm1":"San Marcos","name_adm2":"Nuevo Progreso","name_en":"Las Delicias"},"geometry":{"type":"Point","coordinates":[-91.81667,14.683329999999998]}},{"type":"feature","properties":{"country_en":"Guatemala","name":"Santa Cruz Barillas","name_adm0":"Guatemala","name_adm1":"Izabal","name_adm2":"Livingston","name_en":"Santa Cruz Barillas"},"geometry":{"type":"Point","coordinates":[-88.3,15.366669999999997]}},{"type":"feature","properties":{"country_en":"Guatemala","name":"Pochuta","name_adm0":"Guatemala","name_adm1":"Chimaltenango","name_adm2":"Pochuta","name_en":"Pochuta"},"geometry":{"type":"Point","coordinates":[-91.03820799999998,14.594214999999998]}},{"type":"feature","properties":{"country_en":"Guatemala","name":"Poptun","name_adm0":"Guatemala","name_adm1":"Peten","name_adm2":"Poptun","name_en":"Poptun"},"geometry":{"type":"Point","coordinates":[-89.511108,16.281914]}},{"type":"feature","properties":{"country_en":"Guatemala","name":"Páquix","name_adm0":"Guatemala","name_adm1":"Huehuetenango","name_adm2":"Chiantla","name_en":"Páquix"},"geometry":{"type":"Point","coordinates":[-91.45556,15.44528]}},{"type":"feature","properties":{"country_en":"Guatemala","name":"Purulha","name_adm0":"Guatemala","name_adm1":"Baja Verapaz","name_adm2":"Purulha","name_en":"Purulha"},"geometry":{"type":"Point","coordinates":[-90.188467,15.2439165]}},{"type":"feature","properties":{"country_en":"Guatemala","name":"San Miguel Chicaj","name_adm0":"Guatemala","name_adm1":"Baja Verapaz","name_adm2":"San Miguel Chicaj","name_en":"San Miguel Chicaj"},"geometry":{"type":"Point","coordinates":[-90.426406,15.262657]}},{"type":"feature","properties":{"country_en":"Guatemala","name":"Chiquimulilla","name_adm0":"Guatemala","name_adm1":"Santa Rosa","name_adm2":"Chiquimulilla","name_en":"Chiquimulilla"},"geometry":{"type":"Point","coordinates":[-90.343322,13.852747]}},{"type":"feature","properties":{"country_en":"Guatemala","name":"San Lucas Sacatepéquez","name_adm0":"Guatemala","name_adm1":"Sacatepequez","name_adm2":"San Lucas Sacatepequez","name_en":"S. Lucas Sacatepequez"},"geometry":{"type":"Point","coordinates":[-90.65694,14.60972]}},{"type":"feature","properties":{"country_en":"Guatemala","name":"Almolonga","name_adm0":"Guatemala","name_adm1":"Quetzaltenango","name_adm2":"Almolonga","name_en":"Almolonga"},"geometry":{"type":"Point","coordinates":[-91.500148,14.821186999999998]}},{"type":"feature","properties":{"country_en":"Guatemala","name":"Coatepeque","name_adm0":"Guatemala","name_adm1":"Quetzaltenango","name_adm2":"Coatepeque","name_en":"Coatepeque"},"geometry":{"type":"Point","coordinates":[-91.866817,14.699178999999999]}},{"type":"feature","properties":{"country_en":"Guatemala","name":"Flores Costa Cuca","name_adm0":"Guatemala","name_adm1":"Quetzaltenango","name_adm2":"Flores Costa Cuca","name_en":"Flores Costa Cuca"},"geometry":{"type":"Point","coordinates":[-91.821155,14.657997]}},{"type":"feature","properties":{"country_en":"Guatemala","name":"Santo Domingo Xenacoj","name_adm0":"Guatemala","name_adm1":"Sacatepequez","name_adm2":"Santo Domingo Xenacoj","name_en":"Santo Domingo Xenacoj"},"geometry":{"type":"Point","coordinates":[-90.7389155,14.689880999999998]}},{"type":"feature","properties":{"country_en":"Guatemala","name":"Santa Cruz Mulua","name_adm0":"Guatemala","name_adm1":"Retalhuleu","name_adm2":"Santa Cruz Mulua","name_en":"Santa Cruz Mulua"},"geometry":{"type":"Point","coordinates":[-91.612844,14.594214999999998]}},{"type":"feature","properties":{"country_en":"Guatemala","name":"Cabrican","name_adm0":"Guatemala","name_adm1":"Quetzaltenango","name_adm2":"Cabrican","name_en":"Cabrican"},"geometry":{"type":"Point","coordinates":[-91.5996475,14.776892499999999]}},{"type":"feature","properties":{"country_en":"Guatemala","name":"Huitan","name_adm0":"Guatemala","name_adm1":"Quetzaltenango","name_adm2":"Huitan","name_en":"Huitan"},"geometry":{"type":"Point","coordinates":[-91.5996475,14.776892499999999]}},{"type":"feature","properties":{"country_en":"Guatemala","name":"Magdalena Milpas Altas","name_adm0":"Guatemala","name_adm1":"Sacatepequez","name_adm2":"Magdalena Milpas Altas","name_en":"Magdalena Milpas Altas"},"geometry":{"type":"Point","coordinates":[-90.672311,14.55833]}},{"type":"feature","properties":{"country_en":"Guatemala","name":"Chajul","name_adm0":"Guatemala","name_adm1":"Quiche","name_adm2":"Chajul","name_en":"Chajul"},"geometry":{"type":"Point","coordinates":[-90.92544,16.116269999999997]}},{"type":"feature","properties":{"country_en":"Guatemala","name":"San Miguel Sigüila","name_adm0":"Guatemala","name_adm1":"Quetzaltenango","name_adm2":"San Miguel Sigüila","name_en":"San Miguel Sigüila"},"geometry":{"type":"Point","coordinates":[-91.5996475,14.776892499999999]}},{"type":"feature","properties":{"country_en":"Guatemala","name":"San Miguel Ixtahuacan","name_adm0":"Guatemala","name_adm1":"San Marcos","name_adm2":"San Miguel Ixtahuacan","name_en":"San Miguel Ixtahuacan"},"geometry":{"type":"Point","coordinates":[-91.904754,15.043777]}},{"type":"feature","properties":{"country_en":"Guatemala","name":"San Rafael la Independencia","name_adm0":"Guatemala","name_adm1":"Huehuetenango","name_adm2":"San Rafael la Independencia","name_en":"San Rafael la Independencia"},"geometry":{"type":"Point","coordinates":[-91.55593799999998,15.474856999999998]}},{"type":"feature","properties":{"country_en":"Guatemala","name":"Escuintla","name_adm0":"Guatemala","name_adm1":"Escuintla","name_adm2":"Escuintla","name_en":"Escuintla"},"geometry":{"type":"Point","coordinates":[-90.78244,14.3034]}},{"type":"feature","properties":{"country_en":"Guatemala","name":"Nuevo Progreso","name_adm0":"Guatemala","name_adm1":"San Marcos","name_adm2":"Nuevo Progreso","name_en":"Nuevo Progreso"},"geometry":{"type":"Point","coordinates":[-91.91667,14.8]}},{"type":"feature","properties":{"country_en":"Guatemala","name":"San Gabriel","name_adm0":"Guatemala","name_adm1":"Baja Verapaz","name_adm2":"San Miguel Chicaj","name_en":"San Gabriel"},"geometry":{"type":"Point","coordinates":[-90.41667,15.149999999999999]}},{"type":"feature","properties":{"country_en":"Guatemala","name":"San Martín","name_adm0":"Guatemala","name_adm1":"Huehuetenango","name_adm2":"Santiago Chimaltenango","name_en":"San Martín"},"geometry":{"type":"Point","coordinates":[-91.66666999999998,15.566669999999998]}},{"type":"feature","properties":{"country_en":"Guatemala","name":"Chiquimula","name_adm0":"Guatemala","name_adm1":"Chiquimula","name_adm2":"Chiquimula","name_en":"Chiquimula"},"geometry":{"type":"Point","coordinates":[-89.56604,14.804093]}},{"type":"feature","properties":{"country_en":"Guatemala","name":"Castillo de San Felipe","name_adm0":"Guatemala","name_adm1":"Izabal","name_adm2":"Paujil","name_en":"Castillo de San Felipe"},"geometry":{"type":"Point","coordinates":[-89,15.633329999999999]}},{"type":"feature","properties":{"country_en":"Guatemala","name":"Santa Catarina Barahona","name_adm0":"Guatemala","name_adm1":"Totonicapan","name_adm2":"Momostenango","name_en":"Santa Catarina Barahona"},"geometry":{"type":"Point","coordinates":[-90.78833,14.548890000000002]}},{"type":"feature","properties":{"country_en":"Guatemala","name":"Cunén","name_adm0":"Guatemala","name_adm1":"Quiche","name_adm2":"Cunén","name_en":"Cunén"},"geometry":{"type":"Point","coordinates":[-91.109667,15.369165999999998]}},{"type":"feature","properties":{"country_en":"Guatemala","name":"Retalhuleu","name_adm0":"Guatemala","name_adm1":"Retalhuleu","name_adm2":"Retalhuleu","name_en":"Retalhuleu"},"geometry":{"type":"Point","coordinates":[-91.78974099999999,14.285677]}},{"type":"feature","properties":{"country_en":"Guatemala","name":"San Vicente Pacaya","name_adm0":"Guatemala","name_adm1":"Escuintla","name_adm2":"San Vicente Pacaya","name_en":"San Vicente Pacaya"},"geometry":{"type":"Point","coordinates":[-90.63917,14.41611]}},{"type":"feature","properties":{"country_en":"Guatemala","name":"San Pedro la Laguna","name_adm0":"Guatemala","name_adm1":"Solola","name_adm2":"San Pedro la Laguna","name_en":"San Pedro la Laguna"},"geometry":{"type":"Point","coordinates":[-91.27201,14.692969999999999]}},{"type":"feature","properties":{"country_en":"Guatemala","name":"Chisec","name_adm0":"Guatemala","name_adm1":"Alta Verapaz","name_adm2":"Chisec","name_en":"Chisec"},"geometry":{"type":"Point","coordinates":[-90.230759,15.783471]}},{"type":"feature","properties":{"country_en":"Guatemala","name":"Camotán","name_adm0":"Guatemala","name_adm1":"Chiquimula","name_adm2":"Camotán","name_en":"Camotán"},"geometry":{"type":"Point","coordinates":[-89.36666999999998,14.81667]}},{"type":"feature","properties":{"country_en":"Guatemala","name":"Cabricán","name_adm0":"Guatemala","name_adm1":"Quetzaltenango","name_adm2":"Cabrican","name_en":"Cabricán"},"geometry":{"type":"Point","coordinates":[-91.61666999999998,15.133329999999999]}},{"type":"feature","properties":{"country_en":"Guatemala","name":"Totonicapan","name_adm0":"Guatemala","name_adm1":"Totonicapan","name_adm2":"Totonicapan","name_en":"Totonicapan"},"geometry":{"type":"Point","coordinates":[-91.271667,14.878431999999998]}},{"type":"feature","properties":{"country_en":"Guatemala","name":"San Jacinto","name_adm0":"Guatemala","name_adm1":"Chimaltenango","name_adm2":"El Tejar","name_en":"San Jacinto"},"geometry":{"type":"Point","coordinates":[-90.78333,14.71667]}},{"type":"feature","properties":{"country_en":"Guatemala","name":"Santa Ana Mixtán","name_adm0":"Guatemala","name_adm1":"Escuintla","name_adm2":"Nueva Concepcion","name_en":"Sta. Ana Mixtan"},"geometry":{"type":"Point","coordinates":[-91.23333,14.11667]}},{"type":"feature","properties":{"country_en":"Guatemala","name":"Santo Tomas la Union","name_adm0":"Guatemala","name_adm1":"Suchitepequez","name_adm2":"Santo Tomas la Union","name_en":"Santo Tomas la Union"},"geometry":{"type":"Point","coordinates":[-91.1483985,14.492046499999999]}},{"type":"feature","properties":{"country_en":"Guatemala","name":"Contepeque","name_adm0":"Guatemala","name_adm1":"Jutiapa","name_adm2":"Atescatempa","name_en":"Contepeque"},"geometry":{"type":"Point","coordinates":[-89.75,14.13333]}},{"type":"feature","properties":{"country_en":"Guatemala","name":"El Carmen","name_adm0":"Guatemala","name_adm1":"San Marcos","name_adm2":"Malacatan","name_en":"El Carmen"},"geometry":{"type":"Point","coordinates":[-92.13333,14.96667]}},{"type":"feature","properties":{"country_en":"Guatemala","name":"Ixobel","name_adm0":"Guatemala","name_adm1":"Peten","name_adm2":"Poptun","name_en":"Ixobel"},"geometry":{"type":"Point","coordinates":[-89.41277999999998,16.30861]}},{"type":"feature","properties":{"country_en":"Guatemala","name":"La Esmeralda","name_adm0":"Guatemala","name_adm1":"Jutiapa","name_adm2":"Jerez","name_en":"La Esmeralda"},"geometry":{"type":"Point","coordinates":[-89.76667,14.1]}},{"type":"feature","properties":{"country_en":"Guatemala","name":"Saltán","name_adm0":"Guatemala","name_adm1":"Baja Verapaz","name_adm2":"Granados","name_en":"Saltán"},"geometry":{"type":"Point","coordinates":[-90.6,14.900000000000002]}},{"type":"feature","properties":{"country_en":"Guatemala","name":"San Marcos Huista","name_adm0":"Guatemala","name_adm1":"Huehuetenango","name_adm2":"Jacaltenango","name_en":"San Marcos Huista"},"geometry":{"type":"Point","coordinates":[-91.71666999999998,15.7]}},{"type":"feature","properties":{"country_en":"Guatemala","name":"Santo Toribio","name_adm0":"Guatemala","name_adm1":"Peten","name_adm2":"Dolores","name_en":"Santo Toribio"},"geometry":{"type":"Point","coordinates":[-89.51667,16.61667]}},{"type":"feature","properties":{"country_en":"Guatemala","name":"Sebol","name_adm0":"Guatemala","name_adm1":"Alta Verapaz","name_adm2":"Chisec","name_en":"Sebol"},"geometry":{"type":"Point","coordinates":[-89.95,15.799999999999999]}},{"type":"feature","properties":{"country_en":"Guatemala","name":"Xabil","name_adm0":"Guatemala","name_adm1":"Quiche","name_adm2":"Santa Cruz del Quiché","name_en":"Xabil"},"geometry":{"type":"Point","coordinates":[-91.07889,15.0925]}},{"type":"feature","properties":{"country_en":"Guatemala","name":"San Miguel Acatán","name_adm0":"Guatemala","name_adm1":"Huehuetenango","name_adm2":"San Sebastian Coatan","name_en":"San Miguel Acatán"},"geometry":{"type":"Point","coordinates":[-91.61666999999998,15.7]}},{"type":"feature","properties":{"country_en":"Guatemala","name":"San Juan Ermita","name_adm0":"Guatemala","name_adm1":"Chiquimula","name_adm2":"San Juan Ermita","name_en":"San Juan Ermita"},"geometry":{"type":"Point","coordinates":[-89.43333,14.766670000000001]}},{"type":"feature","properties":{"country_en":"Guatemala","name":"La Canoa","name_adm0":"Guatemala","name_adm1":"Baja Verapaz","name_adm2":"Salama","name_en":"La Canoa"},"geometry":{"type":"Point","coordinates":[-90.4,14.900000000000002]}},{"type":"feature","properties":{"country_en":"Guatemala","name":"El Tejar","name_adm0":"Guatemala","name_adm1":"Chimaltenango","name_adm2":"El Tejar","name_en":"El Tejar"},"geometry":{"type":"Point","coordinates":[-90.79278,14.64778]}},{"type":"feature","properties":{"country_en":"Guatemala","name":"Colomba","name_adm0":"Guatemala","name_adm1":"Quetzaltenango","name_adm2":"Colomba","name_en":"Colomba"},"geometry":{"type":"Point","coordinates":[-91.73333,14.71667]}},{"type":"feature","properties":{"country_en":"Guatemala","name":"Zaragoza","name_adm0":"Guatemala","name_adm1":"Chimaltenango","name_adm2":"Zaragoza","name_en":"Zaragoza"},"geometry":{"type":"Point","coordinates":[-90.88943999999998,14.654440000000001]}},{"type":"feature","properties":{"country_en":"Guatemala","name":"San Miguel Dueñas","name_adm0":"Guatemala","name_adm1":"Sacatepequez","name_adm2":"San Miguel Dueñas","name_en":"S. Miguel Duenas"},"geometry":{"type":"Point","coordinates":[-90.79833,14.52389]}},{"type":"feature","properties":{"country_en":"Guatemala","name":"Sipacate","name_adm0":"Guatemala","name_adm1":"Escuintla","name_adm2":"La Gomera","name_en":"Sipacate"},"geometry":{"type":"Point","coordinates":[-91.15,13.93333]}},{"type":"feature","properties":{"country_en":"Guatemala","name":"Yepocapa","name_adm0":"Guatemala","name_adm1":"Chimaltenango","name_adm2":"Yepocapa","name_en":"Yepocapa"},"geometry":{"type":"Point","coordinates":[-90.881738,14.471000999999998]}},{"type":"feature","properties":{"country_en":"Guatemala","name":"Ciudad Pedro de Alvarado","name_adm0":"Guatemala","name_adm1":"Jutiapa","name_adm2":"Moyuta","name_en":"Ciudad Pedro de Alvarado"},"geometry":{"type":"Point","coordinates":[-90.0925,13.87028]}},{"type":"feature","properties":{"country_en":"Guatemala","name":"El Rancho","name_adm0":"Guatemala","name_adm1":"El Progreso","name_adm2":"San Agustin Acasaguastlan","name_en":"El Rancho"},"geometry":{"type":"Point","coordinates":[-90.00778,14.91389]}},{"type":"feature","properties":{"country_en":"Guatemala","name":"Entre Ríos","name_adm0":"Guatemala","name_adm1":"Izabal","name_adm2":"Puerto Barrios","name_en":"Entre Rios"},"geometry":{"type":"Point","coordinates":[-88.53333,15.633329999999999]}},{"type":"feature","properties":{"country_en":"Guatemala","name":"Ermita","name_adm0":"Guatemala","name_adm1":"Chiquimula","name_adm2":"Concepción Las Minas","name_en":"Ermita"},"geometry":{"type":"Point","coordinates":[-89.45,14.46667]}},{"type":"feature","properties":{"country_en":"Guatemala","name":"San Cristóbal Frontera","name_adm0":"Guatemala","name_adm1":"Jutiapa","name_adm2":"Atescatempa","name_en":"S. Cristobal Frontera"},"geometry":{"type":"Point","coordinates":[-89.66972,14.185]}},{"type":"feature","properties":{"country_en":"Guatemala","name":"Santa Ana","name_adm0":"Guatemala","name_adm1":"Peten","name_adm2":"San Francisco","name_en":"Santa Ana"},"geometry":{"type":"Point","coordinates":[-89.465,16.29944]}},{"type":"feature","properties":{"country_en":"Guatemala","name":"Serchil","name_adm0":"Guatemala","name_adm1":"San Marcos","name_adm2":"San Marcos","name_en":"Serchil"},"geometry":{"type":"Point","coordinates":[-91.8,15.03333]}},{"type":"feature","properties":{"country_en":"Guatemala","name":"Tenedores","name_adm0":"Guatemala","name_adm1":"Izabal","name_adm2":"Morales","name_en":"Tenedores"},"geometry":{"type":"Point","coordinates":[-88.63333,15.549999999999999]}},{"type":"feature","properties":{"country_en":"Guatemala","name":"Tierra Colorada","name_adm0":"Guatemala","name_adm1":"Chiquimula","name_adm2":"Quezaltepeque","name_en":"Tierra Colorada"},"geometry":{"type":"Point","coordinates":[-89.45,14.583329999999998]}},{"type":"feature","properties":{"country_en":"Guatemala","name":"Playa Grande","name_adm0":"Guatemala","name_adm1":"Quiche","name_adm2":"Playa Grande","name_en":"Playa Grande"},"geometry":{"type":"Point","coordinates":[-90.840454,15.971890999999998]}},{"type":"feature","properties":{"country_en":"Guatemala","name":"Gualan","name_adm0":"Guatemala","name_adm1":"Zacapa","name_adm2":"Gualan","name_en":"Gualan"},"geometry":{"type":"Point","coordinates":[-89.4205,15.119]}},{"type":"feature","properties":{"country_en":"Guatemala","name":"Santa Cruz Verapaz","name_adm0":"Guatemala","name_adm1":"Alta Verapaz","name_adm2":"Santa Cruz Verapaz","name_en":"Santa Cruz Verapaz"},"geometry":{"type":"Point","coordinates":[-90.43395899999999,15.300081]}},{"type":"feature","properties":{"country_en":"Guatemala","name":"San Pedro la Laguna","name_adm0":"Guatemala","name_adm1":"Solola","name_adm2":"San Pedro la Laguna","name_en":"San Pedro la Laguna"},"geometry":{"type":"Point","coordinates":[-91.24694799999999,14.660653999999997]}},{"type":"feature","properties":{"country_en":"Guatemala","name":"Estanzuela","name_adm0":"Guatemala","name_adm1":"Zacapa","name_adm2":"Estanzuela","name_en":"Estanzuela"},"geometry":{"type":"Point","coordinates":[-89.56667,14.999999999999998]}},{"type":"feature","properties":{"country_en":"Guatemala","name":"Pueblo Nuevo","name_adm0":"Guatemala","name_adm1":"Suchitepequez","name_adm2":"Pueblo Nuevo","name_en":"Pueblo Nuevo"},"geometry":{"type":"Point","coordinates":[-91.1483985,14.492046499999999]}},{"type":"feature","properties":{"country_en":"Guatemala","name":"Canilla","name_adm0":"Guatemala","name_adm1":"Quiche","name_adm2":"Canilla","name_en":"Canilla"},"geometry":{"type":"Point","coordinates":[-90.791015,15.214936]}},{"type":"feature","properties":{"country_en":"Guatemala","name":"Santa Catarina Mita","name_adm0":"Guatemala","name_adm1":"Jutiapa","name_adm2":"Santa Catarina Mita","name_en":"Santa Catarina Mita"},"geometry":{"type":"Point","coordinates":[-89.55779949999999,14.559432]}},{"type":"feature","properties":{"country_en":"Guatemala","name":"Sansare","name_adm0":"Guatemala","name_adm1":"El Progreso","name_adm2":"Sansare","name_en":"Sansare"},"geometry":{"type":"Point","coordinates":[-89.952434,14.923553999999998]}},{"type":"feature","properties":{"country_en":"Guatemala","name":"San Luis Jilotepeque","name_adm0":"Guatemala","name_adm1":"Jalapa","name_adm2":"San Luis Jilotepeque","name_en":"San Luis Jilotepeque"},"geometry":{"type":"Point","coordinates":[-89.901123,14.487870999999998]}},{"type":"feature","properties":{"country_en":"Guatemala","name":"Palestina de Los Altos","name_adm0":"Guatemala","name_adm1":"Quetzaltenango","name_adm2":"Palestina de Los Altos","name_en":"Palestina de Los Altos"},"geometry":{"type":"Point","coordinates":[-91.5996475,14.776892499999999]}},{"type":"feature","properties":{"country_en":"Guatemala","name":"San Bartolomé Jocotenango","name_adm0":"Guatemala","name_adm1":"Quiche","name_adm2":"San Bartolomé Jocotenango","name_en":"San Bartolomé Jocotenango"},"geometry":{"type":"Point","coordinates":[-90.791015,15.214936]}},{"type":"feature","properties":{"country_en":"Guatemala","name":"Ocos","name_adm0":"Guatemala","name_adm1":"San Marcos","name_adm2":"Ocos","name_en":"Ocos"},"geometry":{"type":"Point","coordinates":[-91.904754,15.043777]}},{"type":"feature","properties":{"country_en":"Guatemala","name":"San Francisco Zapotitlan","name_adm0":"Guatemala","name_adm1":"Suchitepequez","name_adm2":"San Francisco Zapotitlan","name_en":"San Francisco Zapotitlan"},"geometry":{"type":"Point","coordinates":[-91.1483985,14.492046499999999]}},{"type":"feature","properties":{"country_en":"Guatemala","name":"Chicacao","name_adm0":"Guatemala","name_adm1":"Suchitepequez","name_adm2":"Chicacao","name_en":"Chicacao"},"geometry":{"type":"Point","coordinates":[-91.1483985,14.492046499999999]}},{"type":"feature","properties":{"country_en":"Guatemala","name":"Samayac","name_adm0":"Guatemala","name_adm1":"Suchitepequez","name_adm2":"Samayac","name_en":"Samayac"},"geometry":{"type":"Point","coordinates":[-91.46135,14.58084]}},{"type":"feature","properties":{"country_en":"Guatemala","name":"Dolores","name_adm0":"Guatemala","name_adm1":"Peten","name_adm2":"Dolores","name_en":"Dolores"},"geometry":{"type":"Point","coordinates":[-89.41583,16.51417]}},{"type":"feature","properties":{"country_en":"Guatemala","name":"Pastores","name_adm0":"Guatemala","name_adm1":"Sacatepequez","name_adm2":"Pastores","name_en":"Pastores"},"geometry":{"type":"Point","coordinates":[-90.75472,14.596669999999998]}},{"type":"feature","properties":{"country_en":"Guatemala","name":"Chinique","name_adm0":"Guatemala","name_adm1":"Quiche","name_adm2":"Chinique","name_en":"Chinique"},"geometry":{"type":"Point","coordinates":[-91.02583,15.044719999999998]}},{"type":"feature","properties":{"country_en":"Guatemala","name":"Jocotenango","name_adm0":"Guatemala","name_adm1":"Sacatepequez","name_adm2":"Jocotenango","name_en":"Jocotenango"},"geometry":{"type":"Point","coordinates":[-91.56666999999999,14.533329999999998]}},{"type":"feature","properties":{"country_en":"Guatemala","name":"San Sebastián","name_adm0":"Guatemala","name_adm1":"Retalhuleu","name_adm2":"San Sebastian","name_en":"S. Sebastian"},"geometry":{"type":"Point","coordinates":[-91.65,14.56667]}},{"type":"feature","properties":{"country_en":"Guatemala","name":"Pachalum","name_adm0":"Guatemala","name_adm1":"Quiche","name_adm2":"Pachalum","name_en":"Pachalum"},"geometry":{"type":"Point","coordinates":[-90.791015,15.214936]}},{"type":"feature","properties":{"country_en":"Guatemala","name":"Cunén","name_adm0":"Guatemala","name_adm1":"Quiche","name_adm2":"Cunén","name_en":"Cunén"},"geometry":{"type":"Point","coordinates":[-91.02693999999998,15.3375]}},{"type":"feature","properties":{"country_en":"Guatemala","name":"Escuintla","name_adm0":"Guatemala","name_adm1":"Escuintla","name_adm2":"Escuintla","name_en":"Escuintla"},"geometry":{"type":"Point","coordinates":[-90.796508,14.320276]}},{"type":"feature","properties":{"country_en":"Guatemala","name":"Horcones","name_adm0":"Guatemala","name_adm1":"Jutiapa","name_adm2":"Conguaco","name_en":"Horcones"},"geometry":{"type":"Point","coordinates":[-89.78333,14.433329999999998]}},{"type":"feature","properties":{"country_en":"Guatemala","name":"San Pedro Ayampuc","name_adm0":"Guatemala","name_adm1":"Guatemala","name_adm2":"San Pedro Ayampuc","name_en":"San Pedro Ayampuc"},"geometry":{"type":"Point","coordinates":[-90.45111,14.786669999999999]}},{"type":"feature","properties":{"country_en":"Guatemala","name":"Cuilapa","name_adm0":"Guatemala","name_adm1":"Santa Rosa","name_adm2":"Cuilapa","name_en":"Cuilapa"},"geometry":{"type":"Point","coordinates":[-90.29889,14.27639]}},{"type":"feature","properties":{"country_en":"Guatemala","name":"Chiquimula","name_adm0":"Guatemala","name_adm1":"Chiquimula","name_adm2":"Chiquimula","name_en":"Chiquimula"},"geometry":{"type":"Point","coordinates":[-89.54583,14.8]}},{"type":"feature","properties":{"country_en":"Guatemala","name":"San Pablo la Laguna","name_adm0":"Guatemala","name_adm1":"Solola","name_adm2":"San Pablo la Laguna","name_en":"San Pablo la Laguna"},"geometry":{"type":"Point","coordinates":[-91.26667,14.71667]}},{"type":"feature","properties":{"country_en":"Guatemala","name":"San Marcos","name_adm0":"Guatemala","name_adm1":"San Marcos","name_adm2":"San Marcos","name_en":"San Marcos"},"geometry":{"type":"Point","coordinates":[-91.79444,14.963889999999997]}},{"type":"feature","properties":{"country_en":"Guatemala","name":"Puerto San José","name_adm0":"Guatemala","name_adm1":"Escuintla","name_adm2":"San José","name_en":"Puerto San José"},"geometry":{"type":"Point","coordinates":[-90.82444,13.92556]}},{"type":"feature","properties":{"country_en":"Guatemala","name":"Puerto Barrios","name_adm0":"Guatemala","name_adm1":"Izabal","name_adm2":"Puerto Barrios","name_en":"Puerto Barrios"},"geometry":{"type":"Point","coordinates":[-88.59444,15.727779999999997]}},{"type":"feature","properties":{"country_en":"Guatemala","name":"Ciudad de Guatemala","name_adm0":"Guatemala","name_adm1":"Guatemala","name_adm2":"Guatemala","name_en":"Guatemala City"},"geometry":{"type":"Point","coordinates":[-90.51327,14.640719999999998]}},{"type":"feature","properties":{"country_en":"Guatemala","name":"Antigua Guatemala","name_adm0":"Guatemala","name_adm1":"Sacatepequez","name_adm2":"Antigua Guatemala","name_en":"Antigua Guatemala"},"geometry":{"type":"Point","coordinates":[-90.73444,14.56111]}},{"type":"feature","properties":{"country_en":"Guatemala","name":"Cacabal","name_adm0":"Guatemala","name_adm1":"Quiche","name_adm2":"Zacualpa","name_en":"Cacabal"},"geometry":{"type":"Point","coordinates":[-90.96667,15.06667]}},{"type":"feature","properties":{"country_en":"Guatemala","name":"Calapté","name_adm0":"Guatemala","name_adm1":"San Marcos","name_adm2":"Tejutla","name_en":"Calapté"},"geometry":{"type":"Point","coordinates":[-91.85,15.149999999999999]}},{"type":"feature","properties":{"country_en":"Guatemala","name":"El Amatillo","name_adm0":"Guatemala","name_adm1":"Chiquimula","name_adm2":"Esquipulas","name_en":"El Amatillo"},"geometry":{"type":"Point","coordinates":[-89.23332999999998,14.733329999999999]}},{"type":"feature","properties":{"country_en":"Guatemala","name":"El Amparo","name_adm0":"Guatemala","name_adm1":"San Marcos","name_adm2":"El Tumbador","name_en":"El Amparo"},"geometry":{"type":"Point","coordinates":[-91.99999999999999,14.8]}},{"type":"feature","properties":{"country_en":"Guatemala","name":"El Barranquillo","name_adm0":"Guatemala","name_adm1":"El Progreso","name_adm2":"Sanarate","name_en":"El Barranquillo"},"geometry":{"type":"Point","coordinates":[-90.11667,14.8]}},{"type":"feature","properties":{"country_en":"Guatemala","name":"El Pomo","name_adm0":"Guatemala","name_adm1":"Izabal","name_adm2":"Puerto Barrios","name_en":"El Pomo"},"geometry":{"type":"Point","coordinates":[-88.56667,15.549999999999999]}},{"type":"feature","properties":{"country_en":"Guatemala","name":"El Progreso","name_adm0":"Guatemala","name_adm1":"Peten","name_adm2":"San Andrés","name_en":"El Progreso"},"geometry":{"type":"Point","coordinates":[-90.71667,18.01667]}},{"type":"feature","properties":{"country_en":"Guatemala","name":"El Progreso","name_adm0":"Guatemala","name_adm1":"Jutiapa","name_adm2":"El Progreso","name_en":"El Progreso"},"geometry":{"type":"Point","coordinates":[-90.36667,15.133329999999999]}},{"type":"feature","properties":{"country_en":"Guatemala","name":"Llano Grande","name_adm0":"Guatemala","name_adm1":"Jalapa","name_adm2":"Jalapa","name_en":"Llano Grande"},"geometry":{"type":"Point","coordinates":[-89.96667,14.616669999999997]}},{"type":"feature","properties":{"country_en":"Guatemala","name":"Los Amates","name_adm0":"Guatemala","name_adm1":"Baja Verapaz","name_adm2":"Salama","name_en":"Los Amates"},"geometry":{"type":"Point","coordinates":[-90.45,14.949999999999998]}},{"type":"feature","properties":{"country_en":"Guatemala","name":"Los Cerritos","name_adm0":"Guatemala","name_adm1":"Izabal","name_adm2":"Morales","name_en":"Los Cerritos"},"geometry":{"type":"Point","coordinates":[-88.79999999999998,15.399999999999999]}},{"type":"feature","properties":{"country_en":"Guatemala","name":"Nancinta","name_adm0":"Guatemala","name_adm1":"Santa Rosa","name_adm2":"Chiquimulilla","name_en":"Nancinta"},"geometry":{"type":"Point","coordinates":[-90.30222,14.03694]}},{"type":"feature","properties":{"country_en":"Guatemala","name":"Playitas","name_adm0":"Guatemala","name_adm1":"Izabal","name_adm2":"Morales","name_en":"Playitas"},"geometry":{"type":"Point","coordinates":[-88.81667,15.349999999999998]}},{"type":"feature","properties":{"country_en":"Guatemala","name":"Poza Verde","name_adm0":"Guatemala","name_adm1":"Escuintla","name_adm2":"Nueva Concepcion","name_en":"Poza Verde"},"geometry":{"type":"Point","coordinates":[-91.23333,14.16667]}},{"type":"feature","properties":{"country_en":"Guatemala","name":"Quebradas","name_adm0":"Guatemala","name_adm1":"Izabal","name_adm2":"Morales","name_en":"Quebradas"},"geometry":{"type":"Point","coordinates":[-88.76667,15.399999999999999]}},{"type":"feature","properties":{"country_en":"Guatemala","name":"San Esteban","name_adm0":"Guatemala","name_adm1":"Chiquimula","name_adm2":"Chiquimula","name_en":"San Esteban"},"geometry":{"type":"Point","coordinates":[-89.51667,14.749999999999998]}},{"type":"feature","properties":{"country_en":"Guatemala","name":"San Gaspar Ixchil","name_adm0":"Guatemala","name_adm1":"Huehuetenango","name_adm2":"San Gaspar Ixchil","name_en":"San Gaspar Ixchil"},"geometry":{"type":"Point","coordinates":[-91.71666999999998,15.383329999999999]}},{"type":"feature","properties":{"country_en":"Guatemala","name":"San Jorge","name_adm0":"Guatemala","name_adm1":"Zacapa","name_adm2":"Zacapa","name_en":"San Jorge"},"geometry":{"type":"Point","coordinates":[-89.58333,14.933329999999998]}},{"type":"feature","properties":{"country_en":"Guatemala","name":"San Juan de Arana","name_adm0":"Guatemala","name_adm1":"Santa Rosa","name_adm2":"Cuilapa","name_en":"San Juan de Arana"},"geometry":{"type":"Point","coordinates":[-90.33333,14.3]}},{"type":"feature","properties":{"country_en":"Guatemala","name":"San Rafael","name_adm0":"Guatemala","name_adm1":"Suchitepequez","name_adm2":"Mazatenango","name_en":"San Rafael"},"geometry":{"type":"Point","coordinates":[-91.53333,14.500000000000002]}},{"type":"feature","properties":{"country_en":"Guatemala","name":"San Sebastián Coatán","name_adm0":"Guatemala","name_adm1":"Huehuetenango","name_adm2":"San Sebastian Coatan","name_en":"S. Sebastian Coatan"},"geometry":{"type":"Point","coordinates":[-91.56666999999999,15.73333]}},{"type":"feature","properties":{"country_en":"Guatemala","name":"San Vicente","name_adm0":"Guatemala","name_adm1":"Zacapa","name_adm2":"Cabañas","name_en":"San Vicente"},"geometry":{"type":"Point","coordinates":[-89.75,14.900000000000002]}},{"type":"feature","properties":{"country_en":"Guatemala","name":"Santa Bárbara","name_adm0":"Guatemala","name_adm1":"Huehuetenango","name_adm2":"Santa Barbara","name_en":"Sta. Barbara"},"geometry":{"type":"Point","coordinates":[-91.55,14.883329999999999]}},{"type":"feature","properties":{"country_en":"Guatemala","name":"Santa Elena","name_adm0":"Guatemala","name_adm1":"Chiquimula","name_adm2":"Chiquimula","name_en":"Santa Elena"},"geometry":{"type":"Point","coordinates":[-89.5,14.71667]}},{"type":"feature","properties":{"country_en":"Guatemala","name":"Santa Rita","name_adm0":"Guatemala","name_adm1":"El Progreso","name_adm2":"Sansare","name_en":"Santa Rita"},"geometry":{"type":"Point","coordinates":[-90.01999999999998,14.851390000000002]}},{"type":"feature","properties":{"country_en":"Guatemala","name":"Shusho Abajo","name_adm0":"Guatemala","name_adm1":"Chiquimula","name_adm2":"Chiquimula","name_en":"Shusho Abajo"},"geometry":{"type":"Point","coordinates":[-89.55,14.81667]}},{"type":"feature","properties":{"country_en":"Guatemala","name":"Tectitán","name_adm0":"Guatemala","name_adm1":"Huehuetenango","name_adm2":"Tectitan","name_en":"Tectitán"},"geometry":{"type":"Point","coordinates":[-92.03333,15.33333]}},{"type":"feature","properties":{"country_en":"Guatemala","name":"Tiucal","name_adm0":"Guatemala","name_adm1":"Jutiapa","name_adm2":"Asuncion Mita","name_en":"Tiucal"},"geometry":{"type":"Point","coordinates":[-89.72443999999999,14.28444]}},{"type":"feature","properties":{"country_en":"Guatemala","name":"Trapiche Grande","name_adm0":"Guatemala","name_adm1":"Guatemala","name_adm2":"Chuarrancho","name_en":"Trapiche Grande"},"geometry":{"type":"Point","coordinates":[-90.46667,14.849999999999998]}},{"type":"feature","properties":{"country_en":"Guatemala","name":"Tulumaje","name_adm0":"Guatemala","name_adm1":"El Progreso","name_adm2":"San Agustin Acasaguastlan","name_en":"Tulumaje"},"geometry":{"type":"Point","coordinates":[-90.03333,14.933329999999998]}},{"type":"feature","properties":{"country_en":"Guatemala","name":"Tulumajillo","name_adm0":"Guatemala","name_adm1":"El Progreso","name_adm2":"San Agustin Acasaguastlan","name_en":"Tulumajillo"},"geometry":{"type":"Point","coordinates":[-90.05,14.933329999999998]}},{"type":"feature","properties":{"country_en":"Guatemala","name":"Vuelta Grande","name_adm0":"Guatemala","name_adm1":"Guatemala","name_adm2":"Chuarrancho","name_en":"Vuelta Grande"},"geometry":{"type":"Point","coordinates":[-90.53333,14.81667]}},{"type":"feature","properties":{"country_en":"Guatemala","name":"San José la Arada","name_adm0":"Guatemala","name_adm1":"Chiquimula","name_adm2":"San José la Arada","name_en":"San José la Arada"},"geometry":{"type":"Point","coordinates":[-89.536857,14.617999999999999]}},{"type":"feature","properties":{"country_en":"Guatemala","name":"San Miguel Acatan","name_adm0":"Guatemala","name_adm1":"Huehuetenango","name_adm2":"San Miguel Acatan","name_en":"San Miguel Acatan"},"geometry":{"type":"Point","coordinates":[-91.55593799999998,15.474856999999998]}},{"type":"feature","properties":{"country_en":"Guatemala","name":"Concepcion Tutuapa","name_adm0":"Guatemala","name_adm1":"San Marcos","name_adm2":"Concepcion Tutuapa","name_en":"Concepcion Tutuapa"},"geometry":{"type":"Point","coordinates":[-91.904754,15.043777]}},{"type":"feature","properties":{"country_en":"Guatemala","name":"San Juan Tecuaco","name_adm0":"Guatemala","name_adm1":"Santa Rosa","name_adm2":"San Juan Tecuaco","name_en":"San Juan Tecuaco"},"geometry":{"type":"Point","coordinates":[-90.380947,13.86433]}},{"type":"feature","properties":{"country_en":"Guatemala","name":"San Pedro Sacatepéquez","name_adm0":"Guatemala","name_adm1":"Guatemala","name_adm2":"San Pedro Sacatepéquez","name_en":"San Pedro Sacatepéquez"},"geometry":{"type":"Point","coordinates":[-90.582275,14.671282]}},{"type":"feature","properties":{"country_en":"Guatemala","name":"Agua Caliente","name_adm0":"Guatemala","name_adm1":"Chiquimula","name_adm2":"Concepción Las Minas","name_en":"Agua Caliente"},"geometry":{"type":"Point","coordinates":[-89.48333,14.46667]}},{"type":"feature","properties":{"country_en":"Guatemala","name":"San Antonio Palopó","name_adm0":"Guatemala","name_adm1":"Solola","name_adm2":"San Antonio Palopo","name_en":"S. Antonio Palopo"},"geometry":{"type":"Point","coordinates":[-91.11667,14.699999999999998]}},{"type":"feature","properties":{"country_en":"Guatemala","name":"Ciudad Vieja","name_adm0":"Guatemala","name_adm1":"Sacatepequez","name_adm2":"Ciudad Vieja","name_en":"Ciudad Vieja"},"geometry":{"type":"Point","coordinates":[-90.75971999999999,14.52639]}},{"type":"feature","properties":{"country_en":"Guatemala","name":"Las Victorias","name_adm0":"Guatemala","name_adm1":"Guatemala","name_adm2":"Guatemala","name_en":"Las Victorias"},"geometry":{"type":"Point","coordinates":[-90.5,14.63333]}},{"type":"feature","properties":{"country_en":"Guatemala","name":"San Martín Jilotepeque","name_adm0":"Guatemala","name_adm1":"Chimaltenango","name_adm2":"San Martin Jilotepeque","name_en":"S. Martin Jilotepeque"},"geometry":{"type":"Point","coordinates":[-90.7925,14.78778]}},{"type":"feature","properties":{"country_en":"Guatemala","name":"San Juan Sacatepéquez","name_adm0":"Guatemala","name_adm1":"Guatemala","name_adm2":"San Juan Sacatepéquez","name_en":"San Juan Sacatepéquez"},"geometry":{"type":"Point","coordinates":[-90.64417,14.71889]}},{"type":"feature","properties":{"country_en":"Guatemala","name":"San Jorge la Laguna","name_adm0":"Guatemala","name_adm1":"Solola","name_adm2":"Solola","name_en":"San Jorge la Laguna"},"geometry":{"type":"Point","coordinates":[-91.16667,14.749999999999998]}},{"type":"feature","properties":{"country_en":"Guatemala","name":"Modesto Méndez","name_adm0":"Guatemala","name_adm1":"Izabal","name_adm2":"Livingston","name_en":"Modesto Méndez"},"geometry":{"type":"Point","coordinates":[-89.21667,15.88333]}},{"type":"feature","properties":{"country_en":"Guatemala","name":"Mataquescuintla","name_adm0":"Guatemala","name_adm1":"Jalapa","name_adm2":"Mataquescuintla","name_en":"Mataquescuintla"},"geometry":{"type":"Point","coordinates":[-90.18417,14.529169999999999]}},{"type":"feature","properties":{"country_en":"Guatemala","name":"La Esperanza","name_adm0":"Guatemala","name_adm1":"Quetzaltenango","name_adm2":"Coatepeque","name_en":"La Esperanza"},"geometry":{"type":"Point","coordinates":[-92.03,14.67194]}},{"type":"feature","properties":{"country_en":"Guatemala","name":"La Fragua","name_adm0":"Guatemala","name_adm1":"Zacapa","name_adm2":"Zacapa","name_en":"La Fragua"},"geometry":{"type":"Point","coordinates":[-89.55,14.96667]}},{"type":"feature","properties":{"country_en":"Guatemala","name":"Los Limones","name_adm0":"Guatemala","name_adm1":"San Marcos","name_adm2":"Ocos","name_en":"Los Limones"},"geometry":{"type":"Point","coordinates":[-92.81815,15.23741]}},{"type":"feature","properties":{"country_en":"Guatemala","name":"San Jerónimo","name_adm0":"Guatemala","name_adm1":"San Marcos","name_adm2":"El Tumbador","name_en":"S. Jeronimo"},"geometry":{"type":"Point","coordinates":[-92.1369,15.04056]}},{"type":"feature","properties":{"country_en":"Guatemala","name":"Nebaj","name_adm0":"Guatemala","name_adm1":"Quiche","name_adm2":"Nebaj","name_en":"Nebaj"},"geometry":{"type":"Point","coordinates":[-91.153689,15.456186]}},{"type":"feature","properties":{"country_en":"Guatemala","name":"Carmelita","name_adm0":"Guatemala","name_adm1":"Peten","name_adm2":"San Andrés","name_en":"Carmelita"},"geometry":{"type":"Point","coordinates":[-90.05634,17.46216]}},{"type":"feature","properties":{"country_en":"Guatemala","name":"Sacapulas","name_adm0":"Guatemala","name_adm1":"Quiche","name_adm2":"Sacapulas","name_en":"Sacapulas"},"geometry":{"type":"Point","coordinates":[-91.120605,15.320126]}},{"type":"feature","properties":{"country_en":"Guatemala","name":"Zunil","name_adm0":"Guatemala","name_adm1":"Quetzaltenango","name_adm2":"Zunil","name_en":"Zunil"},"geometry":{"type":"Point","coordinates":[-91.546239,14.769041]}},{"type":"feature","properties":{"country_en":"Guatemala","name":"Tactic","name_adm0":"Guatemala","name_adm1":"Alta Verapaz","name_adm2":"Tactic","name_en":"Tactic"},"geometry":{"type":"Point","coordinates":[-90.301094,15.331041]}},{"type":"feature","properties":{"country_en":"Guatemala","name":"Zacapa","name_adm0":"Guatemala","name_adm1":"Zacapa","name_adm2":"Zacapa","name_en":"Zacapa"},"geometry":{"type":"Point","coordinates":[-89.5028685,14.980606]}},{"type":"feature","properties":{"country_en":"Guatemala","name":"Tucurú","name_adm0":"Guatemala","name_adm1":"Alta Verapaz","name_adm2":"Tucuru","name_en":"Tucurú"},"geometry":{"type":"Point","coordinates":[-90.06667,15.299999999999999]}},{"type":"feature","properties":{"country_en":"Guatemala","name":"Tacaná","name_adm0":"Guatemala","name_adm1":"San Marcos","name_adm2":"Tacana","name_en":"Tacaná"},"geometry":{"type":"Point","coordinates":[-92.08333,15.233329999999999]}},{"type":"feature","properties":{"country_en":"Guatemala","name":"Santa Lucia Utatlan","name_adm0":"Guatemala","name_adm1":"Solola","name_adm2":"Santa Lucia Utatlan","name_en":"Santa Lucia Utatlan"},"geometry":{"type":"Point","coordinates":[-91.301879,14.748323]}},{"type":"feature","properties":{"country_en":"Guatemala","name":"San José Pinula","name_adm0":"Guatemala","name_adm1":"Guatemala","name_adm2":"San José Pinula","name_en":"S. Jose Pinula"},"geometry":{"type":"Point","coordinates":[-90.41138999999998,14.54611]}},{"type":"feature","properties":{"country_en":"Guatemala","name":"Purulhá","name_adm0":"Guatemala","name_adm1":"Baja Verapaz","name_adm2":"Purulha","name_en":"Purulhá"},"geometry":{"type":"Point","coordinates":[-90.2,15.266669999999998]}},{"type":"feature","properties":{"country_en":"Guatemala","name":"El Progreso","name_adm0":"Guatemala","name_adm1":"Jutiapa","name_adm2":"El Progreso","name_en":"El Progreso"},"geometry":{"type":"Point","coordinates":[-89.55779949999999,14.559432]}},{"type":"feature","properties":{"country_en":"Guatemala","name":"Quiriguá","name_adm0":"Guatemala","name_adm1":"Izabal","name_adm2":"Los Amates","name_en":"Quiriguá"},"geometry":{"type":"Point","coordinates":[-89.08332999999999,15.266669999999998]}},{"type":"feature","properties":{"country_en":"Guatemala","name":"Sansare","name_adm0":"Guatemala","name_adm1":"El Progreso","name_adm2":"Sansare","name_en":"Sansare"},"geometry":{"type":"Point","coordinates":[-90.1125,14.74722]}},{"type":"feature","properties":{"country_en":"Guatemala","name":"Sanarate","name_adm0":"Guatemala","name_adm1":"El Progreso","name_adm2":"Sanarate","name_en":"Sanarate"},"geometry":{"type":"Point","coordinates":[-90.19222,14.794999999999998]}},{"type":"feature","properties":{"country_en":"Guatemala","name":"Esquipulas","name_adm0":"Guatemala","name_adm1":"Chiquimula","name_adm2":"Esquipulas","name_en":"Esquipulas"},"geometry":{"type":"Point","coordinates":[-89.35,14.56667]}},{"type":"feature","properties":{"country_en":"Guatemala","name":"Nebaj","name_adm0":"Guatemala","name_adm1":"Quiche","name_adm2":"Nebaj","name_en":"Nebaj"},"geometry":{"type":"Point","coordinates":[-91.14611,15.405829999999998]}},{"type":"feature","properties":{"country_en":"Guatemala","name":"San Lucas Tolimán","name_adm0":"Guatemala","name_adm1":"Solola","name_adm2":"San Lucas Toliman","name_en":"S. Lucas Toliman"},"geometry":{"type":"Point","coordinates":[-91.13333,14.63333]}},{"type":"feature","properties":{"country_en":"Guatemala","name":"San Juan la Laguna","name_adm0":"Guatemala","name_adm1":"Solola","name_adm2":"San Juan la Laguna","name_en":"San Juan la Laguna"},"geometry":{"type":"Point","coordinates":[-91.28332999999999,14.699999999999998]}},{"type":"feature","properties":{"country_en":"Guatemala","name":"San Francisco El Alto","name_adm0":"Guatemala","name_adm1":"Totonicapan","name_adm2":"San Francisco El Alto","name_en":"San Francisco El Alto"},"geometry":{"type":"Point","coordinates":[-91.45,14.949999999999998]}},{"type":"feature","properties":{"country_en":"Guatemala","name":"El Cielo","name_adm0":"Guatemala","name_adm1":"San Marcos","name_adm2":"El Tumbador","name_en":"El Cielo"},"geometry":{"type":"Point","coordinates":[-91.99999999999999,14.81667]}},{"type":"feature","properties":{"country_en":"Guatemala","name":"El Cinchado","name_adm0":"Guatemala","name_adm1":"Izabal","name_adm2":"Puerto Barrios","name_en":"El Cinchado"},"geometry":{"type":"Point","coordinates":[-88.43333,15.61667]}},{"type":"feature","properties":{"country_en":"Guatemala","name":"El Naranjo","name_adm0":"Guatemala","name_adm1":"Peten","name_adm2":"La Libertad","name_en":"El Naranjo"},"geometry":{"type":"Point","coordinates":[-90.80446,17.23194]}},{"type":"feature","properties":{"country_en":"Guatemala","name":"El Rancho","name_adm0":"Guatemala","name_adm1":"Solola","name_adm2":"Solola","name_en":"El Rancho"},"geometry":{"type":"Point","coordinates":[-91.15,14.866669999999997]}},{"type":"feature","properties":{"country_en":"Guatemala","name":"Granados","name_adm0":"Guatemala","name_adm1":"Baja Verapaz","name_adm2":"Granados","name_en":"Granados"},"geometry":{"type":"Point","coordinates":[-90.52278,14.91361]}},{"type":"feature","properties":{"country_en":"Guatemala","name":"Nentón","name_adm0":"Guatemala","name_adm1":"Huehuetenango","name_adm2":"Nentan","name_en":"Nentón"},"geometry":{"type":"Point","coordinates":[-91.75,15.799999999999999]}},{"type":"feature","properties":{"country_en":"Guatemala","name":"Santa Eulalia","name_adm0":"Guatemala","name_adm1":"Huehuetenango","name_adm2":"Santa Eulalia","name_en":"Santa Eulalia"},"geometry":{"type":"Point","coordinates":[-91.45694,15.73306]}},{"type":"feature","properties":{"country_en":"Guatemala","name":"San Mateo Ixtatán","name_adm0":"Guatemala","name_adm1":"Huehuetenango","name_adm2":"San Mateo Ixtatan","name_en":"San Mateo Ixtatán"},"geometry":{"type":"Point","coordinates":[-91.47806,15.83194]}},{"type":"feature","properties":{"country_en":"Guatemala","name":"Pachalém","name_adm0":"Guatemala","name_adm1":"Quiche","name_adm2":"Joyabaj","name_en":"Pachalém"},"geometry":{"type":"Point","coordinates":[-90.66278,14.924719999999999]}},{"type":"feature","properties":{"country_en":"Guatemala","name":"Nebaj","name_adm0":"Guatemala","name_adm1":"Quiche","name_adm2":"Nebaj","name_en":"Nebaj"},"geometry":{"type":"Point","coordinates":[-91.14611,15.405829999999998]}},{"type":"feature","properties":{"country_en":"Guatemala","name":"Uspantán","name_adm0":"Guatemala","name_adm1":"Quiche","name_adm2":"Chicaman","name_en":"Uspantán"},"geometry":{"type":"Point","coordinates":[-90.83333,15.383329999999999]}},{"type":"feature","properties":{"country_en":"Guatemala","name":"Cucajol","name_adm0":"Guatemala","name_adm1":"El Progreso","name_adm2":"San Antonio la Paz","name_en":"Cucajol"},"geometry":{"type":"Point","coordinates":[-90.33333,14.8]}},{"type":"feature","properties":{"country_en":"Guatemala","name":"Santa Barbara","name_adm0":"Guatemala","name_adm1":"Huehuetenango","name_adm2":"Santa Barbara","name_en":"Santa Barbara"},"geometry":{"type":"Point","coordinates":[-91.61666999999998,15.316670000000002]}},{"type":"feature","properties":{"country_en":"Guatemala","name":"San Lorenzo","name_adm0":"Guatemala","name_adm1":"San Marcos","name_adm2":"San Lorenzo","name_en":"San Lorenzo"},"geometry":{"type":"Point","coordinates":[-91.73333,15.03333]}},{"type":"feature","properties":{"country_en":"Guatemala","name":"Isabelita","name_adm0":"Guatemala","name_adm1":"Peten","name_adm2":"San Andrés","name_en":"Isabelita"},"geometry":{"type":"Point","coordinates":[-90.20319,17.57933]}},{"type":"feature","properties":{"country_en":"Guatemala","name":"San Andrés Semetabaj","name_adm0":"Guatemala","name_adm1":"Solola","name_adm2":"San Andrés Semetabaj","name_en":"San Andrés Semetabaj"},"geometry":{"type":"Point","coordinates":[-91.093139,14.727073]}},{"type":"feature","properties":{"country_en":"Guatemala","name":"La Mesía","name_adm0":"Guatemala","name_adm1":"Huehuetenango","name_adm2":"La Libertad","name_en":"La Mesía"},"geometry":{"type":"Point","coordinates":[-91.98333,15.61667]}},{"type":"feature","properties":{"country_en":"Guatemala","name":"La Gomera","name_adm0":"Guatemala","name_adm1":"Escuintla","name_adm2":"La Gomera","name_en":"La Gomera"},"geometry":{"type":"Point","coordinates":[-91.016235,13.960723]}},{"type":"feature","properties":{"country_en":"Guatemala","name":"Tucuru","name_adm0":"Guatemala","name_adm1":"Alta Verapaz","name_adm2":"Tucuru","name_en":"Tucuru"},"geometry":{"type":"Point","coordinates":[-90.109863,15.276235999999999]}},{"type":"feature","properties":{"country_en":"Guatemala","name":"San Marcos la Laguna","name_adm0":"Guatemala","name_adm1":"Solola","name_adm2":"San Marcos la Laguna","name_en":"San Marcos la Laguna"},"geometry":{"type":"Point","coordinates":[-91.257934,14.72533]}},{"type":"feature","properties":{"country_en":"Guatemala","name":"Mixco","name_adm0":"Guatemala","name_adm1":"Guatemala","name_adm2":"Mixco","name_en":"Mixco"},"geometry":{"type":"Point","coordinates":[-90.565795,14.660653999999997]}},{"type":"feature","properties":{"country_en":"Guatemala","name":"Melchor de Mencos","name_adm0":"Guatemala","name_adm1":"Peten","name_adm2":"Melchor de Mencos","name_en":"Melchor de Mencos"},"geometry":{"type":"Point","coordinates":[-89.260826,17.172938]}},{"type":"feature","properties":{"country_en":"Guatemala","name":"Flores","name_adm0":"Guatemala","name_adm1":"Peten","name_adm2":"Flores","name_en":"Flores"},"geometry":{"type":"Point","coordinates":[-89.67041,17.101416999999998]}},{"type":"feature","properties":{"country_en":"Guatemala","name":"Quetzaltenango","name_adm0":"Guatemala","name_adm1":"Quetzaltenango","name_adm2":"Quetzaltenango","name_en":"Quetzaltenango"},"geometry":{"type":"Point","coordinates":[-91.55126,14.787777]}},{"type":"feature","properties":{"country_en":"Guatemala","name":"Chichicastenango","name_adm0":"Guatemala","name_adm1":"Quiche","name_adm2":"Chichicastenango","name_en":"Chichicastenango"},"geometry":{"type":"Point","coordinates":[-91.134338,14.947437999999998]}},{"type":"feature","properties":{"country_en":"Guatemala","name":"El Asintal","name_adm0":"Guatemala","name_adm1":"Retalhuleu","name_adm2":"El Asintal","name_en":"El Asintal"},"geometry":{"type":"Point","coordinates":[-91.730346,14.623450999999998]}},{"type":"feature","properties":{"country_en":"Guatemala","name":"San Miguel Dueñas","name_adm0":"Guatemala","name_adm1":"Sacatepequez","name_adm2":"San Miguel Dueñas","name_en":"San Miguel Dueñas"},"geometry":{"type":"Point","coordinates":[-90.872039,14.504823]}},{"type":"feature","properties":{"country_en":"Guatemala","name":"Ciudad Vieja","name_adm0":"Guatemala","name_adm1":"Sacatepequez","name_adm2":"Ciudad Vieja","name_en":"Ciudad Vieja"},"geometry":{"type":"Point","coordinates":[-90.754211,14.493987]}},{"type":"feature","properties":{"country_en":"Guatemala","name":"San Juan la Laguna","name_adm0":"Guatemala","name_adm1":"Solola","name_adm2":"San Juan la Laguna","name_en":"San Juan la Laguna"},"geometry":{"type":"Point","coordinates":[-91.329345,14.636737999999998]}},{"type":"feature","properties":{"country_en":"Guatemala","name":"Zaragoza","name_adm0":"Guatemala","name_adm1":"Chimaltenango","name_adm2":"Zaragoza","name_en":"Zaragoza"},"geometry":{"type":"Point","coordinates":[-90.92010399999998,14.724417]}},{"type":"feature","properties":{"country_en":"Guatemala","name":"Santa Catarina Pinula","name_adm0":"Guatemala","name_adm1":"Guatemala","name_adm2":"Santa Catarina Pinula","name_en":"Santa Catarina Pinula"},"geometry":{"type":"Point","coordinates":[-90.450139,14.541318999999998]}},{"type":"feature","properties":{"country_en":"Guatemala","name":"San José la Arada","name_adm0":"Guatemala","name_adm1":"Chiquimula","name_adm2":"San José la Arada","name_en":"S. Jose la Arada"},"geometry":{"type":"Point","coordinates":[-89.58333,14.71667]}},{"type":"feature","properties":{"country_en":"Guatemala","name":"Monjas","name_adm0":"Guatemala","name_adm1":"Jalapa","name_adm2":"Monjas","name_en":"Monjas"},"geometry":{"type":"Point","coordinates":[-89.86667,14.500000000000002]}},{"type":"feature","properties":{"country_en":"Guatemala","name":"Momostenango","name_adm0":"Guatemala","name_adm1":"Totonicapan","name_adm2":"Momostenango","name_en":"Momostenango"},"geometry":{"type":"Point","coordinates":[-91.40861,15.04361]}},{"type":"feature","properties":{"country_en":"Guatemala","name":"La Democracia","name_adm0":"Guatemala","name_adm1":"Escuintla","name_adm2":"La Democracia","name_en":"La Democracia"},"geometry":{"type":"Point","coordinates":[-90.94721999999999,14.230829999999997]}},{"type":"feature","properties":{"country_en":"Guatemala","name":"Joyabaj","name_adm0":"Guatemala","name_adm1":"Quiche","name_adm2":"Joyabaj","name_en":"Joyabaj"},"geometry":{"type":"Point","coordinates":[-90.80611,14.995]}},{"type":"feature","properties":{"country_en":"Guatemala","name":"Dolores","name_adm0":"Guatemala","name_adm1":"Peten","name_adm2":"Dolores","name_en":"Dolores"},"geometry":{"type":"Point","coordinates":[-89.1180435,16.762941]}},{"type":"feature","properties":{"country_en":"Guatemala","name":"Atescatempa","name_adm0":"Guatemala","name_adm1":"Jutiapa","name_adm2":"Atescatempa","name_en":"Atescatempa"},"geometry":{"type":"Point","coordinates":[-89.55779949999999,14.559432]}},{"type":"feature","properties":{"country_en":"Guatemala","name":"Chimaltenango","name_adm0":"Guatemala","name_adm1":"Chimaltenango","name_adm2":"Chimaltenango","name_en":"Chimaltenango"},"geometry":{"type":"Point","coordinates":[-90.821777,14.665967999999998]}},{"type":"feature","properties":{"country_en":"Guatemala","name":"Santa Clara la Laguna","name_adm0":"Guatemala","name_adm1":"Solola","name_adm2":"Santa Clara la Laguna","name_en":"Santa Clara la Laguna"},"geometry":{"type":"Point","coordinates":[-91.295013,14.6998435]}},{"type":"feature","properties":{"country_en":"Guatemala","name":"Rabinal","name_adm0":"Guatemala","name_adm1":"Baja Verapaz","name_adm2":"Rabinal","name_en":"Rabinal"},"geometry":{"type":"Point","coordinates":[-90.44794999999999,15.069056999999999]}},{"type":"feature","properties":{"country_en":"Guatemala","name":"Tecpan Guatemala","name_adm0":"Guatemala","name_adm1":"Chimaltenango","name_adm2":"Tecpan Guatemala","name_en":"Tecpan Guatemala"},"geometry":{"type":"Point","coordinates":[-91.0342085,14.802766]}},{"type":"feature","properties":{"country_en":"Guatemala","name":"San Vicente Pacaya","name_adm0":"Guatemala","name_adm1":"Escuintla","name_adm2":"San Vicente Pacaya","name_en":"San Vicente Pacaya"},"geometry":{"type":"Point","coordinates":[-90.60218799999998,14.3791895]}},{"type":"feature","properties":{"country_en":"Guatemala","name":"San Francisco El Alto","name_adm0":"Guatemala","name_adm1":"Totonicapan","name_adm2":"San Francisco El Alto","name_en":"San Francisco El Alto"},"geometry":{"type":"Point","coordinates":[-91.477661,14.98494]}},{"type":"feature","properties":{"country_en":"Guatemala","name":"Colomba","name_adm0":"Guatemala","name_adm1":"Quetzaltenango","name_adm2":"Colomba","name_en":"Colomba"},"geometry":{"type":"Point","coordinates":[-91.71935999999998,14.764259]}},{"type":"feature","properties":{"country_en":"Guatemala","name":"Retalhuleu","name_adm0":"Guatemala","name_adm1":"Retalhuleu","name_adm2":"Retalhuleu","name_en":"Retalhuleu"},"geometry":{"type":"Point","coordinates":[-91.67778,14.536110000000003]}},{"type":"feature","properties":{"country_en":"Guatemala","name":"Quetzaltenango","name_adm0":"Guatemala","name_adm1":"Quetzaltenango","name_adm2":"Quetzaltenango","name_en":"Quetzaltenango"},"geometry":{"type":"Point","coordinates":[-91.51805999999999,14.834719999999999]}},{"type":"feature","properties":{"country_en":"Guatemala","name":"Chimaltenango","name_adm0":"Guatemala","name_adm1":"Chimaltenango","name_adm2":"Chimaltenango","name_en":"Chimaltenango"},"geometry":{"type":"Point","coordinates":[-90.81944,14.66111]}},{"type":"feature","properties":{"country_en":"Guatemala","name":"San Miguel Panán","name_adm0":"Guatemala","name_adm1":"Suchitepequez","name_adm2":"San Miguel Panan","name_en":"S. Miguel Panan"},"geometry":{"type":"Point","coordinates":[-91.36667,14.533329999999998]}},{"type":"feature","properties":{"country_en":"Guatemala","name":"Cuilco","name_adm0":"Guatemala","name_adm1":"Huehuetenango","name_adm2":"Cuilco","name_en":"Cuilco"},"geometry":{"type":"Point","coordinates":[-91.96667,15.399999999999999]}},{"type":"feature","properties":{"country_en":"Guatemala","name":"La Libertad","name_adm0":"Guatemala","name_adm1":"Huehuetenango","name_adm2":"La Democracia","name_en":"La Libertad"},"geometry":{"type":"Point","coordinates":[-91.83333,15.499999999999998]}},{"type":"feature","properties":{"country_en":"Guatemala","name":"San Pedro Necta","name_adm0":"Guatemala","name_adm1":"Huehuetenango","name_adm2":"Santiago Chimaltenango","name_en":"San Pedro Necta"},"geometry":{"type":"Point","coordinates":[-91.76667,15.499999999999998]}},{"type":"feature","properties":{"country_en":"Guatemala","name":"Santiago Chimaltenango","name_adm0":"Guatemala","name_adm1":"Huehuetenango","name_adm2":"Todos Santos Cuchumatan","name_en":"Santiago Chimaltenango"},"geometry":{"type":"Point","coordinates":[-91.71666999999998,15.46667]}},{"type":"feature","properties":{"country_en":"Guatemala","name":"San Carlos Alzatate","name_adm0":"Guatemala","name_adm1":"Jalapa","name_adm2":"San Carlos Alzatate","name_en":"San Carlos Alzatate"},"geometry":{"type":"Point","coordinates":[-90.06028,14.49778]}},{"type":"feature","properties":{"country_en":"Guatemala","name":"San Miguel Aroche","name_adm0":"Guatemala","name_adm1":"Santa Rosa","name_adm2":"Taxisco","name_en":"San Miguel Aroche"},"geometry":{"type":"Point","coordinates":[-90.51666999999999,14.05]}},{"type":"feature","properties":{"country_en":"Guatemala","name":"Santa Lucía","name_adm0":"Guatemala","name_adm1":"Zacapa","name_adm2":"Zacapa","name_en":"Sta. Lucia"},"geometry":{"type":"Point","coordinates":[-89.51667,14.916670000000002]}},{"type":"feature","properties":{"country_en":"Guatemala","name":"Santa María Cauqué","name_adm0":"Guatemala","name_adm1":"Sacatepequez","name_adm2":"Santiago Sacatepequez","name_en":"Sta. Maria Cauque"},"geometry":{"type":"Point","coordinates":[-90.7,14.63333]}},{"type":"feature","properties":{"country_en":"Guatemala","name":"Santa Rosalía","name_adm0":"Guatemala","name_adm1":"Zacapa","name_adm2":"Rio Hondo","name_en":"Santa Rosalía"},"geometry":{"type":"Point","coordinates":[-89.63333,15.099999999999998]}},{"type":"feature","properties":{"country_en":"Guatemala","name":"Cayuga","name_adm0":"Guatemala","name_adm1":"Izabal","name_adm2":"Morales","name_en":"Cayuga"},"geometry":{"type":"Point","coordinates":[-88.69999999999999,15.53333]}},{"type":"feature","properties":{"country_en":"Guatemala","name":"Cerro Gordo","name_adm0":"Guatemala","name_adm1":"Santa Rosa","name_adm2":"Santa Rosa de Lima","name_en":"Cerro Gordo"},"geometry":{"type":"Point","coordinates":[-90.11778,13.97556]}},{"type":"feature","properties":{"country_en":"Guatemala","name":"Chuicabal","name_adm0":"Guatemala","name_adm1":"Quetzaltenango","name_adm2":"Sibilia","name_en":"Chuicabal"},"geometry":{"type":"Point","coordinates":[-91.66666999999998,14.983329999999999]}},{"type":"feature","properties":{"country_en":"Guatemala","name":"El Edén","name_adm0":"Guatemala","name_adm1":"Quetzaltenango","name_adm2":"Palestina de Los Altos","name_en":"El Edén"},"geometry":{"type":"Point","coordinates":[-91.66666999999998,14.949999999999998]}},{"type":"feature","properties":{"country_en":"Guatemala","name":"La Ceiba","name_adm0":"Guatemala","name_adm1":"Solola","name_adm2":"Santa Catarina Ixtahuacan","name_en":"La Ceiba"},"geometry":{"type":"Point","coordinates":[-91.45,14.599999999999998]}},{"type":"feature","properties":{"country_en":"Guatemala","name":"La Conquista","name_adm0":"Guatemala","name_adm1":"San Marcos","name_adm2":"Nuevo Progreso","name_en":"La Conquista"},"geometry":{"type":"Point","coordinates":[-91.86667,14.81667]}},{"type":"feature","properties":{"country_en":"Guatemala","name":"La Democracia","name_adm0":"Guatemala","name_adm1":"Quetzaltenango","name_adm2":"Coatepeque","name_en":"La Democracia"},"geometry":{"type":"Point","coordinates":[-91.98333,14.616669999999997]}},{"type":"feature","properties":{"country_en":"Guatemala","name":"La Democracia","name_adm0":"Guatemala","name_adm1":"San Marcos","name_adm2":"El Tumbador","name_en":"La Democracia"},"geometry":{"type":"Point","coordinates":[-92.01667,14.81667]}},{"type":"feature","properties":{"country_en":"Guatemala","name":"La Ensenada","name_adm0":"Guatemala","name_adm1":"Izabal","name_adm2":"El Estor","name_en":"La Ensenada"},"geometry":{"type":"Point","coordinates":[-89.18332999999998,15.58333]}},{"type":"feature","properties":{"country_en":"Guatemala","name":"Zanjón San Lorenzo","name_adm0":"Guatemala","name_adm1":"San Marcos","name_adm2":"Ayutla","name_en":"Zanjon S. Lorenzo"},"geometry":{"type":"Point","coordinates":[-92.09999999999998,14.766670000000001]}},{"type":"feature","properties":{"country_en":"Guatemala","name":"Amatitlán","name_adm0":"Guatemala","name_adm1":"Guatemala","name_adm2":"Amatitlan","name_en":"Amatitlán"},"geometry":{"type":"Point","coordinates":[-90.61527999999998,14.487500000000002]}},{"type":"feature","properties":{"country_en":"Guatemala","name":"Puerta Parada","name_adm0":"Guatemala","name_adm1":"Guatemala","name_adm2":"Santa Catarina Pinula","name_en":"Puerta Parada"},"geometry":{"type":"Point","coordinates":[-90.46667,14.56667]}},{"type":"feature","properties":{"country_en":"Guatemala","name":"Rabinal","name_adm0":"Guatemala","name_adm1":"Baja Verapaz","name_adm2":"Rabinal","name_en":"Rabinal"},"geometry":{"type":"Point","coordinates":[-90.45,15.099999999999998]}},{"type":"feature","properties":{"country_en":"Guatemala","name":"Panajachel","name_adm0":"Guatemala","name_adm1":"Solola","name_adm2":"Panajachel","name_en":"Panajachel"},"geometry":{"type":"Point","coordinates":[-91.15,14.733329999999999]}},{"type":"feature","properties":{"country_en":"Guatemala","name":"San Marcos la Laguna","name_adm0":"Guatemala","name_adm1":"Solola","name_adm2":"San Marcos la Laguna","name_en":"San Marcos la Laguna"},"geometry":{"type":"Point","coordinates":[-91.26667,14.71667]}},{"type":"feature","properties":{"country_en":"Guatemala","name":"Santa María de Jesús","name_adm0":"Guatemala","name_adm1":"Sacatepequez","name_adm2":"Santa Maria de Jesus","name_en":"Santa María de Jesús"},"geometry":{"type":"Point","coordinates":[-90.72667,14.518329999999999]}},{"type":"feature","properties":{"country_en":"Guatemala","name":"Santa Cruz Muluá","name_adm0":"Guatemala","name_adm1":"Retalhuleu","name_adm2":"Santa Cruz Mulua","name_en":"Sta. Cruz Mulua"},"geometry":{"type":"Point","coordinates":[-91.61666999999998,14.583329999999998]}},{"type":"feature","properties":{"country_en":"Guatemala","name":"Santa Cruz la Laguna","name_adm0":"Guatemala","name_adm1":"Solola","name_adm2":"Santa Cruz la Laguna","name_en":"Santa Cruz la Laguna"},"geometry":{"type":"Point","coordinates":[-91.21667,14.749999999999998]}},{"type":"feature","properties":{"country_en":"Guatemala","name":"San Pedro Sacatepéquez","name_adm0":"Guatemala","name_adm1":"San Marcos","name_adm2":"San Pedro Sacatepéquez","name_en":"S. Pedro Sacatepequez"},"geometry":{"type":"Point","coordinates":[-91.76667,14.96667]}},{"type":"feature","properties":{"country_en":"Guatemala","name":"San Miguel Chicaj","name_adm0":"Guatemala","name_adm1":"Baja Verapaz","name_adm2":"San Miguel Chicaj","name_en":"San Miguel Chicaj"},"geometry":{"type":"Point","coordinates":[-90.4,15.099999999999998]}},{"type":"feature","properties":{"country_en":"Guatemala","name":"San Pedro Carchá","name_adm0":"Guatemala","name_adm1":"Alta Verapaz","name_adm2":"San Pedro Carcha","name_en":"San Pedro Carchá"},"geometry":{"type":"Point","coordinates":[-90.26667,15.483329999999999]}},{"type":"feature","properties":{"country_en":"Guatemala","name":"Santa Elena Barillas","name_adm0":"Guatemala","name_adm1":"Guatemala","name_adm2":"Villa Canales","name_en":"Santa Elena Barillas"},"geometry":{"type":"Point","coordinates":[-90.54444,14.404999999999998]}},{"type":"feature","properties":{"country_en":"Guatemala","name":"Santa Eulalia","name_adm0":"Guatemala","name_adm1":"Huehuetenango","name_adm2":"Santa Eulalia","name_en":"Santa Eulalia"},"geometry":{"type":"Point","coordinates":[-91.45694,15.73306]}},{"type":"feature","properties":{"country_en":"Guatemala","name":"San Juan Atitan","name_adm0":"Guatemala","name_adm1":"Huehuetenango","name_adm2":"San Juan Atitan","name_en":"San Juan Atitan"},"geometry":{"type":"Point","coordinates":[-91.63333,15.43333]}},{"type":"feature","properties":{"country_en":"Guatemala","name":"La Esperanza","name_adm0":"Guatemala","name_adm1":"Quetzaltenango","name_adm2":"La Esperanza","name_en":"La Esperanza"},"geometry":{"type":"Point","coordinates":[-91.56666999999999,14.866669999999997]}},{"type":"feature","properties":{"country_en":"Guatemala","name":"Champerico","name_adm0":"Guatemala","name_adm1":"Retalhuleu","name_adm2":"Champerico","name_en":"Champerico"},"geometry":{"type":"Point","coordinates":[-91.912994,14.29283]}},{"type":"feature","properties":{"country_en":"Guatemala","name":"Jocotán","name_adm0":"Guatemala","name_adm1":"Chiquimula","name_adm2":"Jocotán","name_en":"Jocotán"},"geometry":{"type":"Point","coordinates":[-89.379315,14.820357]}},{"type":"feature","properties":{"country_en":"Guatemala","name":"La Democracia","name_adm0":"Guatemala","name_adm1":"Escuintla","name_adm2":"La Democracia","name_en":"La Democracia"},"geometry":{"type":"Point","coordinates":[-90.95237699999998,14.236430999999998]}},{"type":"feature","properties":{"country_en":"Guatemala","name":"San Benito","name_adm0":"Guatemala","name_adm1":"Peten","name_adm2":"San Benito","name_en":"San Benito"},"geometry":{"type":"Point","coordinates":[-89.9136535,16.924947]}},{"type":"feature","properties":{"country_en":"Guatemala","name":"Chimaltenango","name_adm0":"Guatemala","name_adm1":"Chimaltenango","name_en":"Chimaltenango"},"geometry":{"type":"Point","coordinates":[-90.91667,14.66667]}},{"type":"feature","properties":{"country_en":"Guatemala","name":"Esquipulas Palo Gordo","name_adm0":"Guatemala","name_adm1":"San Marcos","name_adm2":"Esquipulas Palo Gordo","name_en":"Esquipulas Palo Gordo"},"geometry":{"type":"Point","coordinates":[-91.81667,14.933329999999998]}},{"type":"feature","properties":{"country_en":"Guatemala","name":"San Bernardino","name_adm0":"Guatemala","name_adm1":"Suchitepequez","name_adm2":"San Bernardino","name_en":"San Bernardino"},"geometry":{"type":"Point","coordinates":[-91.1483985,14.492046499999999]}},{"type":"feature","properties":{"country_en":"Guatemala","name":"Soloma","name_adm0":"Guatemala","name_adm1":"Huehuetenango","name_adm2":"Soloma","name_en":"Soloma"},"geometry":{"type":"Point","coordinates":[-91.45,15.716669999999999]}},{"type":"feature","properties":{"country_en":"Guatemala","name":"Monterrico","name_adm0":"Guatemala","name_adm1":"Santa Rosa","name_adm2":"Taxisco","name_en":"Monterrico"},"geometry":{"type":"Point","coordinates":[-90.48,13.89417]}},{"type":"feature","properties":{"country_en":"Guatemala","name":"Livingston","name_adm0":"Guatemala","name_adm1":"Izabal","name_adm2":"Livingston","name_en":"Livingston"},"geometry":{"type":"Point","coordinates":[-88.75039,15.82826]}},{"type":"feature","properties":{"country_en":"Guatemala","name":"Jocotenango","name_adm0":"Guatemala","name_adm1":"Sacatepequez","name_adm2":"Jocotenango","name_en":"Jocotenango"},"geometry":{"type":"Point","coordinates":[-90.74361,14.581939999999998]}},{"type":"feature","properties":{"country_en":"Guatemala","name":"Villa Nueva","name_adm0":"Guatemala","name_adm1":"Guatemala","name_adm2":"Villa Nueva","name_en":"Villa Nueva"},"geometry":{"type":"Point","coordinates":[-90.5875,14.526939999999998]}},{"type":"feature","properties":{"country_en":"Guatemala","name":"Pochuta","name_adm0":"Guatemala","name_adm1":"Chimaltenango","name_adm2":"Pochuta","name_en":"Pochuta"},"geometry":{"type":"Point","coordinates":[-91.08333,14.55]}},{"type":"feature","properties":{"country_en":"Guatemala","name":"Totonicapán","name_adm0":"Guatemala","name_adm1":"Totonicapan","name_adm2":"Totonicapan","name_en":"Totonicapán"},"geometry":{"type":"Point","coordinates":[-91.360416,14.920278]}},{"type":"feature","properties":{"country_en":"Guatemala","name":"Santa Apolonia","name_adm0":"Guatemala","name_adm1":"Chimaltenango","name_adm2":"Santa Apolonia","name_en":"Santa Apolonia"},"geometry":{"type":"Point","coordinates":[-90.97083,14.791389999999998]}},{"type":"feature","properties":{"country_en":"Guatemala","name":"Iztapa","name_adm0":"Guatemala","name_adm1":"Escuintla","name_adm2":"Iztapa","name_en":"Iztapa"},"geometry":{"type":"Point","coordinates":[-90.720977,13.925237]}},{"type":"feature","properties":{"country_en":"Guatemala","name":"Panajachel","name_adm0":"Guatemala","name_adm1":"Solola","name_adm2":"Panajachel","name_en":"Panajachel"},"geometry":{"type":"Point","coordinates":[-91.16455,14.740841]}},{"type":"feature","properties":{"country_en":"Guatemala","name":"Salama","name_adm0":"Guatemala","name_adm1":"Baja Verapaz","name_adm2":"Salama","name_en":"Salama"},"geometry":{"type":"Point","coordinates":[-90.301609,15.125323999999999]}},{"type":"feature","properties":{"country_en":"Guatemala","name":"Comalapa","name_adm0":"Guatemala","name_adm1":"Chimaltenango","name_adm2":"Comalapa","name_en":"Comalapa"},"geometry":{"type":"Point","coordinates":[-90.8875,14.74111]}},{"type":"feature","properties":{"country_en":"Guatemala","name":"San Pablo la Laguna","name_adm0":"Guatemala","name_adm1":"Solola","name_adm2":"San Pablo la Laguna","name_en":"San Pablo la Laguna"},"geometry":{"type":"Point","coordinates":[-91.270036,14.720837999999999]}},{"type":"feature","properties":{"country_en":"Guatemala","name":"Colotenango","name_adm0":"Guatemala","name_adm1":"Huehuetenango","name_adm2":"Colotenango","name_en":"Colotenango"},"geometry":{"type":"Point","coordinates":[-91.71266999999999,15.406019999999998]}},{"type":"feature","properties":{"country_en":"Guatemala","name":"El Jícaro","name_adm0":"Guatemala","name_adm1":"El Progreso","name_adm2":"El Jicaro","name_en":"El Jícaro"},"geometry":{"type":"Point","coordinates":[-89.9,14.916670000000002]}},{"type":"feature","properties":{"country_en":"Guatemala","name":"Horcones","name_adm0":"Guatemala","name_adm1":"Jutiapa","name_adm2":"Santa Catarina Mita","name_en":"Horcones"},"geometry":{"type":"Point","coordinates":[-89.78333,14.433329999999998]}},{"type":"feature","properties":{"country_en":"Guatemala","name":"San Bartolome Jocotenango","name_adm0":"Guatemala","name_adm1":"Huehuetenango","name_adm2":"Malacatancito","name_en":"San Bartolome Jocotenango"},"geometry":{"type":"Point","coordinates":[-91.07722,15.192779999999999]}},{"type":"feature","properties":{"country_en":"Guatemala","name":"San Lorenzo","name_adm0":"Guatemala","name_adm1":"Suchitepequez","name_adm2":"San Lorenzo","name_en":"San Lorenzo"},"geometry":{"type":"Point","coordinates":[-91.51666999999999,14.483330000000002]}},{"type":"feature","properties":{"country_en":"Guatemala","name":"Santa Ana","name_adm0":"Guatemala","name_adm1":"Peten","name_adm2":"Santa Ana","name_en":"Santa Ana"},"geometry":{"type":"Point","coordinates":[-89.83333,16.8]}},{"type":"feature","properties":{"country_en":"Guatemala","name":"Santa Marta","name_adm0":"Guatemala","name_adm1":"Peten","name_adm2":"Sayaxché","name_en":"Santa Marta"},"geometry":{"type":"Point","coordinates":[-89.465,16.29944]}},{"type":"feature","properties":{"country_en":"Guatemala","name":"San Cristóbal Acasaguastlán","name_adm0":"Guatemala","name_adm1":"El Progreso","name_adm2":"San Cristobal Acasaguastlan","name_en":"San Cristóbal Acasaguastlán"},"geometry":{"type":"Point","coordinates":[-89.88333,14.916670000000002]}},{"type":"feature","properties":{"country_en":"Guatemala","name":"San Bartolo","name_adm0":"Guatemala","name_adm1":"Totonicapan","name_adm2":"San Bartolo","name_en":"San Bartolo"},"geometry":{"type":"Point","coordinates":[-91.45583,15.084439999999999]}},{"type":"feature","properties":{"country_en":"Guatemala","name":"San Antonio Suchitepéquez","name_adm0":"Guatemala","name_adm1":"Suchitepequez","name_adm2":"San Antonio Suchitepéquez","name_en":"San Antonio Suchitepéquez"},"geometry":{"type":"Point","coordinates":[-91.41667,14.533329999999998]}},{"type":"feature","properties":{"country_en":"Guatemala","name":"Mixco","name_adm0":"Guatemala","name_adm1":"Guatemala","name_adm2":"Mixco","name_en":"Mixco"},"geometry":{"type":"Point","coordinates":[-90.60639,14.63333]}},{"type":"feature","properties":{"country_en":"Guatemala","name":"Masagua","name_adm0":"Guatemala","name_adm1":"Escuintla","name_adm2":"Masagua","name_en":"Masagua"},"geometry":{"type":"Point","coordinates":[-90.84806,14.20306]}},{"type":"feature","properties":{"country_en":"Guatemala","name":"La Libertad","name_adm0":"Guatemala","name_adm1":"Huehuetenango","name_adm2":"La Libertad","name_en":"La Libertad"},"geometry":{"type":"Point","coordinates":[-91.83333,15.499999999999998]}},{"type":"feature","properties":{"country_en":"Guatemala","name":"Chicacao","name_adm0":"Guatemala","name_adm1":"Suchitepequez","name_adm2":"Chicacao","name_en":"Chicacao"},"geometry":{"type":"Point","coordinates":[-91.31667,14.533329999999998]}},{"type":"feature","properties":{"country_en":"Guatemala","name":"Catarina","name_adm0":"Guatemala","name_adm1":"San Marcos","name_adm2":"Catarina","name_en":"Catarina"},"geometry":{"type":"Point","coordinates":[-92.08333,14.849999999999998]}},{"type":"feature","properties":{"country_en":"Guatemala","name":"Atescatempa","name_adm0":"Guatemala","name_adm1":"Jutiapa","name_adm2":"Atescatempa","name_en":"Atescatempa"},"geometry":{"type":"Point","coordinates":[-89.7425,14.17444]}},{"type":"feature","properties":{"country_en":"Guatemala","name":"Cayo Piedra","name_adm0":"Guatemala","name_adm1":"Izabal","name_adm2":"Paujil","name_en":"Cayo Piedra"},"geometry":{"type":"Point","coordinates":[-88.9,15.68333]}},{"type":"feature","properties":{"country_en":"Guatemala","name":"Obero","name_adm0":"Guatemala","name_adm1":"Escuintla","name_adm2":"Masagua","name_en":"Obero"},"geometry":{"type":"Point","coordinates":[-90.83028,14.03528]}},{"type":"feature","properties":{"country_en":"Guatemala","name":"San Luis","name_adm0":"Guatemala","name_adm1":"Peten","name_adm2":"San Luis","name_en":"San Luis"},"geometry":{"type":"Point","coordinates":[-89.44028,16.198889999999995]}},{"type":"feature","properties":{"country_en":"Guatemala","name":"El Paso de los Jalapas","name_adm0":"Guatemala","name_adm1":"El Progreso","name_adm2":"El Jicaro","name_en":"El Paso de los Jalapas"},"geometry":{"type":"Point","coordinates":[-89.96667,14.900000000000002]}},{"type":"feature","properties":{"country_en":"Guatemala","name":"El Porvenir","name_adm0":"Guatemala","name_adm1":"Escuintla","name_adm2":"La Gomera","name_en":"El Porvenir"},"geometry":{"type":"Point","coordinates":[-91.01667,13.983329999999999]}},{"type":"feature","properties":{"country_en":"Guatemala","name":"Sibaná","name_adm0":"Guatemala","name_adm1":"Retalhuleu","name_adm2":"El Asintal","name_en":"Sibaná"},"geometry":{"type":"Point","coordinates":[-91.75,14.56667]}},{"type":"feature","properties":{"country_en":"Guatemala","name":"Sipacapa","name_adm0":"Guatemala","name_adm1":"San Marcos","name_adm2":"Sipacapa","name_en":"Sipacapa"},"geometry":{"type":"Point","coordinates":[-91.66666999999998,15.2]}},{"type":"feature","properties":{"country_en":"Guatemala","name":"Tocache","name_adm0":"Guatemala","name_adm1":"San Marcos","name_adm2":"San Pablo","name_en":"Tocache"},"geometry":{"type":"Point","coordinates":[-91.98333,14.933329999999998]}},{"type":"feature","properties":{"country_en":"Guatemala","name":"Garibaldi","name_adm0":"Guatemala","name_adm1":"Quetzaltenango","name_adm2":"Quetzaltenango","name_en":"Garibaldi"},"geometry":{"type":"Point","coordinates":[-91.53333,14.849999999999998]}},{"type":"feature","properties":{"country_en":"Guatemala","name":"San Pedro Necta","name_adm0":"Guatemala","name_adm1":"Huehuetenango","name_adm2":"San Pedro Necta","name_en":"San Pedro Necta"},"geometry":{"type":"Point","coordinates":[-91.55593799999998,15.474856999999998]}},{"type":"feature","properties":{"country_en":"Guatemala","name":"San Rafael Petzal","name_adm0":"Guatemala","name_adm1":"Huehuetenango","name_adm2":"San Rafael Petzal","name_en":"San Rafael Petzal"},"geometry":{"type":"Point","coordinates":[-91.66451,15.404869999999999]}},{"type":"feature","properties":{"country_en":"Guatemala","name":"Malacatán","name_adm0":"Guatemala","name_adm1":"San Marcos","name_adm2":"Malacatan","name_en":"Malacatán"},"geometry":{"type":"Point","coordinates":[-92.04999999999998,14.900000000000002]}},{"type":"feature","properties":{"country_en":"Guatemala","name":"Quesada","name_adm0":"Guatemala","name_adm1":"Jutiapa","name_adm2":"Quesada","name_en":"Quesada"},"geometry":{"type":"Point","coordinates":[-90.04027999999998,14.27028]}},{"type":"feature","properties":{"country_en":"Guatemala","name":"Río Bravo","name_adm0":"Guatemala","name_adm1":"Suchitepequez","name_adm2":"Rio Bravo","name_en":"Río Bravo"},"geometry":{"type":"Point","coordinates":[-91.31667,14.4]}},{"type":"feature","properties":{"country_en":"Guatemala","name":"Tejutla","name_adm0":"Guatemala","name_adm1":"San Marcos","name_adm2":"Tejutla","name_en":"Tejutla"},"geometry":{"type":"Point","coordinates":[-91.8,15.116669999999997]}},{"type":"feature","properties":{"country_en":"Guatemala","name":"Pastores","name_adm0":"Guatemala","name_adm1":"Sacatepequez","name_adm2":"Pastores","name_en":"Pastores"},"geometry":{"type":"Point","coordinates":[-90.77453599999998,14.582431]}},{"type":"feature","properties":{"country_en":"Guatemala","name":"Santa Lucía Milpas Altas","name_adm0":"Guatemala","name_adm1":"Sacatepequez","name_adm2":"Santa Lucia Milpas Altas","name_en":"Sta. Lucia Milpas Altas"},