{"type":"FeatureCollection","features":[{"type":"feature","properties":{"country_en":"Guinea-Bissau","name":"Madina de Baixo","name_adm0":"Guiné-Bissau","name_adm1":"Quinara","name_en":"Madina de Baixo"},"geometry":{"type":"Point","coordinates":[-15.45,11.4]}},{"type":"feature","properties":{"country_en":"Guinea-Bissau","name":"Mafanco","name_adm0":"Guiné-Bissau","name_adm1":"Gabu","name_en":"Mafanco"},"geometry":{"type":"Point","coordinates":[-14.449999999999998,12.26667]}},{"type":"feature","properties":{"country_en":"Guinea-Bissau","name":"Mindara","name_adm0":"Guiné-Bissau","name_adm1":"Bissau","name_en":"Mindara"},"geometry":{"type":"Point","coordinates":[-15.6,11.85]}},{"type":"feature","properties":{"country_en":"Guinea-Bissau","name":"Ingoré","name_adm0":"Guiné-Bissau","name_adm1":"Cacheu","name_en":"Ingoré"},"geometry":{"type":"Point","coordinates":[-15.7975,12.405279999999998]}},{"type":"feature","properties":{"country_en":"Guinea-Bissau","name":"Utama","name_adm0":"Guiné-Bissau","name_adm1":"Cacheu","name_en":"Utama"},"geometry":{"type":"Point","coordinates":[-16.25,12.06833]}},{"type":"feature","properties":{"country_en":"Guinea-Bissau","name":"Xime","name_adm0":"Guiné-Bissau","name_adm1":"Bafata","name_en":"Xime"},"geometry":{"type":"Point","coordinates":[-14.933329999999998,11.96667]}},{"type":"feature","properties":{"country_en":"Guinea-Bissau","name":"Plaque","name_adm0":"Guiné-Bissau","name_adm1":"Bissau","name_en":"Plaque"},"geometry":{"type":"Point","coordinates":[-15.78333,11.98333]}},{"type":"feature","properties":{"country_en":"Guinea-Bissau","name":"Encheia","name_adm0":"Guiné-Bissau","name_adm1":"Oio","name_en":"Encheia"},"geometry":{"type":"Point","coordinates":[-15.47,12.06361]}},{"type":"feature","properties":{"country_en":"Guinea-Bissau","name":"Tombali","name_adm0":"Guiné-Bissau","name_adm1":"Tombali","name_en":"Tombali"},"geometry":{"type":"Point","coordinates":[-14.999999999999998,11.25]}},{"type":"feature","properties":{"country_en":"Guinea-Bissau","name":"Jabadá","name_adm0":"Guiné-Bissau","name_adm1":"Quinara","name_en":"Jabadá"},"geometry":{"type":"Point","coordinates":[-15.349999999999998,11.88333]}},{"type":"feature","properties":{"country_en":"Guinea-Bissau","name":"Nova Có","name_adm0":"Guiné-Bissau","name_adm1":"Bissau","name_en":"Nova Có"},"geometry":{"type":"Point","coordinates":[-15.6,11.85]}},{"type":"feature","properties":{"country_en":"Guinea-Bissau","name":"Porto Gole","name_adm0":"Guiné-Bissau","name_adm1":"Oio","name_en":"Porto Gole"},"geometry":{"type":"Point","coordinates":[-15.133329999999999,11.96667]}},{"type":"feature","properties":{"country_en":"Guinea-Bissau","name":"Galomaro","name_adm0":"Guiné-Bissau","name_adm1":"Bafata","name_en":"Galomaro"},"geometry":{"type":"Point","coordinates":[-14.766670000000001,11.7]}},{"type":"feature","properties":{"country_en":"Guinea-Bissau","name":"Santa Luzia","name_adm0":"Guiné-Bissau","name_adm1":"Bissau","name_en":"Santa Luzia"},"geometry":{"type":"Point","coordinates":[-15.58333,11.86667]}},{"type":"feature","properties":{"country_en":"Guinea-Bissau","name":"Sare Bácar","name_adm0":"Guiné-Bissau","name_adm1":"Bafata","name_en":"Sare Bácar"},"geometry":{"type":"Point","coordinates":[-14.433329999999998,12.66667]}},{"type":"feature","properties":{"country_en":"Guinea-Bissau","name":"Sonaco","name_adm0":"Guiné-Bissau","name_adm1":"Gabu","name_en":"Sonaco"},"geometry":{"type":"Point","coordinates":[-14.483330000000002,12.4]}},{"type":"feature","properties":{"country_en":"Guinea-Bissau","name":"Bubaque","name_adm0":"Guiné-Bissau","name_adm1":"Bolama","name_en":"Bubaque"},"geometry":{"type":"Point","coordinates":[-15.83333,11.28333]}},{"type":"feature","properties":{"country_en":"Guinea-Bissau","name":"Bolama","name_adm0":"Guiné-Bissau","name_adm1":"Bolama","name_en":"Bolama"},"geometry":{"type":"Point","coordinates":[-15.46667,11.58333]}},{"type":"feature","properties":{"country_en":"Guinea-Bissau","name":"Contuboel","name_adm0":"Guiné-Bissau","name_adm1":"Bafata","name_en":"Contuboel"},"geometry":{"type":"Point","coordinates":[-14.57139,12.390809999999998]}},{"type":"feature","properties":{"country_en":"Guinea-Bissau","name":"Fulacunda","name_adm0":"Guiné-Bissau","name_adm1":"Quinara","name_en":"Fulacunda"},"geometry":{"type":"Point","coordinates":[-15.166669999999998,11.76667]}},{"type":"feature","properties":{"country_en":"Guinea-Bissau","name":"Guiné-Bissau","name_adm0":"Guiné-Bissau","name_en":"Guinea-Bissau"},"geometry":{"type":"Point","coordinates":[-15.17702,11.695259]}},{"type":"feature","properties":{"country_en":"Guinea-Bissau","name":"Colicunda","name_adm0":"Guiné-Bissau","name_adm1":"Oio","name_en":"Colicunda"},"geometry":{"type":"Point","coordinates":[-15.18333,11.916669999999998]}},{"type":"feature","properties":{"country_en":"Guinea-Bissau","name":"Varela","name_adm0":"Guiné-Bissau","name_adm1":"Cacheu","name_en":"Varela"},"geometry":{"type":"Point","coordinates":[-16.5975,12.28722]}},{"type":"feature","properties":{"country_en":"Guinea-Bissau","name":"Bassarel","name_adm0":"Guiné-Bissau","name_adm1":"Cacheu","name_en":"Bassarel"},"geometry":{"type":"Point","coordinates":[-16.18583,12.12694]}},{"type":"feature","properties":{"country_en":"Guinea-Bissau","name":"Biango","name_adm0":"Guiné-Bissau","name_adm1":"Cacheu","name_en":"Biango"},"geometry":{"type":"Point","coordinates":[-16.23306,12.18917]}},{"type":"feature","properties":{"country_en":"Guinea-Bissau","name":"Bigene","name_adm0":"Guiné-Bissau","name_adm1":"Cacheu","name_en":"Bigene"},"geometry":{"type":"Point","coordinates":[-15.54167,12.44]}},{"type":"feature","properties":{"country_en":"Guinea-Bissau","name":"Bijine","name_adm0":"Guiné-Bissau","name_adm1":"Bafata","name_en":"Bijine"},"geometry":{"type":"Point","coordinates":[-14.699999999999998,12.1]}},{"type":"feature","properties":{"country_en":"Guinea-Bissau","name":"Bissum","name_adm0":"Guiné-Bissau","name_adm1":"Oio","name_en":"Bissum"},"geometry":{"type":"Point","coordinates":[-15.665829999999998,12.24056]}},{"type":"feature","properties":{"country_en":"Guinea-Bissau","name":"Gã Beafada","name_adm0":"Guiné-Bissau","name_adm1":"Bissau","name_en":"Gã Beafada"},"geometry":{"type":"Point","coordinates":[-15.6,11.86667]}},{"type":"feature","properties":{"country_en":"Guinea-Bissau","name":"Gamamudo","name_adm0":"Guiné-Bissau","name_adm1":"Bafata","name_en":"Gamamudo"},"geometry":{"type":"Point","coordinates":[-14.733329999999999,12.26667]}},{"type":"feature","properties":{"country_en":"Guinea-Bissau","name":"Prábis","name_adm0":"Guiné-Bissau","name_adm1":"Quinara","name_en":"Prabis"},"geometry":{"type":"Point","coordinates":[-15.73889,11.802499999999998]}},{"type":"feature","properties":{"country_en":"Guinea-Bissau","name":"Praça de Bandim","name_adm0":"Guiné-Bissau","name_adm1":"Bissau","name_en":"Praça de Bandim"},"geometry":{"type":"Point","coordinates":[-15.6,11.85]}},{"type":"feature","properties":{"country_en":"Guinea-Bissau","name":"Bafata","name_adm0":"Guiné-Bissau","name_adm1":"Bafata","name_en":"Bafata"},"geometry":{"type":"Point","coordinates":[-14.749999999999998,12.16667]}},{"type":"feature","properties":{"country_en":"Guinea-Bissau","name":"Bissau","name_adm0":"Guiné-Bissau","name_adm1":"Bissau","name_en":"Bissau"},"geometry":{"type":"Point","coordinates":[-15.590969999999999,11.85391]}},{"type":"feature","properties":{"country_en":"Guinea-Bissau","name":"Bafatá","name_adm0":"Guiné-Bissau","name_adm1":"Bafata","name_en":"Bafatá"},"geometry":{"type":"Point","coordinates":[-14.66667,12.16667]}},{"type":"feature","properties":{"country_en":"Guinea-Bissau","name":"Gabú","name_adm0":"Guiné-Bissau","name_adm1":"Gabu","name_en":"Gabú"},"geometry":{"type":"Point","coordinates":[-14.21667,12.28333]}},{"type":"feature","properties":{"country_en":"Guinea-Bissau","name":"Farim","name_adm0":"Guiné-Bissau","name_adm1":"Oio","name_en":"Farim"},"geometry":{"type":"Point","coordinates":[-15.221669999999998,12.48389]}},{"type":"feature","properties":{"country_en":"Guinea-Bissau","name":"Canchungo","name_adm0":"Guiné-Bissau","name_adm1":"Cacheu","name_en":"Canchungo"},"geometry":{"type":"Point","coordinates":[-16.03333,12.06722]}},{"type":"feature","properties":{"country_en":"Guinea-Bissau","name":"Mansôa","name_adm0":"Guiné-Bissau","name_adm1":"Oio","name_en":"Mansôa"},"geometry":{"type":"Point","coordinates":[-15.318889999999998,12.073329999999999]}},{"type":"feature","properties":{"country_en":"Guinea-Bissau","name":"São Domingos","name_adm0":"Guiné-Bissau","name_adm1":"Cacheu","name_en":"São Domingos"},"geometry":{"type":"Point","coordinates":[-16.20056,12.40194]}},{"type":"feature","properties":{"country_en":"Guinea-Bissau","name":"Quinhámel","name_adm0":"Guiné-Bissau","name_adm1":"Biombo","name_en":"Quinhámel"},"geometry":{"type":"Point","coordinates":[-15.85,11.88333]}},{"type":"feature","properties":{"country_en":"Guinea-Bissau","name":"Cacheu","name_adm0":"Guiné-Bissau","name_adm1":"Cacheu","name_en":"Cacheu"},"geometry":{"type":"Point","coordinates":[-16.16583,12.27056]}},{"type":"feature","properties":{"country_en":"Guinea-Bissau","name":"Achada do Burro","name_adm0":"Guiné-Bissau","name_adm1":"Bissau","name_en":"Achada do Burro"},"geometry":{"type":"Point","coordinates":[-15.58333,11.86667]}},{"type":"feature","properties":{"country_en":"Guinea-Bissau","name":"Bula","name_adm0":"Guiné-Bissau","name_adm1":"Cacheu","name_en":"Bula"},"geometry":{"type":"Point","coordinates":[-15.70806,12.10389]}},{"type":"feature","properties":{"country_en":"Guinea-Bissau","name":"Chumael","name_adm0":"Guiné-Bissau","name_adm1":"Bafata","name_en":"Chumael"},"geometry":{"type":"Point","coordinates":[-14.65,11.68333]}},{"type":"feature","properties":{"country_en":"Guinea-Bissau","name":"Jolmete","name_adm0":"Guiné-Bissau","name_adm1":"Cacheu","name_en":"Jolmete"},"geometry":{"type":"Point","coordinates":[-15.861389999999998,12.22444]}},{"type":"feature","properties":{"country_en":"Guinea-Bissau","name":"Quinara","name_adm0":"Guiné-Bissau","name_adm1":"Quinara","name_en":"Quinara"},"geometry":{"type":"Point","coordinates":[-15.083329999999998,11.66667]}},{"type":"feature","properties":{"country_en":"Guinea-Bissau","name":"Oio","name_adm0":"Guiné-Bissau","name_adm1":"Oio","name_en":"Oio"},"geometry":{"type":"Point","coordinates":[-15.249999999999998,12.25]}},{"type":"feature","properties":{"country_en":"Guinea-Bissau","name":"Cuntima","name_adm0":"Guiné-Bissau","name_adm1":"Oio","name_en":"Cuntima"},"geometry":{"type":"Point","coordinates":[-15.000279999999998,12.65611]}},{"type":"feature","properties":{"country_en":"Guinea-Bissau","name":"Cócò","name_adm0":"Guiné-Bissau","name_adm1":"Bissau","name_en":"Cócò"},"geometry":{"type":"Point","coordinates":[-15.58333,11.88333]}},{"type":"feature","properties":{"country_en":"Guinea-Bissau","name":"Cutiá","name_adm0":"Guiné-Bissau","name_adm1":"Oio","name_en":"Cutiá"},"geometry":{"type":"Point","coordinates":[-15.240829999999999,12.174719999999999]}},{"type":"feature","properties":{"country_en":"Guinea-Bissau","name":"Empada","name_adm0":"Guiné-Bissau","name_adm1":"Quinara","name_en":"Empada"},"geometry":{"type":"Point","coordinates":[-15.233329999999999,11.55]}},{"type":"feature","properties":{"country_en":"Guinea-Bissau","name":"Enxalé","name_adm0":"Guiné-Bissau","name_adm1":"Oio","name_en":"Enxalé"},"geometry":{"type":"Point","coordinates":[-14.96667,11.98333]}},{"type":"feature","properties":{"country_en":"Guinea-Bissau","name":"Ganjetrà","name_adm0":"Guiné-Bissau","name_adm1":"Quinara","name_en":"Ganjetrà"},"geometry":{"type":"Point","coordinates":[-15.233329999999999,11.783329999999998]}},{"type":"feature","properties":{"country_en":"Guinea-Bissau","name":"Gêba","name_adm0":"Guiné-Bissau","name_adm1":"Bafata","name_en":"Gêba"},"geometry":{"type":"Point","coordinates":[-14.766670000000001,12.16667]}},{"type":"feature","properties":{"country_en":"Guinea-Bissau","name":"Injante","name_adm0":"Guiné-Bissau","name_adm1":"Cacheu","name_en":"Injante"},"geometry":{"type":"Point","coordinates":[-16.06667,11.76667]}},{"type":"feature","properties":{"country_en":"Guinea-Bissau","name":"Nhacobà","name_adm0":"Guiné-Bissau","name_adm1":"Tombali","name_en":"Nhacobà"},"geometry":{"type":"Point","coordinates":[-14.933329999999998,11.43333]}},{"type":"feature","properties":{"country_en":"Guinea-Bissau","name":"Nhacra","name_adm0":"Guiné-Bissau","name_adm1":"Oio","name_en":"Nhacra"},"geometry":{"type":"Point","coordinates":[-15.549999999999999,11.96667]}},{"type":"feature","properties":{"country_en":"Guinea-Bissau","name":"Olossato","name_adm0":"Guiné-Bissau","name_adm1":"Oio","name_en":"Olossato"},"geometry":{"type":"Point","coordinates":[-15.32861,12.31972]}},{"type":"feature","properties":{"country_en":"Guinea-Bissau","name":"Paál","name_adm0":"Guiné-Bissau","name_adm1":"Bissau","name_en":"Paál"},"geometry":{"type":"Point","coordinates":[-15.58333,11.88333]}},{"type":"feature","properties":{"country_en":"Guinea-Bissau","name":"Penha","name_adm0":"Guiné-Bissau","name_adm1":"Bissau","name_en":"Penha"},"geometry":{"type":"Point","coordinates":[-15.633329999999999,11.86667]}},{"type":"feature","properties":{"country_en":"Guinea-Bissau","name":"Reino de Bor","name_adm0":"Guiné-Bissau","name_adm1":"Bissau","name_en":"Reino de Bor"},"geometry":{"type":"Point","coordinates":[-15.633329999999999,11.85]}},{"type":"feature","properties":{"country_en":"Guinea-Bissau","name":"Tombali","name_adm0":"Guiné-Bissau","name_adm1":"Tombali","name_en":"Tombali"},"geometry":{"type":"Point","coordinates":[-15.416669999999998,11.3]}},{"type":"feature","properties":{"country_en":"Guinea-Bissau","name":"Bissássema de Cima","name_adm0":"Guiné-Bissau","name_adm1":"Quinara","name_en":"Bissássema de Cima"},"geometry":{"type":"Point","coordinates":[-15.46667,11.75]}},{"type":"feature","properties":{"country_en":"Guinea-Bissau","name":"Chanto","name_adm0":"Guiné-Bissau","name_adm1":"Cacheu","name_en":"Chanto"},"geometry":{"type":"Point","coordinates":[-16.17056,12.104999999999999]}},{"type":"feature","properties":{"country_en":"Guinea-Bissau","name":"Darsalame","name_adm0":"Guiné-Bissau","name_adm1":"Quinara","name_en":"Darsalame"},"geometry":{"type":"Point","coordinates":[-14.866669999999997,11.73333]}},{"type":"feature","properties":{"country_en":"Guinea-Bissau","name":"Dulombi","name_adm0":"Guiné-Bissau","name_adm1":"Bafata","name_en":"Dulombi"},"geometry":{"type":"Point","coordinates":[-14.616669999999997,11.86667]}},{"type":"feature","properties":{"country_en":"Guinea-Bissau","name":"Bissorã","name_adm0":"Guiné-Bissau","name_adm1":"Oio","name_en":"Bissorã"},"geometry":{"type":"Point","coordinates":[-15.4475,12.22306]}},{"type":"feature","properties":{"country_en":"Guinea-Bissau","name":"Pelundo","name_adm0":"Guiné-Bissau","name_adm1":"Cacheu","name_en":"Pelundo"},"geometry":{"type":"Point","coordinates":[-15.954439999999998,12.11722]}},{"type":"feature","properties":{"country_en":"Guinea-Bissau","name":"Prabis","name_adm0":"Guiné-Bissau","name_adm1":"Biombo","name_en":"Prabis"},"geometry":{"type":"Point","coordinates":[-15.74036,11.80401]}},{"type":"feature","properties":{"country_en":"Guinea-Bissau","name":"Quelele","name_adm0":"Guiné-Bissau","name_adm1":"Bissau","name_en":"Quelele"},"geometry":{"type":"Point","coordinates":[-15.633329999999999,11.86667]}},{"type":"feature","properties":{"country_en":"Guinea-Bissau","name":"Safim","name_adm0":"Guiné-Bissau","name_adm1":"Biombo","name_en":"Safim"},"geometry":{"type":"Point","coordinates":[-15.649999999999999,11.95]}},{"type":"feature","properties":{"country_en":"Guinea-Bissau","name":"Buba","name_adm0":"Guiné-Bissau","name_adm1":"Quinara","name_en":"Buba"},"geometry":{"type":"Point","coordinates":[-14.999999999999998,11.58333]}},{"type":"feature","properties":{"country_en":"Guinea-Bissau","name":"Biombo","name_adm0":"Guiné-Bissau","name_adm1":"Biombo","name_en":"Biombo"},"geometry":{"type":"Point","coordinates":[-15.75,11.83333]}},{"type":"feature","properties":{"country_en":"Guinea-Bissau","name":"Gabu","name_adm0":"Guiné-Bissau","name_adm1":"Gabu","name_en":"Gabu"},"geometry":{"type":"Point","coordinates":[-14.08333,12.16667]}},{"type":"feature","properties":{"country_en":"Guinea-Bissau","name":"Pitche","name_adm0":"Guiné-Bissau","name_adm1":"Gabu","name_en":"Pitche"},"geometry":{"type":"Point","coordinates":[-13.95,12.333329999999998]}},{"type":"feature","properties":{"country_en":"Guinea-Bissau","name":"Caliquir","name_adm0":"Guiné-Bissau","name_adm1":"Bissau","name_en":"Caliquir"},"geometry":{"type":"Point","coordinates":[-15.6,11.86667]}},{"type":"feature","properties":{"country_en":"Guinea-Bissau","name":"Brá","name_adm0":"Guiné-Bissau","name_adm1":"Bissau","name_en":"Brá"},"geometry":{"type":"Point","coordinates":[-15.633329999999999,11.86667]}},{"type":"feature","properties":{"country_en":"Guinea-Bissau","name":"Bolama","name_adm0":"Guiné-Bissau","name_adm1":"Bolama","name_en":"Bolama"},"geometry":{"type":"Point","coordinates":[-16.00926,11.15484]}},{"type":"feature","properties":{"country_en":"Guinea-Bissau","name":"Catió","name_adm0":"Guiné-Bissau","name_adm1":"Tombali","name_en":"Catió"},"geometry":{"type":"Point","coordinates":[-15.249999999999998,11.28333]}},{"type":"feature","properties":{"country_en":"Guinea-Bissau","name":"Calequisse","name_adm0":"Guiné-Bissau","name_adm1":"Cacheu","name_en":"Calequisse"},"geometry":{"type":"Point","coordinates":[-16.22444,12.06972]}},{"type":"feature","properties":{"country_en":"Guinea-Bissau","name":"Xitole","name_adm0":"Guiné-Bissau","name_adm1":"Bafata","name_en":"Xitole"},"geometry":{"type":"Point","coordinates":[-14.81667,11.73333]}},{"type":"feature","properties":{"country_en":"Guinea-Bissau","name":"Bedanda","name_adm0":"Guiné-Bissau","name_adm1":"Tombali","name_en":"Bedanda"},"geometry":{"type":"Point","coordinates":[-15.116669999999997,11.35]}},{"type":"feature","properties":{"country_en":"Guinea-Bissau","name":"Mansabá","name_adm0":"Guiné-Bissau","name_adm1":"Oio","name_en":"Mansabá"},"geometry":{"type":"Point","coordinates":[-15.18278,12.29194]}},{"type":"feature","properties":{"country_en":"Guinea-Bissau","name":"Fajonquito","name_adm0":"Guiné-Bissau","name_adm1":"Bafata","name_en":"Fajonquito"},"geometry":{"type":"Point","coordinates":[-14.749999999999998,12.51667]}},{"type":"feature","properties":{"country_en":"Guinea-Bissau","name":"Piche","name_adm0":"Guiné-Bissau","name_adm1":"Gabu","name_en":"Piche"},"geometry":{"type":"Point","coordinates":[-13.95,12.333329999999998]}},{"type":"feature","properties":{"country_en":"Guinea-Bissau","name":"Ondame","name_adm0":"Guiné-Bissau","name_adm1":"Biombo","name_en":"Ondame"},"geometry":{"type":"Point","coordinates":[-15.93333,11.76667]}},{"type":"feature","properties":{"country_en":"Guinea-Bissau","name":"Susana","name_adm0":"Guiné-Bissau","name_adm1":"Cacheu","name_en":"Susana"},"geometry":{"type":"Point","coordinates":[-16.47444,12.30639]}},{"type":"feature","properties":{"country_en":"Guinea-Bissau","name":"Barro","name_adm0":"Guiné-Bissau","name_adm1":"Cacheu","name_en":"Barro"},"geometry":{"type":"Point","coordinates":[-15.62611,12.38917]}},{"type":"feature","properties":{"country_en":"Guinea-Bissau","name":"Cacine","name_adm0":"Guiné-Bissau","name_adm1":"Tombali","name_en":"Cacine"},"geometry":{"type":"Point","coordinates":[-15.016669999999998,11.11667]}},{"type":"feature","properties":{"country_en":"Guinea-Bissau","name":"Bissau","name_adm0":"Guiné-Bissau","name_adm1":"Bissau","name_en":"Bissau"},"geometry":{"type":"Point","coordinates":[-15.59767,11.86357]}}]}