{"type":"FeatureCollection","features":[{"type":"feature","properties":{"country_en":"Honduras","name":"Villa de San Antonio","name_adm0":"Honduras","name_adm1":"Comayagua","name_adm2":"Villa de San Antonio","name_en":"Villa de San Antonio"},"geometry":{"type":"Point","coordinates":[-87.61667,14.31667]}},{"type":"feature","properties":{"country_en":"Honduras","name":"Esquías","name_adm0":"Honduras","name_adm1":"Comayagua","name_adm2":"Esquías","name_en":"Esquías"},"geometry":{"type":"Point","coordinates":[-87.36667,14.733329999999999]}},{"type":"feature","properties":{"country_en":"Honduras","name":"La Masica","name_adm0":"Honduras","name_adm1":"Atlántida","name_adm2":"La Masica","name_en":"La Masica"},"geometry":{"type":"Point","coordinates":[-87.11667,15.61667]}},{"type":"feature","properties":{"country_en":"Honduras","name":"Cauquira","name_adm0":"Honduras","name_adm1":"Gracias a Dios","name_adm2":"Puerto Lempira","name_en":"Cauquira"},"geometry":{"type":"Point","coordinates":[-83.58332999999999,15.316670000000002]}},{"type":"feature","properties":{"country_en":"Honduras","name":"Las Cabezas","name_adm0":"Honduras","name_adm1":"Choluteca","name_adm2":"Choluteca","name_en":"Las Cabezas"},"geometry":{"type":"Point","coordinates":[-87.08278,13.36722]}},{"type":"feature","properties":{"country_en":"Honduras","name":"San Juan de Planes","name_adm0":"Honduras","name_adm1":"Copán","name_adm2":"Trinidad","name_en":"San Juan de Planes"},"geometry":{"type":"Point","coordinates":[-88.78333,14.933329999999998]}},{"type":"feature","properties":{"country_en":"Honduras","name":"San José de Comayagua","name_adm0":"Honduras","name_adm1":"Comayagua","name_adm2":"Meámbar","name_en":"San José de Comayagua"},"geometry":{"type":"Point","coordinates":[-88.03332999999999,14.733329999999999]}},{"type":"feature","properties":{"country_en":"Honduras","name":"San Vicente Centenario","name_adm0":"Honduras","name_adm1":"Santa Bárbara","name_adm2":"San Vicente Centenario","name_en":"San Vicente Centenario"},"geometry":{"type":"Point","coordinates":[-88.28333,14.883329999999999]}},{"type":"feature","properties":{"country_en":"Honduras","name":"San Sebastián","name_adm0":"Honduras","name_adm1":"Comayagua","name_adm2":"San Sebastián","name_en":"San Sebastián"},"geometry":{"type":"Point","coordinates":[-87.63333,14.249999999999998]}},{"type":"feature","properties":{"country_en":"Honduras","name":"San Nicolás","name_adm0":"Honduras","name_adm1":"Copán","name_adm2":"San Nicolás","name_en":"S. Nicolas"},"geometry":{"type":"Point","coordinates":[-88.74999999999999,14.999999999999998]}},{"type":"feature","properties":{"country_en":"Honduras","name":"El Banquito","name_adm0":"Honduras","name_adm1":"Choluteca","name_adm2":"El Corpus","name_en":"El Banquito"},"geometry":{"type":"Point","coordinates":[-86.96667,13.36667]}},{"type":"feature","properties":{"country_en":"Honduras","name":"El Jicarito","name_adm0":"Honduras","name_adm1":"Francisco Morazán","name_adm2":"San Antonio de Oriente","name_en":"El Jicarito"},"geometry":{"type":"Point","coordinates":[-87.06667,14.03333]}},{"type":"feature","properties":{"country_en":"Honduras","name":"El Nance","name_adm0":"Honduras","name_adm1":"Francisco Morazán","name_adm2":"Guaimaca","name_en":"El Nance"},"geometry":{"type":"Point","coordinates":[-87.67472,13.78194]}},{"type":"feature","properties":{"country_en":"Honduras","name":"Japón","name_adm0":"Honduras","name_adm1":"Colón","name_adm2":"Sonaguera","name_en":"Japón"},"geometry":{"type":"Point","coordinates":[-86.36667,15.6]}},{"type":"feature","properties":{"country_en":"Honduras","name":"La Concepción","name_adm0":"Honduras","name_adm1":"Comayagua","name_adm2":"Meámbar","name_en":"La Concepción"},"geometry":{"type":"Point","coordinates":[-87.78333,14.71667]}},{"type":"feature","properties":{"country_en":"Honduras","name":"La Cuchilla","name_adm0":"Honduras","name_adm1":"Santa Bárbara","name_adm2":"Ceguaca","name_en":"La Cuchilla"},"geometry":{"type":"Point","coordinates":[-88.18333,14.833329999999998]}},{"type":"feature","properties":{"country_en":"Honduras","name":"La Florida","name_adm0":"Honduras","name_adm1":"La Paz","name_adm2":"Opatoro","name_en":"La Florida"},"geometry":{"type":"Point","coordinates":[-89.215,13.94917]}},{"type":"feature","properties":{"country_en":"Honduras","name":"La Trinidad","name_adm0":"Honduras","name_adm1":"Comayagua","name_adm2":"La Trinidad","name_en":"La Trinidad"},"geometry":{"type":"Point","coordinates":[-87.66667,14.71667]}},{"type":"feature","properties":{"country_en":"Honduras","name":"Tambla","name_adm0":"Honduras","name_adm1":"Lempira","name_adm2":"Tambla","name_en":"Tambla"},"geometry":{"type":"Point","coordinates":[-88.48333,14.38333]}},{"type":"feature","properties":{"country_en":"Honduras","name":"Cedros","name_adm0":"Honduras","name_adm1":"Francisco Morazán","name_adm2":"Cedros","name_en":"Cedros"},"geometry":{"type":"Point","coordinates":[-87.25,14.583329999999998]}},{"type":"feature","properties":{"country_en":"Honduras","name":"Arizona","name_adm0":"Honduras","name_adm1":"Atlántida","name_adm2":"Arizona","name_en":"Arizona"},"geometry":{"type":"Point","coordinates":[-87.34576999999999,15.614769999999998]}},{"type":"feature","properties":{"country_en":"Honduras","name":"San Antonio de Flores","name_adm0":"Honduras","name_adm1":"Choluteca","name_adm2":"San Antonio de Flores","name_en":"San Antonio de Flores"},"geometry":{"type":"Point","coordinates":[-87.33333,13.61667]}},{"type":"feature","properties":{"country_en":"Honduras","name":"San Francisco de la Paz","name_adm0":"Honduras","name_adm1":"Olancho","name_adm2":"San Francisco de la Paz","name_en":"San Francisco de la Paz"},"geometry":{"type":"Point","coordinates":[-86.16666999999998,14.916670000000002]}},{"type":"feature","properties":{"country_en":"Honduras","name":"San José de Comayagua","name_adm0":"Honduras","name_adm1":"Comayagua","name_adm2":"San José de Comayagua","name_en":"San José de Comayagua"},"geometry":{"type":"Point","coordinates":[-88,14.71667]}},{"type":"feature","properties":{"country_en":"Honduras","name":"San José del Potrero","name_adm0":"Honduras","name_adm1":"Comayagua","name_adm2":"San José del Potrero","name_en":"San José del Potrero"},"geometry":{"type":"Point","coordinates":[-87.3,14.883329999999999]}},{"type":"feature","properties":{"country_en":"Honduras","name":"San José","name_adm0":"Honduras","name_adm1":"La Paz","name_adm2":"San José","name_en":"San José"},"geometry":{"type":"Point","coordinates":[-87.95,14.266669999999998]}},{"type":"feature","properties":{"country_en":"Honduras","name":"Gualcince","name_adm0":"Honduras","name_adm1":"Lempira","name_adm2":"Gualcince","name_en":"Gualcince"},"geometry":{"type":"Point","coordinates":[-88.53333,14.13333]}},{"type":"feature","properties":{"country_en":"Honduras","name":"Honduras","name_adm0":"Honduras","name_en":"Honduras"},"geometry":{"type":"Point","coordinates":[-86.467165,15.954727000000002]}},{"type":"feature","properties":{"country_en":"Honduras","name":"Río Blanquito","name_adm0":"Honduras","name_adm1":"Cortés","name_adm2":"Choloma","name_en":"Río Blanquito"},"geometry":{"type":"Point","coordinates":[-87.9,15.73333]}},{"type":"feature","properties":{"country_en":"Honduras","name":"San Pedro","name_adm0":"Honduras","name_adm1":"Copán","name_adm2":"San Pedro","name_en":"San Pedro"},"geometry":{"type":"Point","coordinates":[-88.79999999999998,14.616669999999997]}},{"type":"feature","properties":{"country_en":"Honduras","name":"Guata","name_adm0":"Honduras","name_adm1":"Olancho","name_adm2":"Guata","name_en":"Guata"},"geometry":{"type":"Point","coordinates":[-86.39999999999999,15.099999999999998]}},{"type":"feature","properties":{"country_en":"Honduras","name":"San Francisco de Opalaca","name_adm0":"Honduras","name_adm1":"Intibucá","name_adm2":"San Francisco de Opalaca","name_en":"San Francisco de Opalaca"},"geometry":{"type":"Point","coordinates":[-88.30253,14.58441]}},{"type":"feature","properties":{"country_en":"Honduras","name":"Dulce Nombre de Culmí","name_adm0":"Honduras","name_adm1":"Olancho","name_adm2":"Dulce Nombre de Culmí","name_en":"Dulce Nombre de Culmí"},"geometry":{"type":"Point","coordinates":[-85.27,15.05]}},{"type":"feature","properties":{"country_en":"Honduras","name":"San Marcos","name_adm0":"Honduras","name_adm1":"Santa Bárbara","name_adm2":"San Marcos","name_en":"San Marcos"},"geometry":{"type":"Point","coordinates":[-88.39,15.239999999999998]}},{"type":"feature","properties":{"country_en":"Honduras","name":"San Matías","name_adm0":"Honduras","name_adm1":"El Paraíso","name_adm2":"San Matías","name_en":"San Matías"},"geometry":{"type":"Point","coordinates":[-86.61667,13.96667]}},{"type":"feature","properties":{"country_en":"Honduras","name":"Trinidad","name_adm0":"Honduras","name_adm1":"Santa Bárbara","name_adm2":"Trinidad","name_en":"Trinidad"},"geometry":{"type":"Point","coordinates":[-88.27,15.139999999999999]}},{"type":"feature","properties":{"country_en":"Honduras","name":"San Juan De dios","name_adm0":"Honduras","name_adm1":"Intibucá","name_adm2":"Camasca","name_en":"San Juan De dios"},"geometry":{"type":"Point","coordinates":[-88.3,13.93333]}},{"type":"feature","properties":{"country_en":"Honduras","name":"San Francisco","name_adm0":"Honduras","name_adm1":"Francisco Morazán","name_adm2":"San Antonio de Oriente","name_en":"San Francisco"},"geometry":{"type":"Point","coordinates":[-87.00306,13.97111]}},{"type":"feature","properties":{"country_en":"Honduras","name":"Planes","name_adm0":"Honduras","name_adm1":"La Paz","name_adm2":"Santa María","name_en":"Planes"},"geometry":{"type":"Point","coordinates":[-88.6,14.21667]}},{"type":"feature","properties":{"country_en":"Honduras","name":"Amapa","name_adm0":"Honduras","name_adm1":"Cortés","name_adm2":"San Antonio de Cortés","name_en":"Amapa"},"geometry":{"type":"Point","coordinates":[-88.13333,15.116669999999997]}},{"type":"feature","properties":{"country_en":"Honduras","name":"El Encanto","name_adm0":"Honduras","name_adm1":"Cortés","name_adm2":"San Antonio de Cortés","name_en":"El Encanto"},"geometry":{"type":"Point","coordinates":[-87.73333,15.016669999999998]}},{"type":"feature","properties":{"country_en":"Honduras","name":"Cuyamel","name_adm0":"Honduras","name_adm1":"Cortés","name_adm2":"Omoa","name_en":"Cuyamel"},"geometry":{"type":"Point","coordinates":[-88.2,15.666669999999998]}},{"type":"feature","properties":{"country_en":"Honduras","name":"Auas","name_adm0":"Honduras","name_adm1":"Gracias a Dios","name_adm2":"Ahuas","name_en":"Auas"},"geometry":{"type":"Point","coordinates":[-84.33333,15.483329999999999]}},{"type":"feature","properties":{"country_en":"Honduras","name":"Atima","name_adm0":"Honduras","name_adm1":"Santa Bárbara","name_adm2":"Atima","name_en":"Atima"},"geometry":{"type":"Point","coordinates":[-88.48333,14.933329999999998]}},{"type":"feature","properties":{"country_en":"Honduras","name":"Cane","name_adm0":"Honduras","name_adm1":"La Paz","name_adm2":"Cane","name_en":"Cane"},"geometry":{"type":"Point","coordinates":[-87.64999999999999,14.3]}},{"type":"feature","properties":{"country_en":"Honduras","name":"Caridad","name_adm0":"Honduras","name_adm1":"Valle","name_adm2":"Caridad","name_en":"Caridad"},"geometry":{"type":"Point","coordinates":[-87.64999999999999,13.78333]}},{"type":"feature","properties":{"country_en":"Honduras","name":"Limón","name_adm0":"Honduras","name_adm1":"Colón","name_adm2":"Limón","name_en":"Limón"},"geometry":{"type":"Point","coordinates":[-85.49999999999999,15.86667]}},{"type":"feature","properties":{"country_en":"Honduras","name":"Meámbar","name_adm0":"Honduras","name_adm1":"Comayagua","name_adm2":"Meámbar","name_en":"Meámbar"},"geometry":{"type":"Point","coordinates":[-87.76667,14.78333]}},{"type":"feature","properties":{"country_en":"Honduras","name":"Omoa","name_adm0":"Honduras","name_adm1":"Cortés","name_adm2":"Omoa","name_en":"Omoa"},"geometry":{"type":"Point","coordinates":[-88.03332999999999,15.766669999999998]}},{"type":"feature","properties":{"country_en":"Honduras","name":"Santa Cruz","name_adm0":"Honduras","name_adm1":"Lempira","name_adm2":"San Manuel de Colohete","name_en":"Santa Cruz"},"geometry":{"type":"Point","coordinates":[-88.71667,14.51667]}},{"type":"feature","properties":{"country_en":"Honduras","name":"San Luis","name_adm0":"Honduras","name_adm1":"Comayagua","name_adm2":"San Luis","name_en":"San Luis"},"geometry":{"type":"Point","coordinates":[-87.36667,14.749999999999998]}},{"type":"feature","properties":{"country_en":"Honduras","name":"Santa Ana de Yusguare","name_adm0":"Honduras","name_adm1":"Choluteca","name_adm2":"Santa Ana de Yusguare","name_en":"Santa Ana de Yusguare"},"geometry":{"type":"Point","coordinates":[-87.11667,13.299999999999999]}},{"type":"feature","properties":{"country_en":"Honduras","name":"Villa de San Francisco","name_adm0":"Honduras","name_adm1":"Francisco Morazán","name_adm2":"Villa de San Francisco","name_en":"Villa de San Francisco"},"geometry":{"type":"Point","coordinates":[-86.96667,14.16667]}},{"type":"feature","properties":{"country_en":"Honduras","name":"Puerto Cortez","name_adm0":"Honduras","name_adm1":"Cortés","name_adm2":"Puerto Cortés","name_en":"Puerto Cortez"},"geometry":{"type":"Point","coordinates":[-87.95,15.83333]}},{"type":"feature","properties":{"country_en":"Honduras","name":"El Negrito","name_adm0":"Honduras","name_adm1":"Yoro","name_adm2":"El Negrito","name_en":"El Negrito"},"geometry":{"type":"Point","coordinates":[-87.68,15.42]}},{"type":"feature","properties":{"country_en":"Honduras","name":"San Luis","name_adm0":"Honduras","name_adm1":"Santa Bárbara","name_adm2":"San Luis","name_en":"San Luis"},"geometry":{"type":"Point","coordinates":[-88.47,15.09]}},{"type":"feature","properties":{"country_en":"Honduras","name":"Tatumbla","name_adm0":"Honduras","name_adm1":"Francisco Morazán","name_adm2":"Tatumbla","name_en":"Tatumbla"},"geometry":{"type":"Point","coordinates":[-87.08333,14]}},{"type":"feature","properties":{"country_en":"Honduras","name":"Juticalpa","name_adm0":"Honduras","name_adm1":"Olancho","name_adm2":"Juticalpa","name_en":"Juticalpa"},"geometry":{"type":"Point","coordinates":[-86.21944,14.66667]}},{"type":"feature","properties":{"country_en":"Honduras","name":"Ojojona","name_adm0":"Honduras","name_adm1":"Francisco Morazán","name_adm2":"Ojojona","name_en":"Ojojona"},"geometry":{"type":"Point","coordinates":[-87.29583,13.93389]}},{"type":"feature","properties":{"country_en":"Honduras","name":"La Paz","name_adm0":"Honduras","name_adm1":"La Paz","name_adm2":"La Paz","name_en":"La Paz"},"geometry":{"type":"Point","coordinates":[-87.67917,14.31944]}},{"type":"feature","properties":{"country_en":"Honduras","name":"Concepción del Norte","name_adm0":"Honduras","name_adm1":"Santa Bárbara","name_adm2":"Concepción del Norte","name_en":"Concepción del Norte"},"geometry":{"type":"Point","coordinates":[-88.13333,15.18333]}},{"type":"feature","properties":{"country_en":"Honduras","name":"El Carbón","name_adm0":"Honduras","name_adm1":"Olancho","name_adm2":"San Esteban","name_en":"El Carbón"},"geometry":{"type":"Point","coordinates":[-85.53333,15.416669999999998]}},{"type":"feature","properties":{"country_en":"Honduras","name":"El Chichicaste","name_adm0":"Honduras","name_adm1":"El Paraíso","name_adm2":"Danlí","name_en":"El Chichicaste"},"geometry":{"type":"Point","coordinates":[-86.3,14.06667]}},{"type":"feature","properties":{"country_en":"Honduras","name":"Dulce Nombre","name_adm0":"Honduras","name_adm1":"Copán","name_adm2":"Dulce Nombre","name_en":"Dulce Nombre"},"geometry":{"type":"Point","coordinates":[-88.83333,14.849999999999998]}},{"type":"feature","properties":{"country_en":"Honduras","name":"La Iguala","name_adm0":"Honduras","name_adm1":"Lempira","name_adm2":"La Iguala","name_en":"La Iguala"},"geometry":{"type":"Point","coordinates":[-88.46666999999998,14.616669999999997]}},{"type":"feature","properties":{"country_en":"Honduras","name":"La Labor","name_adm0":"Honduras","name_adm1":"Ocotepeque","name_adm2":"La Labor","name_en":"La Labor"},"geometry":{"type":"Point","coordinates":[-89,14.483330000000002]}},{"type":"feature","properties":{"country_en":"Honduras","name":"Erandique","name_adm0":"Honduras","name_adm1":"Lempira","name_adm2":"Erandique","name_en":"Erandique"},"geometry":{"type":"Point","coordinates":[-88.46666999999998,14.23333]}},{"type":"feature","properties":{"country_en":"Honduras","name":"Nueva Ocotepeque","name_adm0":"Honduras","name_adm1":"Ocotepeque","name_adm2":"Ocotepeque","name_en":"Nueva Ocotepeque"},"geometry":{"type":"Point","coordinates":[-89.18332999999998,14.433329999999998]}},{"type":"feature","properties":{"country_en":"Honduras","name":"Protección","name_adm0":"Honduras","name_adm1":"Santa Bárbara","name_adm2":"Protección","name_en":"Protección"},"geometry":{"type":"Point","coordinates":[-88.64999999999999,15.03333]}},{"type":"feature","properties":{"country_en":"Honduras","name":"Sinuapa","name_adm0":"Honduras","name_adm1":"Ocotepeque","name_adm2":"Sinuapa","name_en":"Sinuapa"},"geometry":{"type":"Point","coordinates":[-89.18332999999998,14.449999999999998]}},{"type":"feature","properties":{"country_en":"Honduras","name":"Sico","name_adm0":"Honduras","name_adm1":"Colón","name_adm2":"Iriona","name_en":"Sico"},"geometry":{"type":"Point","coordinates":[-85.16667,15.816669999999998]}},{"type":"feature","properties":{"country_en":"Honduras","name":"Tocamacho","name_adm0":"Honduras","name_adm1":"Colón","name_adm2":"Iriona","name_en":"Tocamacho"},"geometry":{"type":"Point","coordinates":[-85.01666999999999,15.98333]}},{"type":"feature","properties":{"country_en":"Honduras","name":"Tomalá","name_adm0":"Honduras","name_adm1":"Lempira","name_adm2":"Tomalá","name_en":"Tomalá"},"geometry":{"type":"Point","coordinates":[-88.78333,14.21667]}},{"type":"feature","properties":{"country_en":"Honduras","name":"Tomalá","name_adm0":"Honduras","name_adm1":"Atlántida","name_adm2":"Jutiapa","name_en":"Tomalá"},"geometry":{"type":"Point","coordinates":[-86.49999999999999,15.68333]}},{"type":"feature","properties":{"country_en":"Honduras","name":"Toncontín","name_adm0":"Honduras","name_adm1":"Francisco Morazán","name_adm2":"Distrito Central","name_en":"Toncontín"},"geometry":{"type":"Point","coordinates":[-87.21666999999998,14.03333]}},{"type":"feature","properties":{"country_en":"Honduras","name":"Zambrano","name_adm0":"Honduras","name_adm1":"Francisco Morazán","name_adm2":"Distrito Central","name_en":"Zambrano"},"geometry":{"type":"Point","coordinates":[-87.4,14.266669999999998]}},{"type":"feature","properties":{"country_en":"Honduras","name":"Tocoa","name_adm0":"Honduras","name_adm1":"Colón","name_adm2":"Tocoa","name_en":"Tocoa"},"geometry":{"type":"Point","coordinates":[-86,15.68333]}},{"type":"feature","properties":{"country_en":"Honduras","name":"Suhí","name_adm0":"Honduras","name_adm1":"Gracias a Dios","name_adm2":"Puerto Lempira","name_en":"Suhí"},"geometry":{"type":"Point","coordinates":[-84.34999999999998,14.683329999999998]}},{"type":"feature","properties":{"country_en":"Honduras","name":"Valle de Ángeles","name_adm0":"Honduras","name_adm1":"Francisco Morazán","name_adm2":"Valle de Ángeles","name_en":"Valle de Ángeles"},"geometry":{"type":"Point","coordinates":[-87.03333,14.15]}},{"type":"feature","properties":{"country_en":"Honduras","name":"Santa Lucía","name_adm0":"Honduras","name_adm1":"Francisco Morazán","name_adm2":"Santa Lucía","name_en":"Santa Lucía"},"geometry":{"type":"Point","coordinates":[-87.11667,14.1]}},{"type":"feature","properties":{"country_en":"Honduras","name":"Santa Cruz de Yojoa","name_adm0":"Honduras","name_adm1":"Cortés","name_adm2":"Santa Cruz de Yojoa","name_en":"Santa Cruz de Yojoa"},"geometry":{"type":"Point","coordinates":[-87.9,14.983329999999999]}},{"type":"feature","properties":{"country_en":"Honduras","name":"Buenos Aires","name_adm0":"Honduras","name_adm1":"Francisco Morazán","name_adm2":"Distrito Central","name_en":"Buenos Aires"},"geometry":{"type":"Point","coordinates":[-87.2,14.11667]}},{"type":"feature","properties":{"country_en":"Honduras","name":"San Juan de Opoa","name_adm0":"Honduras","name_adm1":"Copán","name_adm2":"San Juan de Opoa","name_en":"San Juan de Opoa"},"geometry":{"type":"Point","coordinates":[-88.68333,14.78333]}},{"type":"feature","properties":{"country_en":"Honduras","name":"San Juan de Flores","name_adm0":"Honduras","name_adm1":"Francisco Morazán","name_adm2":"San Juan de Flores","name_en":"San Juan de Flores"},"geometry":{"type":"Point","coordinates":[-87,14.266669999999998]}},{"type":"feature","properties":{"country_en":"Honduras","name":"Utila","name_adm0":"Honduras","name_adm1":"Islas de la Bahía","name_adm2":"Utila","name_en":"Utila"},"geometry":{"type":"Point","coordinates":[-86.91667,16.099999999999998]}},{"type":"feature","properties":{"country_en":"Honduras","name":"Olanchito","name_adm0":"Honduras","name_adm1":"Yoro","name_adm2":"Olanchito","name_en":"Olanchito"},"geometry":{"type":"Point","coordinates":[-86.56667,15.499999999999998]}},{"type":"feature","properties":{"country_en":"Honduras","name":"El Rosario","name_adm0":"Honduras","name_adm1":"Olancho","name_adm2":"El Rosario","name_en":"El Rosario"},"geometry":{"type":"Point","coordinates":[-86.7,14.916670000000002]}},{"type":"feature","properties":{"country_en":"Honduras","name":"Esquías","name_adm0":"Honduras","name_adm1":"Comayagua","name_adm2":"Esquías","name_en":"Esquías"},"geometry":{"type":"Point","coordinates":[-87.41,14.65]}},{"type":"feature","properties":{"country_en":"Honduras","name":"Goascorán","name_adm0":"Honduras","name_adm1":"Valle","name_adm2":"Goascorán","name_en":"Goascorán"},"geometry":{"type":"Point","coordinates":[-87.7,13.589999999999998]}},{"type":"feature","properties":{"country_en":"Honduras","name":"Gualala","name_adm0":"Honduras","name_adm1":"Santa Bárbara","name_adm2":"Gualala","name_en":"Gualala"},"geometry":{"type":"Point","coordinates":[-88.17,14.98]}},{"type":"feature","properties":{"country_en":"Honduras","name":"Guarizama","name_adm0":"Honduras","name_adm1":"Olancho","name_adm2":"Guarizama","name_en":"Guarizama"},"geometry":{"type":"Point","coordinates":[-86.3,14.916670000000002]}},{"type":"feature","properties":{"country_en":"Honduras","name":"Magdalena","name_adm0":"Honduras","name_adm1":"Intibucá","name_adm2":"Magdalena","name_en":"Magdalena"},"geometry":{"type":"Point","coordinates":[-88.36666999999998,13.95]}},{"type":"feature","properties":{"country_en":"Honduras","name":"Mangulile","name_adm0":"Honduras","name_adm1":"Olancho","name_adm2":"Mangulile","name_en":"Mangulile"},"geometry":{"type":"Point","coordinates":[-86.8,15.083329999999998]}},{"type":"feature","properties":{"country_en":"Honduras","name":"San Antonio del Norte","name_adm0":"Honduras","name_adm1":"La Paz","name_adm2":"San Antonio del Norte","name_en":"San Antonio del Norte"},"geometry":{"type":"Point","coordinates":[-87.72,13.88]}},{"type":"feature","properties":{"country_en":"Honduras","name":"San Francisco del Valle","name_adm0":"Honduras","name_adm1":"Ocotepeque","name_adm2":"San Francisco del Valle","name_en":"San Francisco del Valle"},"geometry":{"type":"Point","coordinates":[-88.99,14.41]}},{"type":"feature","properties":{"country_en":"Honduras","name":"San Francisco","name_adm0":"Honduras","name_adm1":"Lempira","name_adm2":"San Francisco","name_en":"San Francisco"},"geometry":{"type":"Point","coordinates":[-88.36666999999998,14.1]}},{"type":"feature","properties":{"country_en":"Honduras","name":"San Isidro","name_adm0":"Honduras","name_adm1":"Intibucá","name_adm2":"San Isidro","name_en":"San Isidro"},"geometry":{"type":"Point","coordinates":[-88.11667,14.55]}},{"type":"feature","properties":{"country_en":"Honduras","name":"Tambla","name_adm0":"Honduras","name_adm1":"Lempira","name_adm2":"Tambla","name_en":"Tambla"},"geometry":{"type":"Point","coordinates":[-88.78333,14.2]}},{"type":"feature","properties":{"country_en":"Honduras","name":"Vado Ancho","name_adm0":"Honduras","name_adm1":"El Paraíso","name_adm2":"Vado Ancho","name_en":"Vado Ancho"},"geometry":{"type":"Point","coordinates":[-86.96667,13.716669999999999]}},{"type":"feature","properties":{"country_en":"Honduras","name":"San Francisco","name_adm0":"Honduras","name_adm1":"Atlántida","name_adm2":"San Francisco","name_en":"San Francisco"},"geometry":{"type":"Point","coordinates":[-87,15.666669999999998]}},{"type":"feature","properties":{"country_en":"Honduras","name":"Danlí","name_adm0":"Honduras","name_adm1":"El Paraíso","name_adm2":"Danlí","name_en":"Danlí"},"geometry":{"type":"Point","coordinates":[-86.37,14.09]}},{"type":"feature","properties":{"country_en":"Honduras","name":"Brisas del Llano","name_adm0":"Honduras","name_adm1":"Francisco Morazán","name_adm2":"La Venta","name_en":"Brisas del Llano"},"geometry":{"type":"Point","coordinates":[-87.4425,13.50583]}},{"type":"feature","properties":{"country_en":"Honduras","name":"Honduras Bruja","name_adm0":"Honduras","name_adm1":"Choluteca","name_adm2":"Orocuina","name_en":"Honduras Bruja"},"geometry":{"type":"Point","coordinates":[-87.11972,13.51]}},{"type":"feature","properties":{"country_en":"Honduras","name":"El Suyatillo","name_adm0":"Honduras","name_adm1":"Francisco Morazán","name_adm2":"Nueva Armenia","name_en":"El Suyatillo"},"geometry":{"type":"Point","coordinates":[-87.07806,13.94667]}},{"type":"feature","properties":{"country_en":"Honduras","name":"Atlántida","name_adm0":"Honduras","name_adm1":"Atlántida","name_en":"Atlántida"},"geometry":{"type":"Point","coordinates":[-87,15.666669999999998]}},{"type":"feature","properties":{"country_en":"Honduras","name":"Copán Ruinas","name_adm0":"Honduras","name_adm1":"Copán","name_adm2":"Copán Ruinas","name_en":"Copán Ruinas"},"geometry":{"type":"Point","coordinates":[-89.15,14.92]}},{"type":"feature","properties":{"country_en":"Honduras","name":"Copán","name_adm0":"Honduras","name_adm1":"Copán","name_adm2":"Copán Ruinas","name_en":"Copán"},"geometry":{"type":"Point","coordinates":[-89.15,14.833329999999998]}},{"type":"feature","properties":{"country_en":"Honduras","name":"La Lima","name_adm0":"Honduras","name_adm1":"Cortés","name_adm2":"La Lima","name_en":"La Lima"},"geometry":{"type":"Point","coordinates":[-87.88,15.46]}},{"type":"feature","properties":{"country_en":"Honduras","name":"Valle de Ángeles","name_adm0":"Honduras","name_adm1":"Francisco Morazán","name_adm2":"Valle de Ángeles","name_en":"Valle de Ángeles"},"geometry":{"type":"Point","coordinates":[-87.03333,14.15]}},{"type":"feature","properties":{"country_en":"Honduras","name":"Flowers Bay","name_adm0":"Honduras","name_adm1":"Islas de la Bahía","name_adm2":"Roatán","name_en":"Flowers Bay"},"geometry":{"type":"Point","coordinates":[-86.61667,16.28333]}},{"type":"feature","properties":{"country_en":"Honduras","name":"Olancho","name_adm0":"Honduras","name_adm1":"Olancho","name_en":"Olancho"},"geometry":{"type":"Point","coordinates":[-86,14.833329999999998]}},{"type":"feature","properties":{"country_en":"Honduras","name":"Olanchito","name_adm0":"Honduras","name_adm1":"Yoro","name_adm2":"Olanchito","name_en":"Olanchito"},"geometry":{"type":"Point","coordinates":[-86.54999999999998,15.483329999999999]}},{"type":"feature","properties":{"country_en":"Honduras","name":"Balfate","name_adm0":"Honduras","name_adm1":"Colón","name_adm2":"Balfate","name_en":"Balfate"},"geometry":{"type":"Point","coordinates":[-86.41667,15.799999999999999]}},{"type":"feature","properties":{"country_en":"Honduras","name":"El Níspero","name_adm0":"Honduras","name_adm1":"Santa Bárbara","name_adm2":"El Nispero","name_en":"El Níspero"},"geometry":{"type":"Point","coordinates":[-88.33333,14.766670000000001]}},{"type":"feature","properties":{"country_en":"Honduras","name":"Esparta","name_adm0":"Honduras","name_adm1":"Atlántida","name_adm2":"Esparta","name_en":"Esparta"},"geometry":{"type":"Point","coordinates":[-87.2,15.716669999999999]}},{"type":"feature","properties":{"country_en":"Honduras","name":"El Triunfo de la Cruz","name_adm0":"Honduras","name_adm1":"Atlántida","name_adm2":"Tela","name_en":"El Triunfo de la Cruz"},"geometry":{"type":"Point","coordinates":[-87.43333,15.766669999999998]}},{"type":"feature","properties":{"country_en":"Honduras","name":"Potrerillos","name_adm0":"Honduras","name_adm1":"Cortés","name_adm2":"Potrerillos","name_en":"Potrerillos"},"geometry":{"type":"Point","coordinates":[-87.96667,15.233329999999999]}},{"type":"feature","properties":{"country_en":"Honduras","name":"Fraternidad","name_adm0":"Honduras","name_adm1":"Ocotepeque","name_adm2":"Fraternidad","name_en":"Fraternidad"},"geometry":{"type":"Point","coordinates":[-89.08332999999999,14.533329999999998]}},{"type":"feature","properties":{"country_en":"Honduras","name":"Iriona","name_adm0":"Honduras","name_adm1":"Colón","name_adm2":"Iriona","name_en":"Iriona"},"geometry":{"type":"Point","coordinates":[-85.18333,15.95]}},{"type":"feature","properties":{"country_en":"Honduras","name":"El Porvenir","name_adm0":"Honduras","name_adm1":"Francisco Morazán","name_adm2":"La Venta","name_en":"El Porvenir"},"geometry":{"type":"Point","coordinates":[-86.85,14.08333]}},{"type":"feature","properties":{"country_en":"Honduras","name":"Jano","name_adm0":"Honduras","name_adm1":"Olancho","name_adm2":"Jano","name_en":"Jano"},"geometry":{"type":"Point","coordinates":[-86.49999999999999,15.05]}},{"type":"feature","properties":{"country_en":"Honduras","name":"Amapala","name_adm0":"Honduras","name_adm1":"Valle","name_adm2":"Amapala","name_en":"Amapala"},"geometry":{"type":"Point","coordinates":[-87.63333,13.28333]}},{"type":"feature","properties":{"country_en":"Honduras","name":"Comayagua","name_adm0":"Honduras","name_adm1":"Comayagua","name_adm2":"Comayagua","name_en":"Comayagua"},"geometry":{"type":"Point","coordinates":[-87.63333,14.449999999999998]}},{"type":"feature","properties":{"country_en":"Honduras","name":"Puerto Cortés","name_adm0":"Honduras","name_adm1":"Cortés","name_adm2":"Puerto Cortés","name_en":"Puerto Cortés"},"geometry":{"type":"Point","coordinates":[-87.849,15.79]}},{"type":"feature","properties":{"country_en":"Honduras","name":"Ojojona","name_adm0":"Honduras","name_adm1":"Francisco Morazán","name_adm2":"Ojojona","name_en":"Ojojona"},"geometry":{"type":"Point","coordinates":[-87.33333,13.95]}},{"type":"feature","properties":{"country_en":"Honduras","name":"Orocuina","name_adm0":"Honduras","name_adm1":"Choluteca","name_adm2":"Orocuina","name_en":"Orocuina"},"geometry":{"type":"Point","coordinates":[-87.1,13.46667]}},{"type":"feature","properties":{"country_en":"Honduras","name":"Baja Mar","name_adm0":"Honduras","name_adm1":"Cortés","name_adm2":"Puerto Cortés","name_en":"Baja Mar"},"geometry":{"type":"Point","coordinates":[-87.85,15.88333]}},{"type":"feature","properties":{"country_en":"Honduras","name":"Colomoncagua","name_adm0":"Honduras","name_adm1":"Intibucá","name_adm2":"Colomoncagua","name_en":"Colomoncagua"},"geometry":{"type":"Point","coordinates":[-88.28333,13.95]}},{"type":"feature","properties":{"country_en":"Honduras","name":"Comayagüela","name_adm0":"Honduras","name_adm1":"Francisco Morazán","name_adm2":"Distrito Central","name_en":"Comayagüela"},"geometry":{"type":"Point","coordinates":[-87.21666999999998,14.08333]}},{"type":"feature","properties":{"country_en":"Honduras","name":"La Venta","name_adm0":"Honduras","name_adm1":"Francisco Morazán","name_adm2":"Distrito Central","name_en":"La Venta"},"geometry":{"type":"Point","coordinates":[-87.16667,14.31667]}},{"type":"feature","properties":{"country_en":"Honduras","name":"La Venta","name_adm0":"Honduras","name_adm1":"Olancho","name_adm2":"Gualaco","name_en":"La Venta"},"geometry":{"type":"Point","coordinates":[-86.25,14.599999999999998]}},{"type":"feature","properties":{"country_en":"Honduras","name":"Lepaera","name_adm0":"Honduras","name_adm1":"Lempira","name_adm2":"Lepaera","name_en":"Lepaera"},"geometry":{"type":"Point","coordinates":[-88.58333,14.78333]}},{"type":"feature","properties":{"country_en":"Honduras","name":"Alauca","name_adm0":"Honduras","name_adm1":"El Paraíso","name_adm2":"Alauca","name_en":"Alauca"},"geometry":{"type":"Point","coordinates":[-86.68333,13.849999999999998]}},{"type":"feature","properties":{"country_en":"Honduras","name":"El Ojo de Agua","name_adm0":"Honduras","name_adm1":"El Paraíso","name_adm2":"Morocelli","name_en":"El Ojo de Agua"},"geometry":{"type":"Point","coordinates":[-86.88332999999999,14.05]}},{"type":"feature","properties":{"country_en":"Honduras","name":"La Lima","name_adm0":"Honduras","name_adm1":"Olancho","name_adm2":"Juticalpa","name_en":"La Lima"},"geometry":{"type":"Point","coordinates":[-86.23333,14.65]}},{"type":"feature","properties":{"country_en":"Honduras","name":"La Unión","name_adm0":"Honduras","name_adm1":"Santa Bárbara","name_adm2":"San Luis","name_en":"La Unión"},"geometry":{"type":"Point","coordinates":[-88.15,14.78333]}},{"type":"feature","properties":{"country_en":"Honduras","name":"Las Arenas","name_adm0":"Honduras","name_adm1":"Comayagua","name_adm2":"San Jerónimo","name_en":"Las Arenas"},"geometry":{"type":"Point","coordinates":[-87.5,14.616669999999997]}},{"type":"feature","properties":{"country_en":"Honduras","name":"Piedras Amarillas","name_adm0":"Honduras","name_adm1":"Atlántida","name_adm2":"Jutiapa","name_en":"Piedras Amarillas"},"geometry":{"type":"Point","coordinates":[-86.56667,15.68333]}},{"type":"feature","properties":{"country_en":"Honduras","name":"Pueblo San Agustín","name_adm0":"Honduras","name_adm1":"Copán","name_adm2":"Santa Rosa de Copán","name_en":"Pueblo San Agustín"},"geometry":{"type":"Point","coordinates":[-88.81667,14.78333]}},{"type":"feature","properties":{"country_en":"Honduras","name":"San Lorenzo","name_adm0":"Honduras","name_adm1":"Yoro","name_adm2":"Olanchito","name_en":"San Lorenzo"},"geometry":{"type":"Point","coordinates":[-86.95,15.416669999999998]}},{"type":"feature","properties":{"country_en":"Honduras","name":"San Miguelito","name_adm0":"Honduras","name_adm1":"Intibucá","name_adm2":"Colomoncagua","name_en":"San Miguelito"},"geometry":{"type":"Point","coordinates":[-88.3,14]}},{"type":"feature","properties":{"country_en":"Honduras","name":"San Miguelito Guancapla","name_adm0":"Honduras","name_adm1":"Intibucá","name_adm2":"San Miguel Guancapla","name_en":"San Miguelito Guancapla"},"geometry":{"type":"Point","coordinates":[-88.36666999999998,14.350000000000001]}},{"type":"feature","properties":{"country_en":"Honduras","name":"Talgua","name_adm0":"Honduras","name_adm1":"Lempira","name_adm2":"Talgua","name_en":"Talgua"},"geometry":{"type":"Point","coordinates":[-88.69999999999999,14.699999999999998]}},{"type":"feature","properties":{"country_en":"Honduras","name":"Virginia","name_adm0":"Honduras","name_adm1":"Lempira","name_adm2":"Virginia","name_en":"Virginia"},"geometry":{"type":"Point","coordinates":[-88.56667,14.01667]}},{"type":"feature","properties":{"country_en":"Honduras","name":"Descombros","name_adm0":"Honduras","name_adm1":"Colón","name_adm2":"Sonaguera","name_en":"Descombros"},"geometry":{"type":"Point","coordinates":[-86.41667,15.58333]}},{"type":"feature","properties":{"country_en":"Honduras","name":"Savannah Bight","name_adm0":"Honduras","name_adm1":"Islas de la Bahía","name_adm2":"Guanaja","name_en":"Savannah Bight"},"geometry":{"type":"Point","coordinates":[-85.85,16.45]}},{"type":"feature","properties":{"country_en":"Honduras","name":"Cucuyagua","name_adm0":"Honduras","name_adm1":"Copán","name_adm2":"Cucuyagua","name_en":"Cucuyagua"},"geometry":{"type":"Point","coordinates":[-88.86667,14.65]}},{"type":"feature","properties":{"country_en":"Honduras","name":"Bonito Oriental","name_adm0":"Honduras","name_adm1":"Colón","name_adm2":"Bonito Oriental","name_en":"Bonito Oriental"},"geometry":{"type":"Point","coordinates":[-85.73558999999999,15.74765]}},{"type":"feature","properties":{"country_en":"Honduras","name":"Jutiapa","name_adm0":"Honduras","name_adm1":"El Paraíso","name_adm2":"Danlí","name_en":"Jutiapa"},"geometry":{"type":"Point","coordinates":[-86.39999999999999,13.983329999999999]}},{"type":"feature","properties":{"country_en":"Honduras","name":"Guanaja","name_adm0":"Honduras","name_adm1":"Islas de la Bahía","name_adm2":"Guanaja","name_en":"Guanaja"},"geometry":{"type":"Point","coordinates":[-85.9,16.399999999999995]}},{"type":"feature","properties":{"country_en":"Honduras","name":"Lajas","name_adm0":"Honduras","name_adm1":"Comayagua","name_adm2":"Las Lajas","name_en":"Lajas"},"geometry":{"type":"Point","coordinates":[-88.06667,14.583329999999998]}},{"type":"feature","properties":{"country_en":"Honduras","name":"Travesía","name_adm0":"Honduras","name_adm1":"Cortés","name_adm2":"Puerto Cortés","name_en":"Travesía"},"geometry":{"type":"Point","coordinates":[-87.9,15.86667]}},{"type":"feature","properties":{"country_en":"Honduras","name":"Tornabé","name_adm0":"Honduras","name_adm1":"Atlántida","name_adm2":"Tela","name_en":"Tornabé"},"geometry":{"type":"Point","coordinates":[-87.55,15.75]}},{"type":"feature","properties":{"country_en":"Honduras","name":"Talanga","name_adm0":"Honduras","name_adm1":"Francisco Morazán","name_adm2":"Talanga","name_en":"Talanga"},"geometry":{"type":"Point","coordinates":[-87.08333,14.4]}},{"type":"feature","properties":{"country_en":"Honduras","name":"Santa Rosa de Aguán","name_adm0":"Honduras","name_adm1":"Colón","name_adm2":"Santa Rosa de Aguán","name_en":"Santa Rosa de Aguán"},"geometry":{"type":"Point","coordinates":[-85.71667,15.95]}},{"type":"feature","properties":{"country_en":"Honduras","name":"Yaruca","name_adm0":"Honduras","name_adm1":"Atlántida","name_adm2":"La Ceiba","name_en":"Yaruca"},"geometry":{"type":"Point","coordinates":[-86.66667,15.6]}},{"type":"feature","properties":{"country_en":"Honduras","name":"Santa Rosa de Copán","name_adm0":"Honduras","name_adm1":"Copán","name_adm2":"Santa Rosa de Copán","name_en":"Sta. Rosa de Copan"},"geometry":{"type":"Point","coordinates":[-88.77917,14.766670000000001]}},{"type":"feature","properties":{"country_en":"Honduras","name":"San Pedro Sula","name_adm0":"Honduras","name_adm1":"Cortés","name_adm2":"San Pedro Sula","name_en":"San Pedro Sula"},"geometry":{"type":"Point","coordinates":[-88.025,15.504169999999998]}},{"type":"feature","properties":{"country_en":"Honduras","name":"San Isidro","name_adm0":"Honduras","name_adm1":"Intibucá","name_adm2":"San Isidro","name_en":"San Isidro"},"geometry":{"type":"Point","coordinates":[-88.31666999999999,14]}},{"type":"feature","properties":{"country_en":"Honduras","name":"Agua Sucia","name_adm0":"Honduras","name_adm1":"Intibucá","name_adm2":"San Francisco de Opalaca","name_en":"Agua Sucia"},"geometry":{"type":"Point","coordinates":[-88.26666999999999,14.533329999999998]}},{"type":"feature","properties":{"country_en":"Honduras","name":"Aguanqueterique","name_adm0":"Honduras","name_adm1":"La Paz","name_adm2":"Aguanqueterique","name_en":"Aguanqueterique"},"geometry":{"type":"Point","coordinates":[-87.66333,13.951389999999998]}},{"type":"feature","properties":{"country_en":"Honduras","name":"Apacilagua","name_adm0":"Honduras","name_adm1":"Choluteca","name_adm2":"Apacilagua","name_en":"Apacilagua"},"geometry":{"type":"Point","coordinates":[-87.07556,13.47806]}},{"type":"feature","properties":{"country_en":"Honduras","name":"Campana","name_adm0":"Honduras","name_adm1":"Cortés","name_adm2":"Puerto Cortés","name_en":"Campana"},"geometry":{"type":"Point","coordinates":[-87.85,15.766669999999998]}},{"type":"feature","properties":{"country_en":"Honduras","name":"Candelaria","name_adm0":"Honduras","name_adm1":"Comayagua","name_adm2":"Ojos de Agua","name_en":"Candelaria"},"geometry":{"type":"Point","coordinates":[-87.61667,14.81667]}},{"type":"feature","properties":{"country_en":"Honduras","name":"Caridad","name_adm0":"Honduras","name_adm1":"Valle","name_adm2":"Caridad","name_en":"Caridad"},"geometry":{"type":"Point","coordinates":[-87.69305999999999,13.82722]}},{"type":"feature","properties":{"country_en":"Honduras","name":"Chinacla","name_adm0":"Honduras","name_adm1":"La Paz","name_adm2":"Chinacla","name_en":"Chinacla"},"geometry":{"type":"Point","coordinates":[-88,14.16667]}},{"type":"feature","properties":{"country_en":"Honduras","name":"Concepción","name_adm0":"Honduras","name_adm1":"Lempira","name_adm2":"Cololaca","name_en":"Concepción"},"geometry":{"type":"Point","coordinates":[-88.45,14.350000000000001]}},{"type":"feature","properties":{"country_en":"Honduras","name":"El Rosario","name_adm0":"Honduras","name_adm1":"Olancho","name_adm2":"El Rosario","name_en":"El Rosario"},"geometry":{"type":"Point","coordinates":[-86.68333,14.900000000000002]}},{"type":"feature","properties":{"country_en":"Honduras","name":"El Tránsito","name_adm0":"Honduras","name_adm1":"Valle","name_adm2":"Nacaome","name_en":"El Tránsito"},"geometry":{"type":"Point","coordinates":[-87.59861,13.51722]}},{"type":"feature","properties":{"country_en":"Honduras","name":"El Urraco","name_adm0":"Honduras","name_adm1":"Yoro","name_adm2":"Olanchito","name_en":"El Urraco"},"geometry":{"type":"Point","coordinates":[-86.41667,15.73333]}},{"type":"feature","properties":{"country_en":"Honduras","name":"El Zapotillo","name_adm0":"Honduras","name_adm1":"El Paraíso","name_adm2":"Danlí","name_en":"El Zapotillo"},"geometry":{"type":"Point","coordinates":[-86.61667,14.01667]}},{"type":"feature","properties":{"country_en":"Honduras","name":"Esquipulas del Norte","name_adm0":"Honduras","name_adm1":"Yoro","name_adm2":"Arenal","name_en":"Esquipulas del Norte"},"geometry":{"type":"Point","coordinates":[-86.53333,15.299999999999999]}},{"type":"feature","properties":{"country_en":"Honduras","name":"Gualcince","name_adm0":"Honduras","name_adm1":"Lempira","name_adm2":"Gualcince","name_en":"Gualcince"},"geometry":{"type":"Point","coordinates":[-88.55,14.11667]}},{"type":"feature","properties":{"country_en":"Honduras","name":"Isleta","name_adm0":"Honduras","name_adm1":"Colón","name_adm2":"Sabá","name_en":"Isleta"},"geometry":{"type":"Point","coordinates":[-86.16666999999998,15.566669999999998]}},{"type":"feature","properties":{"country_en":"Honduras","name":"Jalaca","name_adm0":"Honduras","name_adm1":"Francisco Morazán","name_adm2":"Talanga","name_en":"Jalaca"},"geometry":{"type":"Point","coordinates":[-87.18333,14.4]}},{"type":"feature","properties":{"country_en":"Honduras","name":"La Jigua","name_adm0":"Honduras","name_adm1":"Copán","name_adm2":"La Jigua","name_en":"La Jigua"},"geometry":{"type":"Point","coordinates":[-88.79999999999998,15.03333]}},{"type":"feature","properties":{"country_en":"Honduras","name":"La Junta","name_adm0":"Honduras","name_adm1":"Yoro","name_adm2":"El Progreso","name_en":"La Junta"},"geometry":{"type":"Point","coordinates":[-87.81667,15.7]}},{"type":"feature","properties":{"country_en":"Honduras","name":"La Unión","name_adm0":"Honduras","name_adm1":"Olancho","name_adm2":"La Unión","name_en":"La Unión"},"geometry":{"type":"Point","coordinates":[-86.71667,15.03333]}},{"type":"feature","properties":{"country_en":"Honduras","name":"La Unión","name_adm0":"Honduras","name_adm1":"Copán","name_adm2":"Nueva Arcadia","name_en":"La Unión"},"geometry":{"type":"Point","coordinates":[-88.55,15.133329999999999]}},{"type":"feature","properties":{"country_en":"Honduras","name":"La Unión","name_adm0":"Honduras","name_adm1":"Copán","name_adm2":"La Unión","name_en":"La Unión"},"geometry":{"type":"Point","coordinates":[-88.74999999999999,15.016669999999998]}},{"type":"feature","properties":{"country_en":"Honduras","name":"La Unión","name_adm0":"Honduras","name_adm1":"Olancho","name_adm2":"Campamento","name_en":"La Unión"},"geometry":{"type":"Point","coordinates":[-86.68333,14.533329999999998]}},{"type":"feature","properties":{"country_en":"Honduras","name":"La Unión","name_adm0":"Honduras","name_adm1":"Atlántida","name_adm2":"Tela","name_en":"La Unión"},"geometry":{"type":"Point","coordinates":[-87.7,15.7]}},{"type":"feature","properties":{"country_en":"Honduras","name":"Las Minas","name_adm0":"Honduras","name_adm1":"Olancho","name_adm2":"Gualaco","name_en":"Las Minas"},"geometry":{"type":"Point","coordinates":[-86.58333,14.599999999999998]}},{"type":"feature","properties":{"country_en":"Honduras","name":"Las Trojes","name_adm0":"Honduras","name_adm1":"El Paraíso","name_adm2":"Danlí","name_en":"Las Trojes"},"geometry":{"type":"Point","coordinates":[-86.33333,14.16667]}},{"type":"feature","properties":{"country_en":"Honduras","name":"Las Trojes","name_adm0":"Honduras","name_adm1":"El Paraíso","name_adm2":"Texiguat","name_en":"Las Trojes"},"geometry":{"type":"Point","coordinates":[-87.05,13.61667]}},{"type":"feature","properties":{"country_en":"Honduras","name":"Lauterique","name_adm0":"Honduras","name_adm1":"La Paz","name_adm2":"Lauterique","name_en":"Lauterique"},"geometry":{"type":"Point","coordinates":[-87.66056,13.85361]}},{"type":"feature","properties":{"country_en":"Honduras","name":"Magdalena","name_adm0":"Honduras","name_adm1":"Intibucá","name_adm2":"Colomoncagua","name_en":"Magdalena"},"geometry":{"type":"Point","coordinates":[-88.36666999999998,14.08333]}},{"type":"feature","properties":{"country_en":"Honduras","name":"Mapulaca","name_adm0":"Honduras","name_adm1":"Lempira","name_adm2":"Mapulaca","name_en":"Mapulaca"},"geometry":{"type":"Point","coordinates":[-88.61667,14.03333]}},{"type":"feature","properties":{"country_en":"Honduras","name":"Maraita","name_adm0":"Honduras","name_adm1":"Francisco Morazán","name_adm2":"Maraita","name_en":"Maraita"},"geometry":{"type":"Point","coordinates":[-87.03972,13.88417]}},{"type":"feature","properties":{"country_en":"Honduras","name":"Mejía","name_adm0":"Honduras","name_adm1":"Yoro","name_adm2":"Jocón","name_en":"Mejía"},"geometry":{"type":"Point","coordinates":[-86.88332999999999,15.21667]}},{"type":"feature","properties":{"country_en":"Honduras","name":"Mercedes de Oriente","name_adm0":"Honduras","name_adm1":"La Paz","name_adm2":"Mercedes de Oriente","name_en":"Mercedes de Oriente"},"geometry":{"type":"Point","coordinates":[-87.77583,13.91028]}},{"type":"feature","properties":{"country_en":"Honduras","name":"Morolica","name_adm0":"Honduras","name_adm1":"Choluteca","name_adm2":"Morolica","name_en":"Morolica"},"geometry":{"type":"Point","coordinates":[-86.9,13.566669999999998]}},{"type":"feature","properties":{"country_en":"Honduras","name":"Moropocay","name_adm0":"Honduras","name_adm1":"Valle","name_adm2":"Nacaome","name_en":"Moropocay"},"geometry":{"type":"Point","coordinates":[-87.47222,13.62444]}},{"type":"feature","properties":{"country_en":"Honduras","name":"Pimienta","name_adm0":"Honduras","name_adm1":"Cortés","name_adm2":"Pimienta","name_en":"Pimienta"},"geometry":{"type":"Point","coordinates":[-87.96667,15.28333]}},{"type":"feature","properties":{"country_en":"Honduras","name":"Sabana Grande","name_adm0":"Honduras","name_adm1":"Francisco Morazán","name_adm2":"Ojojona","name_en":"Sabana Grande"},"geometry":{"type":"Point","coordinates":[-87.28333,13.96667]}},{"type":"feature","properties":{"country_en":"Honduras","name":"San Antonio","name_adm0":"Honduras","name_adm1":"Copán","name_adm2":"San Antonio","name_en":"San Antonio"},"geometry":{"type":"Point","coordinates":[-88.88333,15.016669999999998]}},{"type":"feature","properties":{"country_en":"Honduras","name":"San Francisco","name_adm0":"Honduras","name_adm1":"Lempira","name_adm2":"San Sebastian","name_en":"San Francisco"},"geometry":{"type":"Point","coordinates":[-88.71667,14.38333]}},{"type":"feature","properties":{"country_en":"Honduras","name":"San Francisco","name_adm0":"Honduras","name_adm1":"Lempira","name_adm2":"San Francisco","name_en":"San Francisco"},"geometry":{"type":"Point","coordinates":[-88.36666999999998,14.11667]}},{"type":"feature","properties":{"country_en":"Honduras","name":"San Francisco","name_adm0":"Honduras","name_adm1":"Choluteca","name_adm2":"Namasigue","name_en":"San Francisco"},"geometry":{"type":"Point","coordinates":[-87.09833,13.18083]}},{"type":"feature","properties":{"country_en":"Honduras","name":"San Jerónimo","name_adm0":"Honduras","name_adm1":"Copán","name_adm2":"Santa Rita","name_en":"San Jerónimo"},"geometry":{"type":"Point","coordinates":[-89.03332999999999,14.833329999999998]}},{"type":"feature","properties":{"country_en":"Honduras","name":"San Jorge","name_adm0":"Honduras","name_adm1":"Ocotepeque","name_adm2":"San Jorge","name_en":"San Jorge"},"geometry":{"type":"Point","coordinates":[-89.13332999999999,14.65]}},{"type":"feature","properties":{"country_en":"Honduras","name":"San José","name_adm0":"Honduras","name_adm1":"Choluteca","name_adm2":"San José","name_en":"San José"},"geometry":{"type":"Point","coordinates":[-87.20111,13.21917]}},{"type":"feature","properties":{"country_en":"Honduras","name":"San Juan","name_adm0":"Honduras","name_adm1":"Intibucá","name_adm2":"Concepción","name_en":"San Juan"},"geometry":{"type":"Point","coordinates":[-87.89861,13.90889]}},{"type":"feature","properties":{"country_en":"Honduras","name":"San Juan","name_adm0":"Honduras","name_adm1":"La Paz","name_adm2":"San Juan","name_en":"San Juan"},"geometry":{"type":"Point","coordinates":[-87.695,13.95889]}},{"type":"feature","properties":{"country_en":"Honduras","name":"San Marcos de Sierra","name_adm0":"Honduras","name_adm1":"Intibucá","name_adm2":"San Marcos de la Sierra","name_en":"San Marcos de Sierra"},"geometry":{"type":"Point","coordinates":[-88.25,14.11667]}},{"type":"feature","properties":{"country_en":"Honduras","name":"San Miguelito","name_adm0":"Honduras","name_adm1":"Francisco Morazán","name_adm2":"San Miguelito","name_en":"San Miguelito"},"geometry":{"type":"Point","coordinates":[-87.49444,13.74139]}},{"type":"feature","properties":{"country_en":"Honduras","name":"Santa Ana","name_adm0":"Honduras","name_adm1":"La Paz","name_adm2":"Santa Ana","name_en":"Santa Ana"},"geometry":{"type":"Point","coordinates":[-87.95,14.06667]}},{"type":"feature","properties":{"country_en":"Honduras","name":"Santa Ana","name_adm0":"Honduras","name_adm1":"El Paraíso","name_adm2":"Danlí","name_en":"Santa Ana"},"geometry":{"type":"Point","coordinates":[-86.44999999999999,13.96667]}},{"type":"feature","properties":{"country_en":"Honduras","name":"Santa Cruz","name_adm0":"Honduras","name_adm1":"Olancho","name_adm2":"Guayape","name_en":"Santa Cruz"},"geometry":{"type":"Point","coordinates":[-86.21666999999998,14.883329999999999]}},{"type":"feature","properties":{"country_en":"Honduras","name":"Santa Cruz","name_adm0":"Honduras","name_adm1":"Comayagua","name_adm2":"Taulabe","name_en":"Santa Cruz"},"geometry":{"type":"Point","coordinates":[-88,14.433329999999998]}},{"type":"feature","properties":{"country_en":"Honduras","name":"Terreritos","name_adm0":"Honduras","name_adm1":"Comayagua","name_adm2":"La Libertad","name_en":"Terreritos"},"geometry":{"type":"Point","coordinates":[-88.2,14.866669999999997]}},{"type":"feature","properties":{"country_en":"Honduras","name":"Vado Ancho","name_adm0":"Honduras","name_adm1":"El Paraíso","name_adm2":"Vado Ancho","name_en":"Vado Ancho"},"geometry":{"type":"Point","coordinates":[-86.98332999999998,13.61667]}},{"type":"feature","properties":{"country_en":"Honduras","name":"Vallecillo","name_adm0":"Honduras","name_adm1":"Francisco Morazán","name_adm2":"Lepaterique","name_en":"Vallecillo"},"geometry":{"type":"Point","coordinates":[-87.5,14.03333]}},{"type":"feature","properties":{"country_en":"Honduras","name":"El Rancho","name_adm0":"Honduras","name_adm1":"Comayagua","name_adm2":"Esquías","name_en":"El Rancho"},"geometry":{"type":"Point","coordinates":[-87.85,14.333329999999998]}},{"type":"feature","properties":{"country_en":"Honduras","name":"Santa Elena","name_adm0":"Honduras","name_adm1":"La Paz","name_adm2":"Santa Elena","name_en":"Santa Elena"},"geometry":{"type":"Point","coordinates":[-88.78333,13.76667]}},{"type":"feature","properties":{"country_en":"Honduras","name":"Dulce Nombre de Culmí","name_adm0":"Honduras","name_adm1":"Olancho","name_adm2":"Dulce Nombre de Culmí","name_en":"Dulce Nombre de Culmí"},"geometry":{"type":"Point","coordinates":[-85.53333,15.099999999999998]}},{"type":"feature","properties":{"country_en":"Honduras","name":"Cuyamelito","name_adm0":"Honduras","name_adm1":"Cortés","name_adm2":"Omoa","name_en":"Cuyamelito"},"geometry":{"type":"Point","coordinates":[-88.31666999999999,15.61667]}},{"type":"feature","properties":{"country_en":"Honduras","name":"Dolores","name_adm0":"Honduras","name_adm1":"Ocotepeque","name_adm2":"Dolores Merendon","name_en":"Dolores"},"geometry":{"type":"Point","coordinates":[-89.11667,14.533329999999998]}},{"type":"feature","properties":{"country_en":"Honduras","name":"Choluteca","name_adm0":"Honduras","name_adm1":"Choluteca","name_en":"Choluteca"},"geometry":{"type":"Point","coordinates":[-87.08333,13.33333]}},{"type":"feature","properties":{"country_en":"Honduras","name":"Belén Gualcho","name_adm0":"Honduras","name_adm1":"Ocotepeque","name_adm2":"Belén Gualcho","name_en":"Belén Gualcho"},"geometry":{"type":"Point","coordinates":[-88.78333,14.483330000000002]}},{"type":"feature","properties":{"country_en":"Honduras","name":"Bonito Oriental","name_adm0":"Honduras","name_adm1":"Colón","name_adm2":"Bonito Oriental","name_en":"Bonito Oriental"},"geometry":{"type":"Point","coordinates":[-85.7361,15.74641]}},{"type":"feature","properties":{"country_en":"Honduras","name":"Sinuapa","name_adm0":"Honduras","name_adm1":"Ocotepeque","name_adm2":"Sinuapa","name_en":"Sinuapa"},"geometry":{"type":"Point","coordinates":[-89.21667,14.449999999999998]}},{"type":"feature","properties":{"country_en":"Honduras","name":"Alubarén","name_adm0":"Honduras","name_adm1":"Francisco Morazán","name_adm2":"Alubarén","name_en":"Alubarén"},"geometry":{"type":"Point","coordinates":[-87.46889,13.79611]}},{"type":"feature","properties":{"country_en":"Honduras","name":"Santa Rosa de Copán","name_adm0":"Honduras","name_adm1":"Copán","name_adm2":"Santa Rosa de Copán","name_en":"Santa Rosa de Copán"},"geometry":{"type":"Point","coordinates":[-88.78333,14.766670000000001]}},{"type":"feature","properties":{"country_en":"Honduras","name":"Catacamas","name_adm0":"Honduras","name_adm1":"Olancho","name_adm2":"Catacamas","name_en":"Catacamas"},"geometry":{"type":"Point","coordinates":[-85.9,14.833329999999998]}},{"type":"feature","properties":{"country_en":"Honduras","name":"Esparta","name_adm0":"Honduras","name_adm1":"Atlántida","name_adm2":"Esparta","name_en":"Esparta"},"geometry":{"type":"Point","coordinates":[-87.2,15.666669999999998]}},{"type":"feature","properties":{"country_en":"Honduras","name":"El Porvenir","name_adm0":"Honduras","name_adm1":"Atlántida","name_adm2":"El Porvenir","name_en":"El Porvenir"},"geometry":{"type":"Point","coordinates":[-86.91667,15.666669999999998]}},{"type":"feature","properties":{"country_en":"Honduras","name":"Iriona","name_adm0":"Honduras","name_adm1":"Colón","name_adm2":"Iriona","name_en":"Iriona"},"geometry":{"type":"Point","coordinates":[-85.21667,15.58333]}},{"type":"feature","properties":{"country_en":"Honduras","name":"Intibucá","name_adm0":"Honduras","name_adm1":"Intibucá","name_adm2":"Intibucá","name_en":"Intibucá"},"geometry":{"type":"Point","coordinates":[-88.17,14.43]}},{"type":"feature","properties":{"country_en":"Honduras","name":"Juticalpa","name_adm0":"Honduras","name_adm1":"Olancho","name_adm2":"Juticalpa","name_en":"Juticalpa"},"geometry":{"type":"Point","coordinates":[-86.3,14.55]}},{"type":"feature","properties":{"country_en":"Honduras","name":"José Santos Guardiola","name_adm0":"Honduras","name_adm1":"Islas de la Bahía","name_adm2":"José Santos Guardiola","name_en":"José Santos Guardiola"},"geometry":{"type":"Point","coordinates":[-86.25,16.41667]}},{"type":"feature","properties":{"country_en":"Honduras","name":"Lepaterique","name_adm0":"Honduras","name_adm1":"Francisco Morazán","name_adm2":"Lepaterique","name_en":"Lepaterique"},"geometry":{"type":"Point","coordinates":[-87.53333,14.05]}},{"type":"feature","properties":{"country_en":"Honduras","name":"San Pedro Sula","name_adm0":"Honduras","name_adm1":"Cortés","name_adm2":"San Pedro Sula","name_en":"San Pedro Sula"},"geometry":{"type":"Point","coordinates":[-88,15.499999999999998]}},{"type":"feature","properties":{"country_en":"Honduras","name":"Santa Cruz de Yojoa","name_adm0":"Honduras","name_adm1":"Cortés","name_adm2":"Santa Cruz de Yojoa","name_en":"Santa Cruz de Yojoa"},"geometry":{"type":"Point","coordinates":[-87.88333,14.96667]}},{"type":"feature","properties":{"country_en":"Honduras","name":"San Lorenzo","name_adm0":"Honduras","name_adm1":"Valle","name_adm2":"San Lorenzo","name_en":"San Lorenzo"},"geometry":{"type":"Point","coordinates":[-87.45,13.41667]}},{"type":"feature","properties":{"country_en":"Honduras","name":"Morocelli","name_adm0":"Honduras","name_adm1":"El Paraíso","name_adm2":"Morocelli","name_en":"Morocelli"},"geometry":{"type":"Point","coordinates":[-86.791992,13.848747]}},{"type":"feature","properties":{"country_en":"Honduras","name":"Sonaguera","name_adm0":"Honduras","name_adm1":"Colón","name_adm2":"Sonaguera","name_en":"Sonaguera"},"geometry":{"type":"Point","coordinates":[-86.33333,15.633329999999999]}},{"type":"feature","properties":{"country_en":"Honduras","name":"Arenales","name_adm0":"Honduras","name_adm1":"Cortés","name_adm2":"San Pedro Sula","name_en":"Arenales"},"geometry":{"type":"Point","coordinates":[-88,15.45]}},{"type":"feature","properties":{"country_en":"Honduras","name":"Concepción","name_adm0":"Honduras","name_adm1":"Copán","name_adm2":"Concepción","name_en":"Concepción"},"geometry":{"type":"Point","coordinates":[-88.84999999999998,14.833329999999998]}},{"type":"feature","properties":{"country_en":"Honduras","name":"Concepción","name_adm0":"Honduras","name_adm1":"Ocotepeque","name_adm2":"Concepción","name_en":"Concepción"},"geometry":{"type":"Point","coordinates":[-88.96667,14.3]}},{"type":"feature","properties":{"country_en":"Honduras","name":"Concepción del Norte","name_adm0":"Honduras","name_adm1":"Santa Bárbara","name_adm2":"Concepción del Norte","name_en":"Concepción del Norte"},"geometry":{"type":"Point","coordinates":[-88.13333,15.166669999999998]}},{"type":"feature","properties":{"country_en":"Honduras","name":"Corinto","name_adm0":"Honduras","name_adm1":"Cortés","name_adm2":"Omoa","name_en":"Corinto"},"geometry":{"type":"Point","coordinates":[-88.36666999999998,15.58333]}},{"type":"feature","properties":{"country_en":"Honduras","name":"El Higuerito","name_adm0":"Honduras","name_adm1":"Cortés","name_adm2":"Santa Cruz de Yojoa","name_en":"El Higuerito"},"geometry":{"type":"Point","coordinates":[-87.93333,15.016669999999998]}},{"type":"feature","properties":{"country_en":"Honduras","name":"El Mogote","name_adm0":"Honduras","name_adm1":"Santa Bárbara","name_adm2":"San Pedro Zacapa","name_en":"El Mogote"},"geometry":{"type":"Point","coordinates":[-88.06667,14.766670000000001]}},{"type":"feature","properties":{"country_en":"Honduras","name":"Santa Lucía","name_adm0":"Honduras","name_adm1":"Francisco Morazán","name_adm2":"Santa Lucía","name_en":"Santa Lucía"},"geometry":{"type":"Point","coordinates":[-87.1,14.1]}},{"type":"feature","properties":{"country_en":"Honduras","name":"Santa Bárbara","name_adm0":"Honduras","name_adm1":"Santa Bárbara","name_adm2":"Santa Bárbara","name_en":"Santa Bárbara"},"geometry":{"type":"Point","coordinates":[-88.16,14.900000000000002]}},{"type":"feature","properties":{"country_en":"Honduras","name":"Curarén","name_adm0":"Honduras","name_adm1":"Francisco Morazán","name_adm2":"Curarén","name_en":"Curarén"},"geometry":{"type":"Point","coordinates":[-87.53194,13.84861]}},{"type":"feature","properties":{"country_en":"Honduras","name":"Tras Cerros","name_adm0":"Honduras","name_adm1":"Santa Bárbara","name_adm2":"Tras Cerros","name_en":"Tras Cerros"},"geometry":{"type":"Point","coordinates":[-88.132152,14.902320999999999]}},{"type":"feature","properties":{"country_en":"Honduras","name":"Los Planes","name_adm0":"Honduras","name_adm1":"La Paz","name_adm2":"Marcala","name_en":"Los Planes"},"geometry":{"type":"Point","coordinates":[-88.03332999999999,14.08333]}},{"type":"feature","properties":{"country_en":"Honduras","name":"Concepción de Maria","name_adm0":"Honduras","name_adm1":"Choluteca","name_adm2":"Concepción de Maria","name_en":"Concepción de Maria"},"geometry":{"type":"Point","coordinates":[-86.949825,13.192991]}},{"type":"feature","properties":{"country_en":"Honduras","name":"Trinidad","name_adm0":"Honduras","name_adm1":"Copán","name_adm2":"Trinidad","name_en":"Trinidad"},"geometry":{"type":"Point","coordinates":[-88.930229,14.893179]}},{"type":"feature","properties":{"country_en":"Honduras","name":"Colón","name_adm0":"Honduras","name_adm1":"Colón","name_en":"Colón"},"geometry":{"type":"Point","coordinates":[-85.66667,15.75]}},{"type":"feature","properties":{"country_en":"Honduras","name":"Villeda Morales","name_adm0":"Honduras","name_adm1":"Gracias a Dios","name_adm2":"Villeda Morales","name_en":"Villeda Morales"},"geometry":{"type":"Point","coordinates":[-83.35361,15.084719999999999]}},{"type":"feature","properties":{"country_en":"Honduras","name":"Santa Ana","name_adm0":"Honduras","name_adm1":"Francisco Morazán","name_adm2":"Santa Ana","name_en":"Santa Ana"},"geometry":{"type":"Point","coordinates":[-87.27139,13.93167]}},{"type":"feature","properties":{"country_en":"Honduras","name":"San Nicolás","name_adm0":"Honduras","name_adm1":"Santa Bárbara","name_adm2":"San Nicolás","name_en":"San Nicolás"},"geometry":{"type":"Point","coordinates":[-88.31666999999999,14.933329999999998]}},{"type":"feature","properties":{"country_en":"Honduras","name":"San Matías","name_adm0":"Honduras","name_adm1":"El Paraíso","name_adm2":"San Matías","name_en":"San Matías"},"geometry":{"type":"Point","coordinates":[-86.63333,13.983329999999999]}},{"type":"feature","properties":{"country_en":"Honduras","name":"San Francisco","name_adm0":"Honduras","name_adm1":"Atlántida","name_adm2":"San Francisco","name_en":"San Francisco"},"geometry":{"type":"Point","coordinates":[-87.05,15.649999999999999]}},{"type":"feature","properties":{"country_en":"Honduras","name":"Paredes","name_adm0":"Honduras","name_adm1":"El Paraíso","name_adm2":"Trojes","name_en":"Paredes"},"geometry":{"type":"Point","coordinates":[-85.98333,13.96667]}},{"type":"feature","properties":{"country_en":"Honduras","name":"La Estancia","name_adm0":"Honduras","name_adm1":"Francisco Morazán","name_adm2":"Lepaterique","name_en":"La Estancia"},"geometry":{"type":"Point","coordinates":[-87.53333,14]}},{"type":"feature","properties":{"country_en":"Honduras","name":"La Guata","name_adm0":"Honduras","name_adm1":"Olancho","name_adm2":"Guata","name_en":"La Guata"},"geometry":{"type":"Point","coordinates":[-86.38333,15.083329999999998]}},{"type":"feature","properties":{"country_en":"Honduras","name":"La Ceiba","name_adm0":"Honduras","name_adm1":"Atlántida","name_adm2":"La Ceiba","name_en":"La Ceiba"},"geometry":{"type":"Point","coordinates":[-86.76,15.670000000000002]}},{"type":"feature","properties":{"country_en":"Honduras","name":"Omoa","name_adm0":"Honduras","name_adm1":"Cortés","name_adm2":"Omoa","name_en":"Omoa"},"geometry":{"type":"Point","coordinates":[-88.2,15.649999999999999]}},{"type":"feature","properties":{"country_en":"Honduras","name":"Roatán","name_adm0":"Honduras","name_adm1":"Islas de la Bahía","name_adm2":"Roatán","name_en":"Roatán"},"geometry":{"type":"Point","coordinates":[-86.53763,16.34098]}},{"type":"feature","properties":{"country_en":"Honduras","name":"Tela","name_adm0":"Honduras","name_adm1":"Atlántida","name_adm2":"Tela","name_en":"Tela"},"geometry":{"type":"Point","coordinates":[-87.58,15.7]}},{"type":"feature","properties":{"country_en":"Honduras","name":"Francisco Morazán","name_adm0":"Honduras","name_adm1":"Francisco Morazán","name_en":"Francisco Morazán"},"geometry":{"type":"Point","coordinates":[-87.16667,14.249999999999998]}},{"type":"feature","properties":{"country_en":"Honduras","name":"Intibucá","name_adm0":"Honduras","name_adm1":"Intibucá","name_en":"Intibucá"},"geometry":{"type":"Point","coordinates":[-88.16667,14.333329999999998]}},{"type":"feature","properties":{"country_en":"Honduras","name":"Islas de la Bahía","name_adm0":"Honduras","name_adm1":"Islas de la Bahía","name_en":"Islas de la Bahía"},"geometry":{"type":"Point","coordinates":[-86.49999999999999,16.33333]}},{"type":"feature","properties":{"country_en":"Honduras","name":"Gracias a Dios","name_adm0":"Honduras","name_adm1":"Gracias a Dios","name_en":"Gracias a Dios"},"geometry":{"type":"Point","coordinates":[-84.33333,15.249999999999998]}},{"type":"feature","properties":{"country_en":"Honduras","name":"Talanga","name_adm0":"Honduras","name_adm1":"Francisco Morazán","name_adm2":"Talanga","name_en":"Talanga"},"geometry":{"type":"Point","coordinates":[-87.08333,14.4]}},{"type":"feature","properties":{"country_en":"Honduras","name":"Petoa","name_adm0":"Honduras","name_adm1":"Santa Bárbara","name_adm2":"Petoa","name_en":"Petoa"},"geometry":{"type":"Point","coordinates":[-88.28333,15.266669999999998]}},{"type":"feature","properties":{"country_en":"Honduras","name":"Santa Bárbara","name_adm0":"Honduras","name_adm1":"Santa Bárbara","name_adm2":"Santa Bárbara","name_en":"Sta. Barbara"},"geometry":{"type":"Point","coordinates":[-88.23611,14.91944]}},{"type":"feature","properties":{"country_en":"Honduras","name":"La Esperanza","name_adm0":"Honduras","name_adm1":"Cortés","name_adm2":"Villanueva","name_en":"La Esperanza"},"geometry":{"type":"Point","coordinates":[-88.08332999999999,15.266669999999998]}},{"type":"feature","properties":{"country_en":"Honduras","name":"La Presa","name_adm0":"Honduras","name_adm1":"Colón","name_adm2":"Trujillo","name_en":"La Presa"},"geometry":{"type":"Point","coordinates":[-86.85,15.75]}},{"type":"feature","properties":{"country_en":"Honduras","name":"Santa Fe","name_adm0":"Honduras","name_adm1":"Ocotepeque","name_adm2":"Santa Fé","name_en":"Santa Fe"},"geometry":{"type":"Point","coordinates":[-89.23332999999998,14.51667]}},{"type":"feature","properties":{"country_en":"Honduras","name":"Santa Fe","name_adm0":"Honduras","name_adm1":"Colón","name_adm2":"Santa Fé","name_en":"Santa Fe"},"geometry":{"type":"Point","coordinates":[-86.02947,15.882089999999998]}},{"type":"feature","properties":{"country_en":"Honduras","name":"Tatumbla","name_adm0":"Honduras","name_adm1":"Francisco Morazán","name_adm2":"Tatumbla","name_en":"Tatumbla"},"geometry":{"type":"Point","coordinates":[-87.1,14.01667]}},{"type":"feature","properties":{"country_en":"Honduras","name":"Tegucigalpita","name_adm0":"Honduras","name_adm1":"Cortés","name_adm2":"Omoa","name_en":"Tegucigalpita"},"geometry":{"type":"Point","coordinates":[-87.45,15.316670000000002]}},{"type":"feature","properties":{"country_en":"Honduras","name":"Veracruz","name_adm0":"Honduras","name_adm1":"Cortés","name_adm2":"Omoa","name_en":"Veracruz"},"geometry":{"type":"Point","coordinates":[-88.11667,15.68333]}},{"type":"feature","properties":{"country_en":"Honduras","name":"Santa María del Real","name_adm0":"Honduras","name_adm1":"Olancho","name_adm2":"Santamaria del Real","name_en":"Santa María del Real"},"geometry":{"type":"Point","coordinates":[-85.95,14.766670000000001]}},{"type":"feature","properties":{"country_en":"Honduras","name":"Sandy Bay","name_adm0":"Honduras","name_adm1":"Islas de la Bahía","name_adm2":"Roatán","name_en":"Sandy Bay"},"geometry":{"type":"Point","coordinates":[-86.56446,16.329229999999995]}},{"type":"feature","properties":{"country_en":"Honduras","name":"Santa Rita","name_adm0":"Honduras","name_adm1":"Copán","name_adm2":"Santa Rita","name_en":"Santa Rita"},"geometry":{"type":"Point","coordinates":[-89.01,14.879999999999999]}},{"type":"feature","properties":{"country_en":"Honduras","name":"Alianza","name_adm0":"Honduras","name_adm1":"Valle","name_adm2":"Alianza","name_en":"Alianza"},"geometry":{"type":"Point","coordinates":[-87.13333,13.48333]}},{"type":"feature","properties":{"country_en":"Honduras","name":"Barra de Caratasca","name_adm0":"Honduras","name_adm1":"Gracias a Dios","name_adm2":"Puerto Lempira","name_en":"Barra de Caratasca"},"geometry":{"type":"Point","coordinates":[-83.73332999999998,15.366669999999997]}},{"type":"feature","properties":{"country_en":"Honduras","name":"Chinda","name_adm0":"Honduras","name_adm1":"Santa Bárbara","name_adm2":"Chinda","name_en":"Chinda"},"geometry":{"type":"Point","coordinates":[-88.2,15.116669999999997]}},{"type":"feature","properties":{"country_en":"Honduras","name":"Cieneguita","name_adm0":"Honduras","name_adm1":"Cortés","name_adm2":"Choloma","name_en":"Cieneguita"},"geometry":{"type":"Point","coordinates":[-87.93333,15.75]}},{"type":"feature","properties":{"country_en":"Honduras","name":"Copradia","name_adm0":"Honduras","name_adm1":"Francisco Morazán","name_adm2":"Guaimaca","name_en":"Copradia"},"geometry":{"type":"Point","coordinates":[-87.10389,14]}},{"type":"feature","properties":{"country_en":"Honduras","name":"Jícaro Galán","name_adm0":"Honduras","name_adm1":"Valle","name_adm2":"Nacaome","name_en":"Jícaro Galán"},"geometry":{"type":"Point","coordinates":[-87.43889,13.53167]}},{"type":"feature","properties":{"country_en":"Honduras","name":"Guanchía","name_adm0":"Honduras","name_adm1":"Yoro","name_adm2":"Santa Rita","name_en":"Guanchía"},"geometry":{"type":"Point","coordinates":[-87.88333,15.149999999999999]}},{"type":"feature","properties":{"country_en":"Honduras","name":"Guarita","name_adm0":"Honduras","name_adm1":"Lempira","name_adm2":"Guarita","name_en":"Guarita"},"geometry":{"type":"Point","coordinates":[-88.81667,14.18333]}},{"type":"feature","properties":{"country_en":"Honduras","name":"Horconcito","name_adm0":"Honduras","name_adm1":"Santa Bárbara","name_adm2":"Ceguaca","name_en":"Horconcito"},"geometry":{"type":"Point","coordinates":[-88.18333,14.833329999999998]}},{"type":"feature","properties":{"country_en":"Honduras","name":"Humuya","name_adm0":"Honduras","name_adm1":"Comayagua","name_adm2":"Humuya","name_en":"Humuya"},"geometry":{"type":"Point","coordinates":[-87.66667,14.249999999999998]}},{"type":"feature","properties":{"country_en":"Honduras","name":"Ilamapa","name_adm0":"Honduras","name_adm1":"Atlántida","name_adm2":"Jutiapa","name_en":"Ilamapa"},"geometry":{"type":"Point","coordinates":[-86.44999999999999,15.649999999999999]}},{"type":"feature","properties":{"country_en":"Honduras","name":"Krata","name_adm0":"Honduras","name_adm1":"Gracias a Dios","name_adm2":"Puerto Lempira","name_en":"Krata"},"geometry":{"type":"Point","coordinates":[-83.83333,15.43333]}},{"type":"feature","properties":{"country_en":"Honduras","name":"La Libertad","name_adm0":"Honduras","name_adm1":"Francisco Morazán","name_adm2":"La Libertad","name_en":"La Libertad"},"geometry":{"type":"Point","coordinates":[-87.1,14.66667]}},{"type":"feature","properties":{"country_en":"Honduras","name":"La Vega","name_adm0":"Honduras","name_adm1":"Santa Bárbara","name_adm2":"San Luis","name_en":"La Vega"},"geometry":{"type":"Point","coordinates":[-87.88333,15.06667]}},{"type":"feature","properties":{"country_en":"Honduras","name":"La Venta","name_adm0":"Honduras","name_adm1":"Francisco Morazán","name_adm2":"La Venta","name_en":"La Venta"},"geometry":{"type":"Point","coordinates":[-87.31306,13.75806]}},{"type":"feature","properties":{"country_en":"Honduras","name":"Laka","name_adm0":"Honduras","name_adm1":"Gracias a Dios","name_adm2":"Puerto Lempira","name_en":"Laka"},"geometry":{"type":"Point","coordinates":[-83.68332999999998,15.166669999999998]}},{"type":"feature","properties":{"country_en":"Honduras","name":"Las Estancias","name_adm0":"Honduras","name_adm1":"La Paz","name_adm2":"Santa María","name_en":"Las Estancias"},"geometry":{"type":"Point","coordinates":[-88.26666999999999,13.566669999999998]}},{"type":"feature","properties":{"country_en":"Honduras","name":"Locomapa","name_adm0":"Honduras","name_adm1":"Yoro","name_adm2":"Yoro","name_en":"Locomapa"},"geometry":{"type":"Point","coordinates":[-87.28333,15.316670000000002]}},{"type":"feature","properties":{"country_en":"Honduras","name":"Los Planes","name_adm0":"Honduras","name_adm1":"Francisco Morazán","name_adm2":"Lepaterique","name_en":"Los Planes"},"geometry":{"type":"Point","coordinates":[-87.56667,14.11667]}},{"type":"feature","properties":{"country_en":"Honduras","name":"Palo Pintado","name_adm0":"Honduras","name_adm1":"Comayagua","name_adm2":"Comayagua","name_en":"Palo Pintado"},"geometry":{"type":"Point","coordinates":[-87.68333,14.51667]}},{"type":"feature","properties":{"country_en":"Honduras","name":"Pueblo Nuevo","name_adm0":"Honduras","name_adm1":"Santa Bárbara","name_adm2":"San Francisco de Ojuera","name_en":"Pueblo Nuevo"},"geometry":{"type":"Point","coordinates":[-88.28333,14.66667]}},{"type":"feature","properties":{"country_en":"Honduras","name":"Pueblo Viejo","name_adm0":"Honduras","name_adm1":"Olancho","name_adm2":"Guata","name_en":"Pueblo Viejo"},"geometry":{"type":"Point","coordinates":[-86.18333,14.66667]}},{"type":"feature","properties":{"country_en":"Honduras","name":"San Antonio","name_adm0":"Honduras","name_adm1":"Intibucá","name_adm2":"San Juan","name_en":"San Antonio"},"geometry":{"type":"Point","coordinates":[-88.48333,14.366670000000001]}},{"type":"feature","properties":{"country_en":"Honduras","name":"San Antonio","name_adm0":"Honduras","name_adm1":"Intibucá","name_adm2":"San Miguel Guancapla","name_en":"San Antonio"},"geometry":{"type":"Point","coordinates":[-88.35,14.333329999999998]}},{"type":"feature","properties":{"country_en":"Honduras","name":"San Antonio","name_adm0":"Honduras","name_adm1":"Intibucá","name_adm2":"San Antonio","name_en":"San Antonio"},"geometry":{"type":"Point","coordinates":[-88.31666999999999,13.93333]}},{"type":"feature","properties":{"country_en":"Honduras","name":"San Antonio de Flores","name_adm0":"Honduras","name_adm1":"El Paraíso","name_adm2":"San Antonio de Flores","name_en":"San Antonio de Flores"},"geometry":{"type":"Point","coordinates":[-86.88332999999999,13.716669999999999]}},{"type":"feature","properties":{"country_en":"Honduras","name":"San Isidro","name_adm0":"Honduras","name_adm1":"Choluteca","name_adm2":"San Isidro","name_en":"San Isidro"},"geometry":{"type":"Point","coordinates":[-87.09333,13.16194]}},{"type":"feature","properties":{"country_en":"Honduras","name":"San Isidro","name_adm0":"Honduras","name_adm1":"Choluteca","name_adm2":"Namasigue","name_en":"San Isidro"},"geometry":{"type":"Point","coordinates":[-87.06667,13.23333]}},{"type":"feature","properties":{"country_en":"Honduras","name":"San Andrés","name_adm0":"Honduras","name_adm1":"Comayagua","name_adm2":"La Libertad","name_en":"San Andrés"},"geometry":{"type":"Point","coordinates":[-87.51667,14.849999999999998]}},{"type":"feature","properties":{"country_en":"Honduras","name":"Soledad","name_adm0":"Honduras","name_adm1":"El Paraíso","name_adm2":"Soledad","name_en":"Soledad"},"geometry":{"type":"Point","coordinates":[-86.48333,14.05]}},{"type":"feature","properties":{"country_en":"Honduras","name":"Yarula","name_adm0":"Honduras","name_adm1":"La Paz","name_adm2":"Yarula","name_en":"Yarula"},"geometry":{"type":"Point","coordinates":[-88.08332999999999,14.11667]}},{"type":"feature","properties":{"country_en":"Honduras","name":"Yauyupe","name_adm0":"Honduras","name_adm1":"El Paraíso","name_adm2":"Yauyupe","name_en":"Yauyupe"},"geometry":{"type":"Point","coordinates":[-87.06,13.74306]}},{"type":"feature","properties":{"country_en":"Honduras","name":"Yocón","name_adm0":"Honduras","name_adm1":"Olancho","name_adm2":"Yocón","name_en":"Yocón"},"geometry":{"type":"Point","coordinates":[-86.7,15.016669999999998]}},{"type":"feature","properties":{"country_en":"Honduras","name":"Siguatepeque","name_adm0":"Honduras","name_adm1":"Comayagua","name_adm2":"Siguatepeque","name_en":"Siguatepeque"},"geometry":{"type":"Point","coordinates":[-87.83333,14.599999999999998]}},{"type":"feature","properties":{"country_en":"Honduras","name":"San Francisco de Yojoa","name_adm0":"Honduras","name_adm1":"Cortés","name_adm2":"San Francisco de Yojoa","name_en":"San Francisco de Yojoa"},"geometry":{"type":"Point","coordinates":[-87.96667,15.016669999999998]}},{"type":"feature","properties":{"country_en":"Honduras","name":"Intibucá","name_adm0":"Honduras","name_adm1":"Intibucá","name_adm2":"Intibucá","name_en":"Intibucá"},"geometry":{"type":"Point","coordinates":[-88.16667,14.31667]}},{"type":"feature","properties":{"country_en":"Honduras","name":"Tegucigalpa","name_adm0":"Honduras","name_adm1":"Francisco Morazán","name_adm2":"Distrito Central","name_en":"Tegucigalpa"},"geometry":{"type":"Point","coordinates":[-87.20681,14.0818]}},{"type":"feature","properties":{"country_en":"Honduras","name":"La Ceiba","name_adm0":"Honduras","name_adm1":"Atlántida","name_adm2":"La Ceiba","name_en":"La Ceiba"},"geometry":{"type":"Point","coordinates":[-86.78220999999999,15.75971]}},{"type":"feature","properties":{"country_en":"Honduras","name":"San Esteban","name_adm0":"Honduras","name_adm1":"Olancho","name_adm2":"San Esteban","name_en":"San Esteban"},"geometry":{"type":"Point","coordinates":[-85.75,15.2]}},{"type":"feature","properties":{"country_en":"Honduras","name":"Belén Gualcho","name_adm0":"Honduras","name_adm1":"Ocotepeque","name_adm2":"Belén Gualcho","name_en":"Belén Gualcho"},"geometry":{"type":"Point","coordinates":[-88.79999999999998,14.483330000000002]}},{"type":"feature","properties":{"country_en":"Honduras","name":"Peña Blanca","name_adm0":"Honduras","name_adm1":"Cortés","name_adm2":"Santa Cruz de Yojoa","name_en":"Peña Blanca"},"geometry":{"type":"Point","coordinates":[-88.05,14.933329999999998]}},{"type":"feature","properties":{"country_en":"Honduras","name":"Yoro","name_adm0":"Honduras","name_adm1":"Yoro","name_en":"Yoro"},"geometry":{"type":"Point","coordinates":[-87.16667,15.249999999999998]}},{"type":"feature","properties":{"country_en":"Honduras","name":"Cololaca","name_adm0":"Honduras","name_adm1":"Lempira","name_adm2":"Cololaca","name_en":"Cololaca"},"geometry":{"type":"Point","coordinates":[-88.88333,14.3]}},{"type":"feature","properties":{"country_en":"Honduras","name":"Río Lindo","name_adm0":"Honduras","name_adm1":"Cortés","name_adm2":"San Francisco de Yojoa","name_en":"Río Lindo"},"geometry":{"type":"Point","coordinates":[-87.98333,15.03333]}},{"type":"feature","properties":{"country_en":"Honduras","name":"San Fernando","name_adm0":"Honduras","name_adm1":"Ocotepeque","name_adm2":"San Fernando","name_en":"San Fernando"},"geometry":{"type":"Point","coordinates":[-89.11667,14.683329999999998]}},{"type":"feature","properties":{"country_en":"Honduras","name":"Amapala","name_adm0":"Honduras","name_adm1":"Valle","name_adm2":"Amapala","name_en":"Amapala"},"geometry":{"type":"Point","coordinates":[-87.65388999999999,13.29222]}},{"type":"feature","properties":{"country_en":"Honduras","name":"Taulabé","name_adm0":"Honduras","name_adm1":"Comayagua","name_adm2":"Taulabe","name_en":"Taulabé"},"geometry":{"type":"Point","coordinates":[-87.96667,14.699999999999998]}},{"type":"feature","properties":{"country_en":"Honduras","name":"Santiago Puringla","name_adm0":"Honduras","name_adm1":"La Paz","name_adm2":"Santiago Puringla","name_en":"Santiago Puringla"},"geometry":{"type":"Point","coordinates":[-87.9,14.350000000000001]}},{"type":"feature","properties":{"country_en":"Honduras","name":"San Rafael","name_adm0":"Honduras","name_adm1":"Lempira","name_adm2":"San Rafael","name_en":"San Rafael"},"geometry":{"type":"Point","coordinates":[-88.41666999999998,13.73333]}},{"type":"feature","properties":{"country_en":"Honduras","name":"San Sebastian","name_adm0":"Honduras","name_adm1":"Lempira","name_adm2":"San Sebastian","name_en":"San Sebastian"},"geometry":{"type":"Point","coordinates":[-88.73333,14.4]}},{"type":"feature","properties":{"country_en":"Honduras","name":"Agalteca","name_adm0":"Honduras","name_adm1":"Francisco Morazán","name_adm2":"Cedros","name_en":"Agalteca"},"geometry":{"type":"Point","coordinates":[-87.26666999999999,14.449999999999998]}},{"type":"feature","properties":{"country_en":"Honduras","name":"Azacualpa","name_adm0":"Honduras","name_adm1":"Olancho","name_adm2":"Gualaco","name_en":"Azacualpa"},"geometry":{"type":"Point","coordinates":[-86.1,14.4]}},{"type":"feature","properties":{"country_en":"Honduras","name":"Azacualpa","name_adm0":"Honduras","name_adm1":"Santa Bárbara","name_adm2":"Santa Bárbara","name_en":"Azacualpa"},"geometry":{"type":"Point","coordinates":[-88.55139,15.343329999999998]}},{"type":"feature","properties":{"country_en":"Honduras","name":"Concepción","name_adm0":"Honduras","name_adm1":"Intibucá","name_adm2":"San Juan","name_en":"Concepción"},"geometry":{"type":"Point","coordinates":[-88.45,14.350000000000001]}},{"type":"feature","properties":{"country_en":"Honduras","name":"Correderos","name_adm0":"Honduras","name_adm1":"Santa Bárbara","name_adm2":"Quimistán","name_en":"Correderos"},"geometry":{"type":"Point","coordinates":[-88.45,15.416669999999998]}},{"type":"feature","properties":{"country_en":"Honduras","name":"Duyure","name_adm0":"Honduras","name_adm1":"Choluteca","name_adm2":"Morolica","name_en":"Duyure"},"geometry":{"type":"Point","coordinates":[-86.81667,13.63333]}},{"type":"feature","properties":{"country_en":"Honduras","name":"El Guante","name_adm0":"Honduras","name_adm1":"Francisco Morazán","name_adm2":"Cedros","name_en":"El Guante"},"geometry":{"type":"Point","coordinates":[-87.1,14.55]}},{"type":"feature","properties":{"country_en":"Honduras","name":"Gracias","name_adm0":"Honduras","name_adm1":"Lempira","name_adm2":"Gracias","name_en":"Gracias"},"geometry":{"type":"Point","coordinates":[-88.58224799999999,14.590685]}},{"type":"feature","properties":{"country_en":"Honduras","name":"Esquipulas del Norte","name_adm0":"Honduras","name_adm1":"Olancho","name_adm2":"Esquipulas del Norte","name_en":"Esquipulas del Norte"},"geometry":{"type":"Point","coordinates":[-86.53333,15.299999999999999]}},{"type":"feature","properties":{"country_en":"Honduras","name":"La Concepción","name_adm0":"Honduras","name_adm1":"Olancho","name_adm2":"Concordia","name_en":"La Concepción"},"geometry":{"type":"Point","coordinates":[-86.23333,14.699999999999998]}},{"type":"feature","properties":{"country_en":"Honduras","name":"La Habana","name_adm0":"Honduras","name_adm1":"Yoro","name_adm2":"Yoro","name_en":"La Habana"},"geometry":{"type":"Point","coordinates":[-87.35,15.233329999999999]}},{"type":"feature","properties":{"country_en":"Honduras","name":"Mezapa","name_adm0":"Honduras","name_adm1":"Atlántida","name_adm2":"Tela","name_en":"Mezapa"},"geometry":{"type":"Point","coordinates":[-87.64999999999999,15.58333]}},{"type":"feature","properties":{"country_en":"Honduras","name":"Ojos de Agua","name_adm0":"Honduras","name_adm1":"Comayagua","name_adm2":"Ojos de Agua","name_en":"Ojos de Agua"},"geometry":{"type":"Point","coordinates":[-87.93333,14.599999999999998]}},{"type":"feature","properties":{"country_en":"Honduras","name":"Río Blanco","name_adm0":"Honduras","name_adm1":"Cortés","name_adm2":"Choloma","name_en":"Río Blanco"},"geometry":{"type":"Point","coordinates":[-88.03332999999999,15.499999999999998]}},{"type":"feature","properties":{"country_en":"Honduras","name":"San Antonio","name_adm0":"Honduras","name_adm1":"Copán","name_adm2":"Veracruz","name_en":"San Antonio"},"geometry":{"type":"Point","coordinates":[-88.88333,15.016669999999998]}},{"type":"feature","properties":{"country_en":"Honduras","name":"San Francisco","name_adm0":"Honduras","name_adm1":"Lempira","name_adm2":"La Virtud","name_en":"San Francisco"},"geometry":{"type":"Point","coordinates":[-88.71667,14.38333]}},{"type":"feature","properties":{"country_en":"Honduras","name":"San José","name_adm0":"Honduras","name_adm1":"La Paz","name_adm2":"Opatoro","name_en":"San José"},"geometry":{"type":"Point","coordinates":[-89.05,13.41667]}},{"type":"feature","properties":{"country_en":"Honduras","name":"Santa Cruz","name_adm0":"Honduras","name_adm1":"Lempira","name_adm2":"San Andrés","name_en":"Santa Cruz"},"geometry":{"type":"Point","coordinates":[-88.71667,14.51667]}},{"type":"feature","properties":{"country_en":"Honduras","name":"San Sebastián","name_adm0":"Honduras","name_adm1":"Lempira","name_adm2":"Piraera","name_en":"San Sebastián"},"geometry":{"type":"Point","coordinates":[-88.73333,14.4]}},{"type":"feature","properties":{"country_en":"Honduras","name":"Santa Rita","name_adm0":"Honduras","name_adm1":"Santa Bárbara","name_adm2":"Santa Rita","name_en":"Santa Rita"},"geometry":{"type":"Point","coordinates":[-88.21667,14.916670000000002]}},{"type":"feature","properties":{"country_en":"Honduras","name":"Toncontín","name_adm0":"Honduras","name_adm1":"Francisco Morazán","name_adm2":"Curarén","name_en":"Toncontín"},"geometry":{"type":"Point","coordinates":[-87.21666999999998,14.03333]}},{"type":"feature","properties":{"country_en":"Honduras","name":"Villanueva","name_adm0":"Honduras","name_adm1":"Cortés","name_adm2":"Villanueva","name_en":"Villanueva"},"geometry":{"type":"Point","coordinates":[-88,15.316670000000002]}},{"type":"feature","properties":{"country_en":"Honduras","name":"Veracruz","name_adm0":"Honduras","name_adm1":"Copán","name_adm2":"Veracruz","name_en":"Veracruz"},"geometry":{"type":"Point","coordinates":[-88.78333,14.916670000000002]}},{"type":"feature","properties":{"country_en":"Honduras","name":"Trinidad","name_adm0":"Honduras","name_adm1":"Santa Bárbara","name_adm2":"Trinidad","name_en":"Trinidad"},"geometry":{"type":"Point","coordinates":[-88.23333,15.133329999999999]}},{"type":"feature","properties":{"country_en":"Honduras","name":"San Lorenzo","name_adm0":"Honduras","name_adm1":"Valle","name_adm2":"San Lorenzo","name_en":"San Lorenzo"},"geometry":{"type":"Point","coordinates":[-87.44722,13.42417]}},{"type":"feature","properties":{"country_en":"Honduras","name":"San Juan Pueblo","name_adm0":"Honduras","name_adm1":"Atlántida","name_adm2":"Esparta","name_en":"San Juan Pueblo"},"geometry":{"type":"Point","coordinates":[-87.23333,15.58333]}},{"type":"feature","properties":{"country_en":"Honduras","name":"San Juancito","name_adm0":"Honduras","name_adm1":"Francisco Morazán","name_adm2":"Distrito Central","name_en":"San Juancito"},"geometry":{"type":"Point","coordinates":[-87.06667,14.21667]}},{"type":"feature","properties":{"country_en":"Honduras","name":"San José de Colinas","name_adm0":"Honduras","name_adm1":"Santa Bárbara","name_adm2":"San José de Colinas","name_en":"San José de Colinas"},"geometry":{"type":"Point","coordinates":[-88.3,15.03333]}},{"type":"feature","properties":{"country_en":"Honduras","name":"San José","name_adm0":"Honduras","name_adm1":"La Paz","name_adm2":"San José","name_en":"San José"},"geometry":{"type":"Point","coordinates":[-87.95,14.249999999999998]}},{"type":"feature","properties":{"country_en":"Honduras","name":"Pespire","name_adm0":"Honduras","name_adm1":"Choluteca","name_adm2":"Pespire","name_en":"Pespire"},"geometry":{"type":"Point","coordinates":[-87.36167,13.59222]}},{"type":"feature","properties":{"country_en":"Honduras","name":"Monterrey","name_adm0":"Honduras","name_adm1":"Cortés","name_adm2":"Choloma","name_en":"Monterrey"},"geometry":{"type":"Point","coordinates":[-87.88333,15.58333]}},{"type":"feature","properties":{"country_en":"Honduras","name":"El Guante","name_adm0":"Honduras","name_adm1":"Francisco Morazán","name_adm2":"Cedros","name_en":"El Guante"},"geometry":{"type":"Point","coordinates":[-87.1,14.55]}},{"type":"feature","properties":{"country_en":"Honduras","name":"El Corpus","name_adm0":"Honduras","name_adm1":"Choluteca","name_adm2":"El Corpus","name_en":"El Corpus"},"geometry":{"type":"Point","coordinates":[-87.03471999999998,13.28889]}},{"type":"feature","properties":{"country_en":"Honduras","name":"Cofradía","name_adm0":"Honduras","name_adm1":"Cortés","name_adm2":"San Pedro Sula","name_en":"Cofradía"},"geometry":{"type":"Point","coordinates":[-88.15,15.399999999999999]}},{"type":"feature","properties":{"country_en":"Honduras","name":"Chivana","name_adm0":"Honduras","name_adm1":"Cortés","name_adm2":"Omoa","name_en":"Chivana"},"geometry":{"type":"Point","coordinates":[-87.98333,15.75]}},{"type":"feature","properties":{"country_en":"Honduras","name":"Ajuterique","name_adm0":"Honduras","name_adm1":"Comayagua","name_adm2":"Ajuterique","name_en":"Ajuterique"},"geometry":{"type":"Point","coordinates":[-87.7,14.38333]}},{"type":"feature","properties":{"country_en":"Honduras","name":"Agua Fría","name_adm0":"Honduras","name_adm1":"Valle","name_adm2":"Nacaome","name_en":"Agua Fría"},"geometry":{"type":"Point","coordinates":[-87.55111,13.46889]}},{"type":"feature","properties":{"country_en":"Honduras","name":"La Paz","name_adm0":"Honduras","name_adm1":"La Paz","name_en":"La Paz"},"geometry":{"type":"Point","coordinates":[-87.91667,14.08333]}},{"type":"feature","properties":{"country_en":"Honduras","name":"Güinope","name_adm0":"Honduras","name_adm1":"El Paraíso","name_adm2":"Guinope","name_en":"Güinope"},"geometry":{"type":"Point","coordinates":[-86.93332999999998,13.88333]}},{"type":"feature","properties":{"country_en":"Honduras","name":"Ilanga","name_adm0":"Honduras","name_adm1":"Colón","name_adm2":"Trujillo","name_en":"Ilanga"},"geometry":{"type":"Point","coordinates":[-86.13333,15.666669999999998]}},{"type":"feature","properties":{"country_en":"Honduras","name":"Mateo","name_adm0":"Honduras","name_adm1":"Francisco Morazán","name_adm2":"Distrito Central","name_en":"Mateo"},"geometry":{"type":"Point","coordinates":[-87.31667,14.08333]}},{"type":"feature","properties":{"country_en":"Honduras","name":"Masca","name_adm0":"Honduras","name_adm1":"Cortés","name_adm2":"Omoa","name_en":"Masca"},"geometry":{"type":"Point","coordinates":[-88.13333,15.68333]}},{"type":"feature","properties":{"country_en":"Honduras","name":"Wampusirpi","name_adm0":"Honduras","name_adm1":"Gracias a Dios","name_adm2":"Wampusirpi","name_en":"Wampusirpi"},"geometry":{"type":"Point","coordinates":[-84.61667,15.18333]}},{"type":"feature","properties":{"country_en":"Honduras","name":"Amarateca","name_adm0":"Honduras","name_adm1":"Francisco Morazán","name_adm2":"Distrito Central","name_en":"Amarateca"},"geometry":{"type":"Point","coordinates":[-87.36667,14.23333]}},{"type":"feature","properties":{"country_en":"Honduras","name":"El Tular","name_adm0":"Honduras","name_adm1":"Valle","name_adm2":"Nacaome","name_en":"El Tular"},"geometry":{"type":"Point","coordinates":[-87.51528,13.46639]}},{"type":"feature","properties":{"country_en":"Honduras","name":"El Triunfo","name_adm0":"Honduras","name_adm1":"Choluteca","name_adm2":"El Triunfo","name_en":"El Triunfo"},"geometry":{"type":"Point","coordinates":[-87,13.11667]}},{"type":"feature","properties":{"country_en":"Honduras","name":"La Esperanza","name_adm0":"Honduras","name_adm1":"Intibucá","name_adm2":"La Esperanza","name_en":"La Esperanza"},"geometry":{"type":"Point","coordinates":[-88.18056,14.311109999999998]}},{"type":"feature","properties":{"country_en":"Honduras","name":"Lepaera","name_adm0":"Honduras","name_adm1":"Lempira","name_adm2":"Lepaera","name_en":"Lepaera"},"geometry":{"type":"Point","coordinates":[-88.58333,14.78333]}},{"type":"feature","properties":{"country_en":"Honduras","name":"Jocón","name_adm0":"Honduras","name_adm1":"Yoro","name_adm2":"Jocón","name_en":"Jocón"},"geometry":{"type":"Point","coordinates":[-86.96667,15.28333]}},{"type":"feature","properties":{"country_en":"Honduras","name":"Jesús de Otoro","name_adm0":"Honduras","name_adm1":"Intibucá","name_adm2":"Jesús de Otoro","name_en":"Jesús de Otoro"},"geometry":{"type":"Point","coordinates":[-87.98333,14.483330000000002]}},{"type":"feature","properties":{"country_en":"Honduras","name":"La Lima","name_adm0":"Honduras","name_adm1":"Cortés","name_adm2":"La Lima","name_en":"La Lima"},"geometry":{"type":"Point","coordinates":[-87.91667,15.43333]}},{"type":"feature","properties":{"country_en":"Honduras","name":"Las Flores","name_adm0":"Honduras","name_adm1":"Comayagua","name_adm2":"Esquías","name_en":"Las Flores"},"geometry":{"type":"Point","coordinates":[-88.11667,14.333329999999998]}},{"type":"feature","properties":{"country_en":"Honduras","name":"Correderos","name_adm0":"Honduras","name_adm1":"Santa Bárbara","name_adm2":"Azacualpa","name_en":"Correderos"},"geometry":{"type":"Point","coordinates":[-88.45,15.416669999999998]}},{"type":"feature","properties":{"country_en":"Honduras","name":"Dolores","name_adm0":"Honduras","name_adm1":"Copán","name_adm2":"Dolores","name_en":"Dolores"},"geometry":{"type":"Point","coordinates":[-88.83333,14.866669999999997]}},{"type":"feature","properties":{"country_en":"Honduras","name":"Elíxir","name_adm0":"Honduras","name_adm1":"Colón","name_adm2":"Sabá","name_en":"Elíxir"},"geometry":{"type":"Point","coordinates":[-86.3,15.483329999999999]}},{"type":"feature","properties":{"country_en":"Honduras","name":"El Retiro","name_adm0":"Honduras","name_adm1":"Atlántida","name_adm2":"Arizona","name_en":"El Retiro"},"geometry":{"type":"Point","coordinates":[-87.35,15.58333]}},{"type":"feature","properties":{"country_en":"Honduras","name":"Tras Cerros","name_adm0":"Honduras","name_adm1":"Santa Bárbara","name_adm2":"Tras Cerros","name_en":"Tras Cerros"},"geometry":{"type":"Point","coordinates":[-88.66667,15.299999999999999]}},{"type":"feature","properties":{"country_en":"Honduras","name":"El Nispero","name_adm0":"Honduras","name_adm1":"Santa Bárbara","name_adm2":"El Nispero","name_en":"El Nispero"},"geometry":{"type":"Point","coordinates":[-88.33333,14.766670000000001]}},{"type":"feature","properties":{"country_en":"Honduras","name":"San Marcos de Colón","name_adm0":"Honduras","name_adm1":"Choluteca","name_adm2":"San Marcos de Colón","name_en":"San Marcos de Colón"},"geometry":{"type":"Point","coordinates":[-86.83332999999999,13.41667]}},{"type":"feature","properties":{"country_en":"Honduras","name":"Roatán","name_adm0":"Honduras","name_adm1":"Islas de la Bahía","name_adm2":"Roatán","name_en":"Roatán"},"geometry":{"type":"Point","coordinates":[-86.523342,16.330065]}},{"type":"feature","properties":{"country_en":"Honduras","name":"La Fortuna","name_adm0":"Honduras","name_adm1":"Atlántida","name_adm2":"Tela","name_en":"La Fortuna"},"geometry":{"type":"Point","coordinates":[-87.66667,15.7]}},{"type":"feature","properties":{"country_en":"Honduras","name":"Los Planes","name_adm0":"Honduras","name_adm1":"Colón","name_adm2":"Sonaguera","name_en":"Los Planes"},"geometry":{"type":"Point","coordinates":[-86.31667,15.53333]}},{"type":"feature","properties":{"country_en":"Honduras","name":"Chamelecón","name_adm0":"Honduras","name_adm1":"Cortés","name_adm2":"San Pedro Sula","name_en":"Chamelecón"},"geometry":{"type":"Point","coordinates":[-88.01667,15.43333]}},{"type":"feature","properties":{"country_en":"Honduras","name":"Campamento","name_adm0":"Honduras","name_adm1":"Olancho","name_adm2":"Campamento","name_en":"Campamento"},"geometry":{"type":"Point","coordinates":[-86.65,14.55]}},{"type":"feature","properties":{"country_en":"Honduras","name":"San Luis","name_adm0":"Honduras","name_adm1":"Comayagua","name_adm2":"San Luis","name_en":"San Luis"},"geometry":{"type":"Point","coordinates":[-87.41667,14.749999999999998]}},{"type":"feature","properties":{"country_en":"Honduras","name":"Cabañas","name_adm0":"Honduras","name_adm1":"Copán","name_adm2":"Cabañas","name_en":"Cabañas"},"geometry":{"type":"Point","coordinates":[-89.1,14.833329999999998]}},{"type":"feature","properties":{"country_en":"Honduras","name":"Santa Bárbara","name_adm0":"Honduras","name_adm1":"Yoro","name_adm2":"Olanchito","name_en":"Santa Bárbara"},"geometry":{"type":"Point","coordinates":[-86.76667,15.416669999999998]}},{"type":"feature","properties":{"country_en":"Honduras","name":"Mezapa","name_adm0":"Honduras","name_adm1":"Atlántida","name_adm2":"Arizona","name_en":"Mezapa"},"geometry":{"type":"Point","coordinates":[-87.38333,15.549999999999999]}},{"type":"feature","properties":{"country_en":"Honduras","name":"Montañuelas","name_adm0":"Honduras","name_adm1":"Comayagua","name_adm2":"La Libertad","name_en":"Montañuelas"},"geometry":{"type":"Point","coordinates":[-87.93333,14.65]}},{"type":"feature","properties":{"country_en":"Honduras","name":"Piraera","name_adm0":"Honduras","name_adm1":"Lempira","name_adm2":"Piraera","name_en":"Piraera"},"geometry":{"type":"Point","coordinates":[-88.46666999999998,14.06667]}},{"type":"feature","properties":{"country_en":"Honduras","name":"Potrerillos","name_adm0":"Honduras","name_adm1":"El Paraíso","name_adm2":"San Lucas","name_en":"Potrerillos"},"geometry":{"type":"Point","coordinates":[-86.76667,14]}},{"type":"feature","properties":{"country_en":"Honduras","name":"San Isidro","name_adm0":"Honduras","name_adm1":"Intibucá","name_adm2":"Camasca","name_en":"San Isidro"},"geometry":{"type":"Point","coordinates":[-87.91667,14.08333]}},{"type":"feature","properties":{"country_en":"Honduras","name":"Santa Rosita","name_adm0":"Honduras","name_adm1":"La Paz","name_adm2":"Guajiquiro","name_en":"Santa Rosita"},"geometry":{"type":"Point","coordinates":[-88.84999999999998,14.15]}},{"type":"feature","properties":{"country_en":"Honduras","name":"Saraguaina","name_adm0":"Honduras","name_adm1":"Cortés","name_adm2":"Puerto Cortés","name_en":"Saraguaina"},"geometry":{"type":"Point","coordinates":[-87.8,15.85]}},{"type":"feature","properties":{"country_en":"Honduras","name":"Sirsirtara","name_adm0":"Honduras","name_adm1":"Gracias a Dios","name_adm2":"Puerto Lempira","name_en":"Sirsirtara"},"geometry":{"type":"Point","coordinates":[-84.11667,15.133329999999999]}},{"type":"feature","properties":{"country_en":"Honduras","name":"Yarumela","name_adm0":"Honduras","name_adm1":"La Paz","name_adm2":"La Paz","name_en":"Yarumela"},"geometry":{"type":"Point","coordinates":[-87.63333,14.333329999999998]}},{"type":"feature","properties":{"country_en":"Honduras","name":"Tela","name_adm0":"Honduras","name_adm1":"Atlántida","name_adm2":"Tela","name_en":"Tela"},"geometry":{"type":"Point","coordinates":[-87.45,15.78333]}},{"type":"feature","properties":{"country_en":"Honduras","name":"Sulaco","name_adm0":"Honduras","name_adm1":"Yoro","name_adm2":"Sulaco","name_en":"Sulaco"},"geometry":{"type":"Point","coordinates":[-87.26666999999999,14.916670000000002]}},{"type":"feature","properties":{"country_en":"Honduras","name":"Subirana","name_adm0":"Honduras","name_adm1":"Yoro","name_adm2":"Yoro","name_en":"Subirana"},"geometry":{"type":"Point","coordinates":[-87.45,15.2]}},{"type":"feature","properties":{"country_en":"Honduras","name":"Santa Ana de Yusguare","name_adm0":"Honduras","name_adm1":"Choluteca","name_adm2":"Santa Ana de Yusguare","name_en":"Santa Ana de Yusguare"},"geometry":{"type":"Point","coordinates":[-87.11389,13.30056]}},{"type":"feature","properties":{"country_en":"Honduras","name":"San Lucas","name_adm0":"Honduras","name_adm1":"El Paraíso","name_adm2":"San Lucas","name_en":"San Lucas"},"geometry":{"type":"Point","coordinates":[-86.95,13.73333]}},{"type":"feature","properties":{"country_en":"Honduras","name":"San Jerónimo","name_adm0":"Honduras","name_adm1":"Comayagua","name_adm2":"San Jerónimo","name_en":"San Jerónimo"},"geometry":{"type":"Point","coordinates":[-87.6,14.63333]}},{"type":"feature","properties":{"country_en":"Honduras","name":"San Francisco de Coray","name_adm0":"Honduras","name_adm1":"Valle","name_adm2":"San Francisco de Coray","name_en":"San Francisco de Coray"},"geometry":{"type":"Point","coordinates":[-87.53278,13.66139]}},{"type":"feature","properties":{"country_en":"Honduras","name":"San Antonio del Norte","name_adm0":"Honduras","name_adm1":"La Paz","name_adm2":"San Antonio del Norte","name_en":"San Antonio del Norte"},"geometry":{"type":"Point","coordinates":[-87.70306,13.88444]}},{"type":"feature","properties":{"country_en":"Honduras","name":"San Agustín","name_adm0":"Honduras","name_adm1":"Copán","name_adm2":"San Agustín","name_en":"San Agustín"},