{"type":"FeatureCollection","features":[{"type":"feature","properties":{"country_en":"Ireland","name":"Esker","name_adm0":"Ireland","name_adm1":"Offaly","name_en":"Esker"},"geometry":{"type":"Point","coordinates":[-7.163609999999999,53.294439999999994]}},{"type":"feature","properties":{"country_en":"Ireland","name":"Mayglass","name_adm0":"Ireland","name_adm1":"Wexford","name_en":"Mayglass"},"geometry":{"type":"Point","coordinates":[-6.506109999999999,52.24194]}},{"type":"feature","properties":{"country_en":"Ireland","name":"Monamolin","name_adm0":"Ireland","name_adm1":"Wexford","name_en":"Monamolin"},"geometry":{"type":"Point","coordinates":[-6.34389,52.55556]}},{"type":"feature","properties":{"country_en":"Ireland","name":"Bangor","name_adm0":"Ireland","name_adm1":"Mayo","name_en":"Bangor"},"geometry":{"type":"Point","coordinates":[-9.74028,54.14306]}},{"type":"feature","properties":{"country_en":"Ireland","name":"Ballinure","name_adm0":"Ireland","name_adm1":"Tipperary","name_en":"Ballinure"},"geometry":{"type":"Point","coordinates":[-7.76889,52.56306]}},{"type":"feature","properties":{"country_en":"Ireland","name":"Ballylooby","name_adm0":"Ireland","name_adm1":"Tipperary","name_en":"Ballylooby"},"geometry":{"type":"Point","coordinates":[-7.97889,52.32694]}},{"type":"feature","properties":{"country_en":"Ireland","name":"Boherboy","name_adm0":"Ireland","name_adm1":"Cork","name_en":"Boherboy"},"geometry":{"type":"Point","coordinates":[-9.06878,52.15851]}},{"type":"feature","properties":{"country_en":"Ireland","name":"Carrigallen","name_adm0":"Ireland","name_adm1":"Leitrim","name_en":"Carrigallen"},"geometry":{"type":"Point","coordinates":[-7.645829999999999,53.97722]}},{"type":"feature","properties":{"country_en":"Ireland","name":"Drumod","name_adm0":"Ireland","name_adm1":"Leitrim","name_en":"Drumod"},"geometry":{"type":"Point","coordinates":[-7.916669999999999,53.86666999999999]}},{"type":"feature","properties":{"country_en":"Ireland","name":"Fivemilebridge","name_adm0":"Ireland","name_adm1":"Cork","name_en":"Fivemilebridge"},"geometry":{"type":"Point","coordinates":[-8.49639,51.81972]}},{"type":"feature","properties":{"country_en":"Ireland","name":"Loughlinstown","name_adm0":"Ireland","name_adm1":"Dublin","name_en":"Loughlinstown"},"geometry":{"type":"Point","coordinates":[-6.13306,53.24388999999999]}},{"type":"feature","properties":{"country_en":"Ireland","name":"Knocktopher","name_adm0":"Ireland","name_adm1":"Kilkenny","name_en":"Knocktopher"},"geometry":{"type":"Point","coordinates":[-7.21194,52.48361]}},{"type":"feature","properties":{"country_en":"Ireland","name":"Rathconrath","name_adm0":"Ireland","name_adm1":"Westmeath","name_en":"Rathconrath"},"geometry":{"type":"Point","coordinates":[-7.51667,53.51667]}},{"type":"feature","properties":{"country_en":"Ireland","name":"Passage West","name_adm0":"Ireland","name_adm1":"Cork","name_en":"Passage West"},"geometry":{"type":"Point","coordinates":[-8.34444,51.873889999999996]}},{"type":"feature","properties":{"country_en":"Ireland","name":"Dromiskin","name_adm0":"Ireland","name_adm1":"Louth","name_en":"Dromiskin"},"geometry":{"type":"Point","coordinates":[-6.41139,53.927499999999995]}},{"type":"feature","properties":{"country_en":"Ireland","name":"Adrigole","name_adm0":"Ireland","name_adm1":"Cork","name_en":"Adrigole"},"geometry":{"type":"Point","coordinates":[-9.721359999999999,51.69404999999999]}},{"type":"feature","properties":{"country_en":"Ireland","name":"Clonaslee","name_adm0":"Ireland","name_adm1":"Laois","name_en":"Clonaslee"},"geometry":{"type":"Point","coordinates":[-7.52444,53.1475]}},{"type":"feature","properties":{"country_en":"Ireland","name":"Tallaght-Springfield","name_adm0":"Ireland","name_adm1":"Dublin","name_en":"Tallaght-Springfield"},"geometry":{"type":"Point","coordinates":[-6.373439,53.29272]}},{"type":"feature","properties":{"country_en":"Ireland","name":"Kilrush","name_adm0":"Ireland","name_adm1":"Wexford","name_en":"Kilrush"},"geometry":{"type":"Point","coordinates":[-6.867779999999999,53.05917]}},{"type":"feature","properties":{"country_en":"Ireland","name":"Kilbeggan","name_adm0":"Ireland","name_adm1":"Westmeath","name_en":"Kilbeggan"},"geometry":{"type":"Point","coordinates":[-7.50333,53.36943999999999]}},{"type":"feature","properties":{"country_en":"Ireland","name":"Kilcar","name_adm0":"Ireland","name_adm1":"Donegal","name_en":"Kilcar"},"geometry":{"type":"Point","coordinates":[-8.59333,54.63389]}},{"type":"feature","properties":{"country_en":"Ireland","name":"Curryglass","name_adm0":"Ireland","name_adm1":"Cork","name_en":"Curryglass"},"geometry":{"type":"Point","coordinates":[-9.835501,51.647371]}},{"type":"feature","properties":{"country_en":"Ireland","name":"Cabinteely","name_adm0":"Ireland","name_adm1":"Dublin","name_en":"Cabinteely"},"geometry":{"type":"Point","coordinates":[-6.16058,53.26973]}},{"type":"feature","properties":{"country_en":"Ireland","name":"Carrick-on-shannon","name_adm0":"Ireland","name_adm1":"Leitrim","name_en":"Carrick-on-shannon"},"geometry":{"type":"Point","coordinates":[-8.089999999999998,53.94694]}},{"type":"feature","properties":{"country_en":"Ireland","name":"Moycullen","name_adm0":"Ireland","name_adm1":"Galway","name_en":"Moycullen"},"geometry":{"type":"Point","coordinates":[-9.18002,53.33783]}},{"type":"feature","properties":{"country_en":"Ireland","name":"Boolteens","name_adm0":"Ireland","name_adm1":"Kerry","name_en":"Boolteens"},"geometry":{"type":"Point","coordinates":[-9.75,52.18333]}},{"type":"feature","properties":{"country_en":"Ireland","name":"O'Briensbridge","name_adm0":"Ireland","name_adm1":"Limerick","name_en":"O'Briensbridge"},"geometry":{"type":"Point","coordinates":[-8.49694,52.75472]}},{"type":"feature","properties":{"country_en":"Ireland","name":"Fanad West","name_adm0":"Ireland","name_adm1":"Donegal","name_en":"Fanad West"},"geometry":{"type":"Point","coordinates":[-7.767291,55.192763]}},{"type":"feature","properties":{"country_en":"Ireland","name":"Ballyhooly","name_adm0":"Ireland","name_adm1":"Cork","name_en":"Ballyhooly"},"geometry":{"type":"Point","coordinates":[-8.40056,52.14944]}},{"type":"feature","properties":{"country_en":"Ireland","name":"Lisloughrey","name_adm0":"Ireland","name_adm1":"Mayo","name_en":"Lisloughrey"},"geometry":{"type":"Point","coordinates":[-9.274091,53.543094]}},{"type":"feature","properties":{"country_en":"Ireland","name":"Emo","name_adm0":"Ireland","name_adm1":"Laois","name_en":"Emo"},"geometry":{"type":"Point","coordinates":[-7.2046269999999994,53.097734]}},{"type":"feature","properties":{"country_en":"Ireland","name":"Milltown","name_adm0":"Ireland","name_adm1":"Cavan","name_en":"Milltown"},"geometry":{"type":"Point","coordinates":[-6.91306,53.98194]}},{"type":"feature","properties":{"country_en":"Ireland","name":"Stradone","name_adm0":"Ireland","name_adm1":"Cavan","name_en":"Stradone"},"geometry":{"type":"Point","coordinates":[-7.23333,53.98333]}},{"type":"feature","properties":{"country_en":"Ireland","name":"Shercock","name_adm0":"Ireland","name_adm1":"Cavan","name_en":"Shercock"},"geometry":{"type":"Point","coordinates":[-6.9,54]}},{"type":"feature","properties":{"country_en":"Ireland","name":"Kilfearagh","name_adm0":"Ireland","name_adm1":"Clare","name_en":"Kilfearagh"},"geometry":{"type":"Point","coordinates":[-9.65444,52.65972]}},{"type":"feature","properties":{"country_en":"Ireland","name":"Ballintober","name_adm0":"Ireland","name_adm1":"Roscommon","name_en":"Ballintober"},"geometry":{"type":"Point","coordinates":[-8.41667,53.71667]}},{"type":"feature","properties":{"country_en":"Ireland","name":"Ballymacelligott","name_adm0":"Ireland","name_adm1":"Kerry","name_en":"Ballymacelligott"},"geometry":{"type":"Point","coordinates":[-9.58333,52.25]}},{"type":"feature","properties":{"country_en":"Ireland","name":"Churchtown","name_adm0":"Ireland","name_adm1":"Cork","name_en":"Churchtown"},"geometry":{"type":"Point","coordinates":[-8.08083,51.82806]}},{"type":"feature","properties":{"country_en":"Ireland","name":"Templemartin","name_adm0":"Ireland","name_adm1":"Cork","name_en":"Templemartin"},"geometry":{"type":"Point","coordinates":[-8.77972,51.82167]}},{"type":"feature","properties":{"country_en":"Ireland","name":"Tullylease","name_adm0":"Ireland","name_adm1":"Cork","name_en":"Tullylease"},"geometry":{"type":"Point","coordinates":[-8.95,52.3]}},{"type":"feature","properties":{"country_en":"Ireland","name":"Bonnyglen","name_adm0":"Ireland","name_adm1":"Donegal","name_en":"Bonnyglen"},"geometry":{"type":"Point","coordinates":[-8.25778,54.66306]}},{"type":"feature","properties":{"country_en":"Ireland","name":"Colmanstown","name_adm0":"Ireland","name_adm1":"Galway","name_en":"Colmanstown"},"geometry":{"type":"Point","coordinates":[-8.61611,53.38944]}},{"type":"feature","properties":{"country_en":"Ireland","name":"Derrew","name_adm0":"Ireland","name_adm1":"Galway","name_en":"Derrew"},"geometry":{"type":"Point","coordinates":[-8.3,53.19833]}},{"type":"feature","properties":{"country_en":"Ireland","name":"Errislannan","name_adm0":"Ireland","name_adm1":"Galway","name_en":"Errislannan"},"geometry":{"type":"Point","coordinates":[-10.08583,53.484719999999996]}},{"type":"feature","properties":{"country_en":"Ireland","name":"Tullokyne","name_adm0":"Ireland","name_adm1":"Galway","name_en":"Tullokyne"},"geometry":{"type":"Point","coordinates":[-9.13806,53.37556]}},{"type":"feature","properties":{"country_en":"Ireland","name":"Moyrus","name_adm0":"Ireland","name_adm1":"Galway","name_en":"Moyrus"},"geometry":{"type":"Point","coordinates":[-9.86972,53.34]}},{"type":"feature","properties":{"country_en":"Ireland","name":"Lixnaw","name_adm0":"Ireland","name_adm1":"Kerry","name_en":"Lixnaw"},"geometry":{"type":"Point","coordinates":[-9.61694,52.405559999999994]}},{"type":"feature","properties":{"country_en":"Ireland","name":"Kilmalkedar","name_adm0":"Ireland","name_adm1":"Kerry","name_en":"Kilmalkedar"},"geometry":{"type":"Point","coordinates":[-10.33806,52.18528]}},{"type":"feature","properties":{"country_en":"Ireland","name":"Turlough","name_adm0":"Ireland","name_adm1":"Mayo","name_en":"Turlough"},"geometry":{"type":"Point","coordinates":[-9.21667,53.88333]}},{"type":"feature","properties":{"country_en":"Ireland","name":"Sonnagh","name_adm0":"Ireland","name_adm1":"Mayo","name_en":"Sonnagh"},"geometry":{"type":"Point","coordinates":[-8.83111,53.96111]}},{"type":"feature","properties":{"country_en":"Ireland","name":"Kilbride","name_adm0":"Ireland","name_adm1":"Wicklow","name_en":"Kilbride"},"geometry":{"type":"Point","coordinates":[-6.46306,53.200559999999996]}},{"type":"feature","properties":{"country_en":"Ireland","name":"Knockrath","name_adm0":"Ireland","name_adm1":"Wicklow","name_en":"Knockrath"},"geometry":{"type":"Point","coordinates":[-6.31667,52.96916999999999]}},{"type":"feature","properties":{"country_en":"Ireland","name":"Ballinguile","name_adm0":"Ireland","name_adm1":"Wicklow","name_en":"Ballinguile"},"geometry":{"type":"Point","coordinates":[-6.51222,52.92111]}},{"type":"feature","properties":{"country_en":"Ireland","name":"Louth","name_adm0":"Ireland","name_adm1":"Louth","name_en":"Louth"},"geometry":{"type":"Point","coordinates":[-6.54139,53.94861]}},{"type":"feature","properties":{"country_en":"Ireland","name":"Balloughter","name_adm0":"Ireland","name_adm1":"Wexford","name_en":"Balloughter"},"geometry":{"type":"Point","coordinates":[-6.35778,52.61667]}},{"type":"feature","properties":{"country_en":"Ireland","name":"Ballyagran","name_adm0":"Ireland","name_adm1":"Limerick","name_en":"Ballyagran"},"geometry":{"type":"Point","coordinates":[-8.78583,52.40139]}},{"type":"feature","properties":{"country_en":"Ireland","name":"Canningstown","name_adm0":"Ireland","name_adm1":"Cavan","name_en":"Canningstown"},"geometry":{"type":"Point","coordinates":[-7.04611,53.97944]}},{"type":"feature","properties":{"country_en":"Ireland","name":"Clashmore","name_adm0":"Ireland","name_adm1":"Waterford","name_en":"Clashmore"},"geometry":{"type":"Point","coordinates":[-7.819439999999999,52.00306]}},{"type":"feature","properties":{"country_en":"Ireland","name":"Churchtown","name_adm0":"Ireland","name_adm1":"Westmeath","name_en":"Churchtown"},"geometry":{"type":"Point","coordinates":[-7.48333,53.48333]}},{"type":"feature","properties":{"country_en":"Ireland","name":"Flagmount","name_adm0":"Ireland","name_adm1":"Clare","name_en":"Flagmount"},"geometry":{"type":"Point","coordinates":[-8.64389,52.98583]}},{"type":"feature","properties":{"country_en":"Ireland","name":"Kilbaha","name_adm0":"Ireland","name_adm1":"Clare","name_en":"Kilbaha"},"geometry":{"type":"Point","coordinates":[-9.86722,52.55]}},{"type":"feature","properties":{"country_en":"Ireland","name":"Kilcorney","name_adm0":"Ireland","name_adm1":"Cork","name_en":"Kilcorney"},"geometry":{"type":"Point","coordinates":[-8.97167,52.081109999999995]}},{"type":"feature","properties":{"country_en":"Ireland","name":"Maas","name_adm0":"Ireland","name_adm1":"Donegal","name_en":"Maas"},"geometry":{"type":"Point","coordinates":[-8.366857,54.834973]}},{"type":"feature","properties":{"country_en":"Ireland","name":"Desertegny","name_adm0":"Ireland","name_adm1":"Donegal","name_en":"Desertegny"},"geometry":{"type":"Point","coordinates":[-7.547256,55.196274]}},{"type":"feature","properties":{"country_en":"Ireland","name":"Carlingford","name_adm0":"Ireland","name_adm1":"Louth","name_en":"Carlingford"},"geometry":{"type":"Point","coordinates":[-6.185753,54.040202]}},{"type":"feature","properties":{"country_en":"Ireland","name":"Courtmacsherry","name_adm0":"Ireland","name_adm1":"Cork","name_en":"Courtmacsherry"},"geometry":{"type":"Point","coordinates":[-8.71306,51.63194]}},{"type":"feature","properties":{"country_en":"Ireland","name":"Beagh","name_adm0":"Ireland","name_adm1":"Galway","name_en":"Beagh"},"geometry":{"type":"Point","coordinates":[-8.788059999999998,53.05083]}},{"type":"feature","properties":{"country_en":"Ireland","name":"Greenfort","name_adm0":"Ireland","name_adm1":"Cork","name_en":"Greenfort"},"geometry":{"type":"Point","coordinates":[-8.61306,51.98278]}},{"type":"feature","properties":{"country_en":"Ireland","name":"Dungourney","name_adm0":"Ireland","name_adm1":"Cork","name_en":"Dungourney"},"geometry":{"type":"Point","coordinates":[-8.09722,51.96833]}},{"type":"feature","properties":{"country_en":"Ireland","name":"Farahy","name_adm0":"Ireland","name_adm1":"Cork","name_en":"Farahy"},"geometry":{"type":"Point","coordinates":[-8.44222,52.24083]}},{"type":"feature","properties":{"country_en":"Ireland","name":"Fiddown","name_adm0":"Ireland","name_adm1":"Kilkenny","name_en":"Fiddown"},"geometry":{"type":"Point","coordinates":[-7.3155600000000005,52.33]}},{"type":"feature","properties":{"country_en":"Ireland","name":"Grange","name_adm0":"Ireland","name_adm1":"Kilkenny","name_en":"Grange"},"geometry":{"type":"Point","coordinates":[-7.30194,52.60278]}},{"type":"feature","properties":{"country_en":"Ireland","name":"Ballyhale","name_adm0":"Ireland","name_adm1":"Kilkenny","name_en":"Ballyhale"},"geometry":{"type":"Point","coordinates":[-7.196389999999999,52.46806]}},{"type":"feature","properties":{"country_en":"Ireland","name":"Narraghmore","name_adm0":"Ireland","name_adm1":"Kildare","name_en":"Narraghmore"},"geometry":{"type":"Point","coordinates":[-6.83444,53.04749999999999]}},{"type":"feature","properties":{"country_en":"Ireland","name":"Ballincrea","name_adm0":"Ireland","name_adm1":"Kilkenny","name_en":"Ballincrea"},"geometry":{"type":"Point","coordinates":[-7.08806,52.31833]}},{"type":"feature","properties":{"country_en":"Ireland","name":"Carney","name_adm0":"Ireland","name_adm1":"Sligo","name_en":"Carney"},"geometry":{"type":"Point","coordinates":[-8.52722,54.34056]}},{"type":"feature","properties":{"country_en":"Ireland","name":"Dromin","name_adm0":"Ireland","name_adm1":"Louth","name_en":"Dromin"},"geometry":{"type":"Point","coordinates":[-6.43472,53.84777999999999]}},{"type":"feature","properties":{"country_en":"Ireland","name":"Ballinabrackey","name_adm0":"Ireland","name_adm1":"Meath","name_en":"Ballinabrackey"},"geometry":{"type":"Point","coordinates":[-7.13361,53.419999999999995]}},{"type":"feature","properties":{"country_en":"Ireland","name":"Castlemagner","name_adm0":"Ireland","name_adm1":"Cork","name_en":"Castlemagner"},"geometry":{"type":"Point","coordinates":[-8.84694,52.166109999999996]}},{"type":"feature","properties":{"country_en":"Ireland","name":"Ballylinan","name_adm0":"Ireland","name_adm1":"Laois","name_en":"Ballylinan"},"geometry":{"type":"Point","coordinates":[-7.040729999999999,52.94497]}},{"type":"feature","properties":{"country_en":"Ireland","name":"Glenbrohane","name_adm0":"Ireland","name_adm1":"Limerick","name_en":"Glenbrohane"},"geometry":{"type":"Point","coordinates":[-8.38694,52.38417]}},{"type":"feature","properties":{"country_en":"Ireland","name":"Ballynakill","name_adm0":"Ireland","name_adm1":"Galway","name_en":"Ballynakill"},"geometry":{"type":"Point","coordinates":[-9.19278,52.55917]}},{"type":"feature","properties":{"country_en":"Ireland","name":"Rathvilly","name_adm0":"Ireland","name_adm1":"Carlow","name_en":"Rathvilly"},"geometry":{"type":"Point","coordinates":[-6.693329999999999,52.87889]}},{"type":"feature","properties":{"country_en":"Ireland","name":"Abbeyfeale","name_adm0":"Ireland","name_adm1":"Limerick","name_en":"Abbeyfeale"},"geometry":{"type":"Point","coordinates":[-9.3025,52.381389999999996]}},{"type":"feature","properties":{"country_en":"Ireland","name":"Dromore","name_adm0":"Ireland","name_adm1":"Sligo","name_en":"Dromore"},"geometry":{"type":"Point","coordinates":[-8.89306,54.25167]}},{"type":"feature","properties":{"country_en":"Ireland","name":"Ballymacarbry","name_adm0":"Ireland","name_adm1":"Waterford","name_en":"Ballymacarbry"},"geometry":{"type":"Point","coordinates":[-7.744719999999999,52.26444]}},{"type":"feature","properties":{"country_en":"Ireland","name":"Kilcoe","name_adm0":"Ireland","name_adm1":"Cork","name_en":"Kilcoe"},"geometry":{"type":"Point","coordinates":[-9.32825,51.524124]}},{"type":"feature","properties":{"country_en":"Ireland","name":"Feakle","name_adm0":"Ireland","name_adm1":"Clare","name_en":"Feakle"},"geometry":{"type":"Point","coordinates":[-8.645119,52.928774]}},{"type":"feature","properties":{"country_en":"Ireland","name":"Hospital","name_adm0":"Ireland","name_adm1":"Limerick","name_en":"Hospital"},"geometry":{"type":"Point","coordinates":[-8.430559999999998,52.47306]}},{"type":"feature","properties":{"country_en":"Ireland","name":"Roxborough","name_adm0":"Ireland","name_adm1":"Limerick","name_en":"Roxborough"},"geometry":{"type":"Point","coordinates":[-8.595857,52.595644]}},{"type":"feature","properties":{"country_en":"Ireland","name":"Killorglin","name_adm0":"Ireland","name_adm1":"Kerry","name_en":"Killorglin"},"geometry":{"type":"Point","coordinates":[-9.78333,52.099999999999994]}},{"type":"feature","properties":{"country_en":"Ireland","name":"Ballyhaunis","name_adm0":"Ireland","name_adm1":"Mayo","name_en":"Ballyhaunis"},"geometry":{"type":"Point","coordinates":[-8.76667,53.76667]}},{"type":"feature","properties":{"country_en":"Ireland","name":"Rathkeale","name_adm0":"Ireland","name_adm1":"Limerick","name_en":"Rathkeale"},"geometry":{"type":"Point","coordinates":[-8.93806,52.52444]}},{"type":"feature","properties":{"country_en":"Ireland","name":"Ogonnelloe","name_adm0":"Ireland","name_adm1":"Clare","name_en":"Ogonnelloe"},"geometry":{"type":"Point","coordinates":[-8.4575,52.888059999999996]}},{"type":"feature","properties":{"country_en":"Ireland","name":"Sillerna","name_adm0":"Ireland","name_adm1":"Galway","name_en":"Sillerna"},"geometry":{"type":"Point","coordinates":[-10.149865,53.55688]}},{"type":"feature","properties":{"country_en":"Ireland","name":"Arabela","name_adm0":"Ireland","name_adm1":"Kerry","name_en":"Arabela"},"geometry":{"type":"Point","coordinates":[-9.630761,52.255917]}},{"type":"feature","properties":{"country_en":"Ireland","name":"Kilcash","name_adm0":"Ireland","name_adm1":"Tipperary","name_en":"Kilcash"},"geometry":{"type":"Point","coordinates":[-7.538548999999999,52.40343]}},{"type":"feature","properties":{"country_en":"Ireland","name":"Mullingar North Urban","name_adm0":"Ireland","name_adm1":"Westmeath","name_en":"Mullingar North Urban"},"geometry":{"type":"Point","coordinates":[-7.362340999999999,53.524135]}},{"type":"feature","properties":{"country_en":"Ireland","name":"Butlerstown","name_adm0":"Ireland","name_adm1":"Cork","name_en":"Butlerstown"},"geometry":{"type":"Point","coordinates":[-8.749387,51.582882999999995]}},{"type":"feature","properties":{"country_en":"Ireland","name":"Monanimy","name_adm0":"Ireland","name_adm1":"Cork","name_en":"Monanimy"},"geometry":{"type":"Point","coordinates":[-8.515005,52.14765799999999]}},{"type":"feature","properties":{"country_en":"Ireland","name":"Blackrock-Booterstown","name_adm0":"Ireland","name_adm1":"Dublin","name_en":"Blackrock-Booterstown"},"geometry":{"type":"Point","coordinates":[-6.3045,53.354022]}},{"type":"feature","properties":{"country_en":"Ireland","name":"North Dock B","name_adm0":"Ireland","name_adm1":"Dublin","name_en":"North Dock B"},"geometry":{"type":"Point","coordinates":[-6.3045,53.354022]}},{"type":"feature","properties":{"country_en":"Ireland","name":"Moatfarrell","name_adm0":"Ireland","name_adm1":"Longford","name_en":"Moatfarrell"},"geometry":{"type":"Point","coordinates":[-7.690428999999999,53.54030699999999]}},{"type":"feature","properties":{"country_en":"Ireland","name":"Bricklieve","name_adm0":"Ireland","name_adm1":"Sligo","name_en":"Bricklieve"},"geometry":{"type":"Point","coordinates":[-8.5538645,54.269472]}},{"type":"feature","properties":{"country_en":"Ireland","name":"Loughglinn","name_adm0":"Ireland","name_adm1":"Roscommon","name_en":"Loughglinn"},"geometry":{"type":"Point","coordinates":[-8.55,53.816669999999995]}},{"type":"feature","properties":{"country_en":"Ireland","name":"Moore","name_adm0":"Ireland","name_adm1":"Roscommon","name_en":"Moore"},"geometry":{"type":"Point","coordinates":[-8.06611,53.33194]}},{"type":"feature","properties":{"country_en":"Ireland","name":"Colman","name_adm0":"Ireland","name_adm1":"Tipperary","name_en":"Colman"},"geometry":{"type":"Point","coordinates":[-8.039417,52.442617]}},{"type":"feature","properties":{"country_en":"Ireland","name":"Kinturk","name_adm0":"Ireland","name_adm1":"Westmeath","name_en":"Kinturk"},"geometry":{"type":"Point","coordinates":[-7.383413,53.494615]}},{"type":"feature","properties":{"country_en":"Ireland","name":"Kilballyowen","name_adm0":"Ireland","name_adm1":"Wicklow","name_en":"Kilballyowen"},"geometry":{"type":"Point","coordinates":[-6.265746999999999,53.061024]}},{"type":"feature","properties":{"country_en":"Ireland","name":"Kiltybegs","name_adm0":"Ireland","name_adm1":"Monaghan","name_en":"Kiltybegs"},"geometry":{"type":"Point","coordinates":[-6.6416699999999995,53.9975]}},{"type":"feature","properties":{"country_en":"Ireland","name":"Bray","name_adm0":"Ireland","name_adm1":"Wicklow","name_en":"Bray"},"geometry":{"type":"Point","coordinates":[-6.09833,53.20278]}},{"type":"feature","properties":{"country_en":"Ireland","name":"Ardara","name_adm0":"Ireland","name_adm1":"Donegal","name_en":"Ardara"},"geometry":{"type":"Point","coordinates":[-8.407499999999999,54.76444]}},{"type":"feature","properties":{"country_en":"Ireland","name":"Kilcoole","name_adm0":"Ireland","name_adm1":"Wicklow","name_en":"Kilcoole"},"geometry":{"type":"Point","coordinates":[-6.065,53.102779999999996]}},{"type":"feature","properties":{"country_en":"Ireland","name":"Ringsend","name_adm0":"Ireland","name_adm1":"Dublin","name_en":"Ringsend"},"geometry":{"type":"Point","coordinates":[-6.22639,53.34194]}},{"type":"feature","properties":{"country_en":"Ireland","name":"Bellmount","name_adm0":"Ireland","name_adm1":"Offaly","name_en":"Bellmount"},"geometry":{"type":"Point","coordinates":[-7.495829999999999,53.35305999999999]}},{"type":"feature","properties":{"country_en":"Ireland","name":"Camolin","name_adm0":"Ireland","name_adm1":"Wexford","name_en":"Camolin"},"geometry":{"type":"Point","coordinates":[-6.42056,52.61556]}},{"type":"feature","properties":{"country_en":"Ireland","name":"Ardmore","name_adm0":"Ireland","name_adm1":"Waterford","name_en":"Ardmore"},"geometry":{"type":"Point","coordinates":[-7.72528,51.94917]}},{"type":"feature","properties":{"country_en":"Ireland","name":"Ballycanew","name_adm0":"Ireland","name_adm1":"Wexford","name_en":"Ballycanew"},"geometry":{"type":"Point","coordinates":[-6.303059999999999,52.60889]}},{"type":"feature","properties":{"country_en":"Ireland","name":"Ardara","name_adm0":"Ireland","name_adm1":"Donegal","name_en":"Ardara"},"geometry":{"type":"Point","coordinates":[-8.41793,54.75795]}},{"type":"feature","properties":{"country_en":"Ireland","name":"Dundalk Urban","name_adm0":"Ireland","name_adm1":"Louth","name_en":"Dundalk Urban"},"geometry":{"type":"Point","coordinates":[-6.40431,54.001869]}},{"type":"feature","properties":{"country_en":"Ireland","name":"Kilcock","name_adm0":"Ireland","name_adm1":"Kildare","name_en":"Kilcock"},"geometry":{"type":"Point","coordinates":[-6.67083,53.40222]}},{"type":"feature","properties":{"country_en":"Ireland","name":"Clogher","name_adm0":"Ireland","name_adm1":"Louth","name_en":"Clogher"},"geometry":{"type":"Point","coordinates":[-6.231307,53.797]}},{"type":"feature","properties":{"country_en":"Ireland","name":"Custom House B","name_adm0":"Ireland","name_adm1":"Waterford","name_en":"Custom House B"},"geometry":{"type":"Point","coordinates":[-7.116221999999999,52.26011999999999]}},{"type":"feature","properties":{"country_en":"Ireland","name":"Faithlegg","name_adm0":"Ireland","name_adm1":"Waterford","name_en":"Faithlegg"},"geometry":{"type":"Point","coordinates":[-7.039413999999999,52.238444]}},{"type":"feature","properties":{"country_en":"Ireland","name":"Tawnyinah","name_adm0":"Ireland","name_adm1":"Mayo","name_en":"Tawnyinah"},"geometry":{"type":"Point","coordinates":[-8.76667,53.9]}},{"type":"feature","properties":{"country_en":"Ireland","name":"Tulla","name_adm0":"Ireland","name_adm1":"Clare","name_en":"Tulla"},"geometry":{"type":"Point","coordinates":[-8.760559999999998,52.86472]}},{"type":"feature","properties":{"country_en":"Ireland","name":"Tulsk","name_adm0":"Ireland","name_adm1":"Roscommon","name_en":"Tulsk"},"geometry":{"type":"Point","coordinates":[-8.25,53.78333]}},{"type":"feature","properties":{"country_en":"Ireland","name":"Mallow South Urban","name_adm0":"Ireland","name_adm1":"Cork","name_en":"Mallow South Urban"},"geometry":{"type":"Point","coordinates":[-8.664093,52.132631]}},{"type":"feature","properties":{"country_en":"Ireland","name":"Tinglas","name_adm0":"Ireland","name_adm1":"Dublin","name_en":"Tinglas"},"geometry":{"type":"Point","coordinates":[-6.298964,53.389707]}},{"type":"feature","properties":{"country_en":"Ireland","name":"Tralee","name_adm0":"Ireland","name_adm1":"Kerry","name_en":"Tralee"},"geometry":{"type":"Point","coordinates":[-9.705562,52.269542]}},{"type":"feature","properties":{"country_en":"Ireland","name":"Wicklow","name_adm0":"Ireland","name_adm1":"Wicklow","name_en":"Wicklow"},"geometry":{"type":"Point","coordinates":[-6.037758999999999,52.980628]}},{"type":"feature","properties":{"country_en":"Ireland","name":"Moville","name_adm0":"Ireland","name_adm1":"Donegal","name_en":"Moville"},"geometry":{"type":"Point","coordinates":[-6.983237999999999,55.19239199999999]}},{"type":"feature","properties":{"country_en":"Ireland","name":"Leixlip Town","name_adm0":"Ireland","name_adm1":"Kildare","name_en":"Leixlip Town"},"geometry":{"type":"Point","coordinates":[-6.49513,53.36887599999999]}},{"type":"feature","properties":{"country_en":"Ireland","name":"Monasterevin","name_adm0":"Ireland","name_adm1":"Kildare","name_en":"Monasterevin"},"geometry":{"type":"Point","coordinates":[-7.061312,53.139492]}},{"type":"feature","properties":{"country_en":"Ireland","name":"Carrick","name_adm0":"Ireland","name_adm1":"Wexford","name_en":"Carrick"},"geometry":{"type":"Point","coordinates":[-6.519699,52.346833]}},{"type":"feature","properties":{"country_en":"Ireland","name":"Powerscourt","name_adm0":"Ireland","name_adm1":"Wicklow","name_en":"Powerscourt"},"geometry":{"type":"Point","coordinates":[-6.294447,53.18102799999999]}},{"type":"feature","properties":{"country_en":"Ireland","name":"Moville","name_adm0":"Ireland","name_adm1":"Donegal","name_en":"Moville"},"geometry":{"type":"Point","coordinates":[-7.05,55.18333]}},{"type":"feature","properties":{"country_en":"Ireland","name":"Myross","name_adm0":"Ireland","name_adm1":"Cork","name_en":"Myross"},"geometry":{"type":"Point","coordinates":[-9.14667,51.53194]}},{"type":"feature","properties":{"country_en":"Ireland","name":"Ballymoe","name_adm0":"Ireland","name_adm1":"Galway","name_en":"Ballymoe"},"geometry":{"type":"Point","coordinates":[-8.466669999999999,53.699999999999996]}},{"type":"feature","properties":{"country_en":"Ireland","name":"Enniskerry","name_adm0":"Ireland","name_adm1":"Wicklow","name_en":"Enniskerry"},"geometry":{"type":"Point","coordinates":[-6.16917,53.192499999999995]}},{"type":"feature","properties":{"country_en":"Ireland","name":"Milltown Malbay","name_adm0":"Ireland","name_adm1":"Clare","name_en":"Milltown Malbay"},"geometry":{"type":"Point","coordinates":[-9.39833,52.85528]}},{"type":"feature","properties":{"country_en":"Ireland","name":"Castleventry","name_adm0":"Ireland","name_adm1":"Cork","name_en":"Castleventry"},"geometry":{"type":"Point","coordinates":[-9.012392999999998,51.635759]}},{"type":"feature","properties":{"country_en":"Ireland","name":"Kilgobnet","name_adm0":"Ireland","name_adm1":"Waterford","name_en":"Kilgobnet"},"geometry":{"type":"Point","coordinates":[-7.6855795,52.1280555]}},{"type":"feature","properties":{"country_en":"Ireland","name":"Ardee Urban","name_adm0":"Ireland","name_adm1":"Louth","name_en":"Ardee Urban"},"geometry":{"type":"Point","coordinates":[-6.53944,53.855336]}},{"type":"feature","properties":{"country_en":"Ireland","name":"Killeenleagh","name_adm0":"Ireland","name_adm1":"Kerry","name_en":"Killeenleagh"},"geometry":{"type":"Point","coordinates":[-9.31306,51.63944]}},{"type":"feature","properties":{"country_en":"Ireland","name":"Rath Luirc","name_adm0":"Ireland","name_adm1":"Cork","name_en":"Rath Luirc"},"geometry":{"type":"Point","coordinates":[-8.68333,52.35]}},{"type":"feature","properties":{"country_en":"Ireland","name":"Bouladuff","name_adm0":"Ireland","name_adm1":"Tipperary","name_en":"Bouladuff"},"geometry":{"type":"Point","coordinates":[-7.90667,52.71666999999999]}},{"type":"feature","properties":{"country_en":"Ireland","name":"Callan Urban","name_adm0":"Ireland","name_adm1":"Kilkenny","name_en":"Callan Urban"},"geometry":{"type":"Point","coordinates":[-7.390376,52.544491]}},{"type":"feature","properties":{"country_en":"Ireland","name":"Achill","name_adm0":"Ireland","name_adm1":"Mayo","name_en":"Achill"},"geometry":{"type":"Point","coordinates":[-9.915,53.93111]}},{"type":"feature","properties":{"country_en":"Ireland","name":"Cleggan","name_adm0":"Ireland","name_adm1":"Galway","name_en":"Cleggan"},"geometry":{"type":"Point","coordinates":[-10.11667,53.55]}},{"type":"feature","properties":{"country_en":"Ireland","name":"Clogheen","name_adm0":"Ireland","name_adm1":"Tipperary","name_en":"Clogheen"},"geometry":{"type":"Point","coordinates":[-7.99222,52.27583]}},{"type":"feature","properties":{"country_en":"Ireland","name":"Ballyvourney","name_adm0":"Ireland","name_adm1":"Cork","name_en":"Ballyvourney"},"geometry":{"type":"Point","coordinates":[-9.16689,51.94606]}},{"type":"feature","properties":{"country_en":"Ireland","name":"Glanlough","name_adm0":"Ireland","name_adm1":"Cork","name_en":"Glanlough"},"geometry":{"type":"Point","coordinates":[-9.43889,51.8775]}},{"type":"feature","properties":{"country_en":"Ireland","name":"Killea","name_adm0":"Ireland","name_adm1":"Waterford","name_en":"Killea"},"geometry":{"type":"Point","coordinates":[-7.01444,52.16417]}},{"type":"feature","properties":{"country_en":"Ireland","name":"Maas","name_adm0":"Ireland","name_adm1":"Donegal","name_en":"Maas"},"geometry":{"type":"Point","coordinates":[-8.36111,54.83194]}},{"type":"feature","properties":{"country_en":"Ireland","name":"Burt","name_adm0":"Ireland","name_adm1":"Donegal","name_en":"Burt"},"geometry":{"type":"Point","coordinates":[-7.363242999999999,55.02506999999999]}},{"type":"feature","properties":{"country_en":"Ireland","name":"Rathcooney","name_adm0":"Ireland","name_adm1":"Cork","name_en":"Rathcooney"},"geometry":{"type":"Point","coordinates":[-8.398017,51.927357]}},{"type":"feature","properties":{"country_en":"Ireland","name":"Kiltallagh","name_adm0":"Ireland","name_adm1":"Kerry","name_en":"Kiltallagh"},"geometry":{"type":"Point","coordinates":[-9.702215,52.166298]}},{"type":"feature","properties":{"country_en":"Ireland","name":"Rinn","name_adm0":"Ireland","name_adm1":"Leitrim","name_en":"Rinn"},"geometry":{"type":"Point","coordinates":[-7.844753,53.889993]}},{"type":"feature","properties":{"country_en":"Ireland","name":"Doon","name_adm0":"Ireland","name_adm1":"Offaly","name_en":"Doon"},"geometry":{"type":"Point","coordinates":[-7.835826,53.338868]}},{"type":"feature","properties":{"country_en":"Ireland","name":"Kilderry","name_adm0":"Ireland","name_adm1":"Donegal","name_en":"Kilderry"},"geometry":{"type":"Point","coordinates":[-7.265739,55.067715]}},{"type":"feature","properties":{"country_en":"Ireland","name":"Raheen","name_adm0":"Ireland","name_adm1":"Laois","name_en":"Raheen"},"geometry":{"type":"Point","coordinates":[-7.335648999999999,52.983451]}},{"type":"feature","properties":{"country_en":"Ireland","name":"Neale","name_adm0":"Ireland","name_adm1":"Mayo","name_en":"Neale"},"geometry":{"type":"Point","coordinates":[-9.284648,53.634562]}},{"type":"feature","properties":{"country_en":"Ireland","name":"Cloghbrack","name_adm0":"Ireland","name_adm1":"Meath","name_en":"Cloghbrack"},"geometry":{"type":"Point","coordinates":[-6.96538,53.532798]}},{"type":"feature","properties":{"country_en":"Ireland","name":"Kiltealy","name_adm0":"Ireland","name_adm1":"Wexford","name_en":"Kiltealy"},"geometry":{"type":"Point","coordinates":[-6.762084,52.558612]}},{"type":"feature","properties":{"country_en":"Ireland","name":"Dunlavin","name_adm0":"Ireland","name_adm1":"Wicklow","name_en":"Dunlavin"},"geometry":{"type":"Point","coordinates":[-6.70132,53.059051]}},{"type":"feature","properties":{"country_en":"Ireland","name":"Tuosist","name_adm0":"Ireland","name_adm1":"Kerry","name_en":"Tuosist"},"geometry":{"type":"Point","coordinates":[-9.740345,51.82491]}},{"type":"feature","properties":{"country_en":"Ireland","name":"Meanus","name_adm0":"Ireland","name_adm1":"Limerick","name_en":"Meanus"},"geometry":{"type":"Point","coordinates":[-8.60972,52.51111]}},{"type":"feature","properties":{"country_en":"Ireland","name":"Barna","name_adm0":"Ireland","name_adm1":"Galway","name_en":"Barna"},"geometry":{"type":"Point","coordinates":[-9.15,53.25]}},{"type":"feature","properties":{"country_en":"Ireland","name":"Manulla","name_adm0":"Ireland","name_adm1":"Mayo","name_en":"Manulla"},"geometry":{"type":"Point","coordinates":[-9.18333,53.83333]}},{"type":"feature","properties":{"country_en":"Ireland","name":"Ballysakeery","name_adm0":"Ireland","name_adm1":"Mayo","name_en":"Ballysakeery"},"geometry":{"type":"Point","coordinates":[-9.18028,54.18472]}},{"type":"feature","properties":{"country_en":"Ireland","name":"Ballinderreen","name_adm0":"Ireland","name_adm1":"Galway","name_en":"Ballinderreen"},"geometry":{"type":"Point","coordinates":[-8.906389999999998,53.186389999999996]}},{"type":"feature","properties":{"country_en":"Ireland","name":"Loughglinn","name_adm0":"Ireland","name_adm1":"Roscommon","name_en":"Loughglinn"},"geometry":{"type":"Point","coordinates":[-8.55,53.816669999999995]}},{"type":"feature","properties":{"country_en":"Ireland","name":"Rathkenny","name_adm0":"Ireland","name_adm1":"Meath","name_en":"Rathkenny"},"geometry":{"type":"Point","coordinates":[-6.64611,53.74778]}},{"type":"feature","properties":{"country_en":"Ireland","name":"Ballyfin","name_adm0":"Ireland","name_adm1":"Laois","name_en":"Ballyfin"},"geometry":{"type":"Point","coordinates":[-7.435543999999999,53.08605]}},{"type":"feature","properties":{"country_en":"Ireland","name":"Drumline","name_adm0":"Ireland","name_adm1":"Clare","name_en":"Drumline"},"geometry":{"type":"Point","coordinates":[-8.882102,52.710377]}},{"type":"feature","properties":{"country_en":"Ireland","name":"Youghal Urban","name_adm0":"Ireland","name_adm1":"Cork","name_en":"Youghal Urban"},"geometry":{"type":"Point","coordinates":[-7.851619,51.953239]}},{"type":"feature","properties":{"country_en":"Ireland","name":"Killashee","name_adm0":"Ireland","name_adm1":"Kildare","name_en":"Killashee"},"geometry":{"type":"Point","coordinates":[-6.854352,53.161027]}},{"type":"feature","properties":{"country_en":"Ireland","name":"Connemara","name_adm0":"Ireland","name_adm1":"Galway","name_en":"Connemara"},"geometry":{"type":"Point","coordinates":[-9.75018,53.500049]}},{"type":"feature","properties":{"country_en":"Ireland","name":"Monasterevin","name_adm0":"Ireland","name_adm1":"Kildare","name_en":"Monasterevin"},"geometry":{"type":"Point","coordinates":[-7.06639,53.140559999999994]}},{"type":"feature","properties":{"country_en":"Ireland","name":"Collooney","name_adm0":"Ireland","name_adm1":"Sligo","name_en":"Collooney"},"geometry":{"type":"Point","coordinates":[-8.5,54.18332999999999]}},{"type":"feature","properties":{"country_en":"Ireland","name":"Killylough","name_adm0":"Ireland","name_adm1":"Monaghan","name_en":"Killylough"},"geometry":{"type":"Point","coordinates":[-6.967628,54.201411]}},{"type":"feature","properties":{"country_en":"Ireland","name":"Killukin","name_adm0":"Ireland","name_adm1":"Roscommon","name_en":"Killukin"},"geometry":{"type":"Point","coordinates":[-8.261718,53.476911]}},{"type":"feature","properties":{"country_en":"Ireland","name":"Sligo West Urban","name_adm0":"Ireland","name_adm1":"Sligo","name_en":"Sligo West Urban"},"geometry":{"type":"Point","coordinates":[-8.5538645,54.269472]}},{"type":"feature","properties":{"country_en":"Ireland","name":"Rathcabban","name_adm0":"Ireland","name_adm1":"Tipperary","name_en":"Rathcabban"},"geometry":{"type":"Point","coordinates":[-8.02694,53.11611]}},{"type":"feature","properties":{"country_en":"Ireland","name":"Rathmore","name_adm0":"Ireland","name_adm1":"Kildare","name_en":"Rathmore"},"geometry":{"type":"Point","coordinates":[-6.564439999999999,53.21722]}},{"type":"feature","properties":{"country_en":"Ireland","name":"Riverstown","name_adm0":"Ireland","name_adm1":"Sligo","name_en":"Riverstown"},"geometry":{"type":"Point","coordinates":[-8.39444,54.13167]}},{"type":"feature","properties":{"country_en":"Ireland","name":"Kenmare","name_adm0":"Ireland","name_adm1":"Kerry","name_en":"Kenmare"},"geometry":{"type":"Point","coordinates":[-9.58333,51.883329999999994]}},{"type":"feature","properties":{"country_en":"Ireland","name":"Irishtown","name_adm0":"Ireland","name_adm1":"Dublin","name_en":"Irishtown"},"geometry":{"type":"Point","coordinates":[-6.215,53.33806]}},{"type":"feature","properties":{"country_en":"Ireland","name":"Ballyboden","name_adm0":"Ireland","name_adm1":"Dublin","name_en":"Ballyboden"},"geometry":{"type":"Point","coordinates":[-6.31639,53.28056]}},{"type":"feature","properties":{"country_en":"Ireland","name":"Carrick","name_adm0":"Ireland","name_adm1":"Donegal","name_en":"Carrick"},"geometry":{"type":"Point","coordinates":[-8.63167,54.6575]}},{"type":"feature","properties":{"country_en":"Ireland","name":"New Ross","name_adm0":"Ireland","name_adm1":"Wexford","name_en":"New Ross"},"geometry":{"type":"Point","coordinates":[-6.9366699999999994,52.39667]}},{"type":"feature","properties":{"country_en":"Ireland","name":"Dunfanaghy","name_adm0":"Ireland","name_adm1":"Donegal","name_en":"Dunfanaghy"},"geometry":{"type":"Point","coordinates":[-7.9746999999999995,55.18415999999999]}},{"type":"feature","properties":{"country_en":"Ireland","name":"Maynooth","name_adm0":"Ireland","name_adm1":"Kildare","name_en":"Maynooth"},"geometry":{"type":"Point","coordinates":[-6.5942,53.380703999999994]}},{"type":"feature","properties":{"country_en":"Ireland","name":"Togher","name_adm0":"Ireland","name_adm1":"Wicklow","name_en":"Togher"},"geometry":{"type":"Point","coordinates":[-6.25637,53.085808]}},{"type":"feature","properties":{"country_en":"Ireland","name":"Emlagh","name_adm0":"Ireland","name_adm1":"Mayo","name_en":"Emlagh"},"geometry":{"type":"Point","coordinates":[-9.88333,53.74999999999999]}},{"type":"feature","properties":{"country_en":"Ireland","name":"Leighlinbridge","name_adm0":"Ireland","name_adm1":"Carlow","name_en":"Leighlinbridge"},"geometry":{"type":"Point","coordinates":[-6.978152499999999,52.736005]}},{"type":"feature","properties":{"country_en":"Ireland","name":"Myshall","name_adm0":"Ireland","name_adm1":"Carlow","name_en":"Myshall"},"geometry":{"type":"Point","coordinates":[-6.809539,52.684138999999995]}},{"type":"feature","properties":{"country_en":"Ireland","name":"Bunmahon","name_adm0":"Ireland","name_adm1":"Waterford","name_en":"Bunmahon"},"geometry":{"type":"Point","coordinates":[-7.37444,52.14028]}},{"type":"feature","properties":{"country_en":"Ireland","name":"Ballysmuttan Upper","name_adm0":"Ireland","name_adm1":"Wicklow","name_en":"Ballysmuttan Upper"},"geometry":{"type":"Point","coordinates":[-6.42917,53.17056]}},{"type":"feature","properties":{"country_en":"Ireland","name":"Hempstown","name_adm0":"Ireland","name_adm1":"Wicklow","name_en":"Hempstown"},"geometry":{"type":"Point","coordinates":[-6.50111,53.20222]}},{"type":"feature","properties":{"country_en":"Ireland","name":"Lahardaun","name_adm0":"Ireland","name_adm1":"Mayo","name_en":"Lahardaun"},"geometry":{"type":"Point","coordinates":[-9.32167,54.02722]}},{"type":"feature","properties":{"country_en":"Ireland","name":"Bellewestown","name_adm0":"Ireland","name_adm1":"Meath","name_en":"Bellewestown"},"geometry":{"type":"Point","coordinates":[-6.345289999999999,53.64466]}},{"type":"feature","properties":{"country_en":"Ireland","name":"Old Leighlin","name_adm0":"Ireland","name_adm1":"Carlow","name_en":"Old Leighlin"},"geometry":{"type":"Point","coordinates":[-7.022205,52.73695399999999]}},{"type":"feature","properties":{"country_en":"Ireland","name":"Rathcormack","name_adm0":"Ireland","name_adm1":"Cork","name_en":"Rathcormack"},"geometry":{"type":"Point","coordinates":[-8.271159999999998,52.101654]}},{"type":"feature","properties":{"country_en":"Ireland","name":"Letterfore","name_adm0":"Ireland","name_adm1":"Galway","name_en":"Letterfore"},"geometry":{"type":"Point","coordinates":[-9.543857,53.4560855]}},{"type":"feature","properties":{"country_en":"Ireland","name":"Carrickmacross Urban","name_adm0":"Ireland","name_adm1":"Monaghan","name_en":"Carrickmacross Urban"},"geometry":{"type":"Point","coordinates":[-6.718654,53.976736]}},{"type":"feature","properties":{"country_en":"Ireland","name":"Ennis Urban A","name_adm0":"Ireland","name_adm1":"Clare","name_en":"Ennis Urban A"},"geometry":{"type":"Point","coordinates":[-8.983597,52.84527]}},{"type":"feature","properties":{"country_en":"Ireland","name":"Mountievers","name_adm0":"Ireland","name_adm1":"Clare","name_en":"Mountievers"},"geometry":{"type":"Point","coordinates":[-8.776187,52.7413415]}},{"type":"feature","properties":{"country_en":"Ireland","name":"Newmarket","name_adm0":"Ireland","name_adm1":"Clare","name_en":"Newmarket"},"geometry":{"type":"Point","coordinates":[-8.895921,52.760600999999994]}},{"type":"feature","properties":{"country_en":"Ireland","name":"Kilfaughnabeg","name_adm0":"Ireland","name_adm1":"Cork","name_en":"Kilfaughnabeg"},"geometry":{"type":"Point","coordinates":[-9.120604,51.565886]}},{"type":"feature","properties":{"country_en":"Ireland","name":"Shantalla","name_adm0":"Ireland","name_adm1":"Galway","name_en":"Shantalla"},"geometry":{"type":"Point","coordinates":[-9.054449999999997,53.27139799999999]}},{"type":"feature","properties":{"country_en":"Ireland","name":"Boora","name_adm0":"Ireland","name_adm1":"Offaly","name_en":"Boora"},"geometry":{"type":"Point","coordinates":[-7.72974,53.233167]}},{"type":"feature","properties":{"country_en":"Ireland","name":"Kilmolin","name_adm0":"Ireland","name_adm1":"Wicklow","name_en":"Kilmolin"},"geometry":{"type":"Point","coordinates":[-6.17861,53.19667]}},{"type":"feature","properties":{"country_en":"Ireland","name":"Courtown","name_adm0":"Ireland","name_adm1":"Wexford","name_en":"Courtown"},"geometry":{"type":"Point","coordinates":[-6.22306,52.64472]}},{"type":"feature","properties":{"country_en":"Ireland","name":"Kilkishen","name_adm0":"Ireland","name_adm1":"Clare","name_en":"Kilkishen"},"geometry":{"type":"Point","coordinates":[-8.798332,52.812048]}},{"type":"feature","properties":{"country_en":"Ireland","name":"Letterkenny Urban","name_adm0":"Ireland","name_adm1":"Donegal","name_en":"Letterkenny Urban"},"geometry":{"type":"Point","coordinates":[-7.7323569999999995,54.95346399999999]}},{"type":"feature","properties":{"country_en":"Ireland","name":"Moate","name_adm0":"Ireland","name_adm1":"Westmeath","name_en":"Moate"},"geometry":{"type":"Point","coordinates":[-7.716669999999999,53.55]}},{"type":"feature","properties":{"country_en":"Ireland","name":"Ballyduff","name_adm0":"Ireland","name_adm1":"Waterford","name_en":"Ballyduff"},"geometry":{"type":"Point","coordinates":[-8.05361,52.14667]}},{"type":"feature","properties":{"country_en":"Ireland","name":"Ballybrack","name_adm0":"Ireland","name_adm1":"Dublin","name_en":"Ballybrack"},"geometry":{"type":"Point","coordinates":[-6.127724,53.24998]}},{"type":"feature","properties":{"country_en":"Ireland","name":"Sligo North Urban","name_adm0":"Ireland","name_adm1":"Sligo","name_en":"Sligo North Urban"},"geometry":{"type":"Point","coordinates":[-8.474192,54.272592]}},{"type":"feature","properties":{"country_en":"Ireland","name":"Comeragh","name_adm0":"Ireland","name_adm1":"Waterford","name_en":"Comeragh"},"geometry":{"type":"Point","coordinates":[-7.5397535,52.230756]}},{"type":"feature","properties":{"country_en":"Ireland","name":"Donabate","name_adm0":"Ireland","name_adm1":"Dublin","name_en":"Donabate"},"geometry":{"type":"Point","coordinates":[-6.151939999999999,53.48722]}},{"type":"feature","properties":{"country_en":"Ireland","name":"Clones","name_adm0":"Ireland","name_adm1":"Monaghan","name_en":"Clones"},"geometry":{"type":"Point","coordinates":[-7.23333,54.18332999999999]}},{"type":"feature","properties":{"country_en":"Ireland","name":"Templemore","name_adm0":"Ireland","name_adm1":"Tipperary","name_en":"Templemore"},"geometry":{"type":"Point","coordinates":[-7.833890000000001,52.79472]}},{"type":"feature","properties":{"country_en":"Ireland","name":"Castle Talbot","name_adm0":"Ireland","name_adm1":"Wexford","name_en":"Castle Talbot"},"geometry":{"type":"Point","coordinates":[-6.359023999999999,52.41058699999999]}},{"type":"feature","properties":{"country_en":"Ireland","name":"Ovoca","name_adm0":"Ireland","name_adm1":"Wicklow","name_en":"Ovoca"},"geometry":{"type":"Point","coordinates":[-6.213454999999999,52.859673]}},{"type":"feature","properties":{"country_en":"Ireland","name":"Baile Atha I","name_adm0":"Ireland","name_adm1":"Kildare","name_en":"Baile Atha I"},"geometry":{"type":"Point","coordinates":[-6.970051999999999,52.992059]}},{"type":"feature","properties":{"country_en":"Ireland","name":"Merrion","name_adm0":"Ireland","name_adm1":"Dublin","name_en":"Merrion"},"geometry":{"type":"Point","coordinates":[-6.251579999999999,53.339579]}},{"type":"feature","properties":{"country_en":"Ireland","name":"Easkey","name_adm0":"Ireland","name_adm1":"Sligo","name_en":"Easkey"},"geometry":{"type":"Point","coordinates":[-8.96167,54.28860999999999]}},{"type":"feature","properties":{"country_en":"Ireland","name":"Cross","name_adm0":"Ireland","name_adm1":"Clare","name_en":"Cross"},"geometry":{"type":"Point","coordinates":[-9.771669999999999,52.59806]}},{"type":"feature","properties":{"country_en":"Ireland","name":"Grange","name_adm0":"Ireland","name_adm1":"Waterford","name_en":"Grange"},"geometry":{"type":"Point","coordinates":[-7.75278,51.98639]}},{"type":"feature","properties":{"country_en":"Ireland","name":"Kilbrien","name_adm0":"Ireland","name_adm1":"Waterford","name_en":"Kilbrien"},"geometry":{"type":"Point","coordinates":[-7.657499999999999,52.18806]}},{"type":"feature","properties":{"country_en":"Ireland","name":"Kilchreest","name_adm0":"Ireland","name_adm1":"Galway","name_en":"Kilchreest"},"geometry":{"type":"Point","coordinates":[-8.65139,53.17638999999999]}},{"type":"feature","properties":{"country_en":"Ireland","name":"Kilconny","name_adm0":"Ireland","name_adm1":"Cavan","name_en":"Kilconny"},"geometry":{"type":"Point","coordinates":[-7.44889,54.10194]}},{"type":"feature","properties":{"country_en":"Ireland","name":"Killedmond","name_adm0":"Ireland","name_adm1":"Carlow","name_en":"Killedmond"},"geometry":{"type":"Point","coordinates":[-6.84417,52.61082999999999]}},{"type":"feature","properties":{"country_en":"Ireland","name":"Tiknock","name_adm0":"Ireland","name_adm1":"Carlow","name_en":"Tiknock"},"geometry":{"type":"Point","coordinates":[-6.63556,52.89194]}},{"type":"feature","properties":{"country_en":"Ireland","name":"Lisagoan","name_adm0":"Ireland","name_adm1":"Cavan","name_en":"Lisagoan"},"geometry":{"type":"Point","coordinates":[-6.873059999999999,53.94944]}},{"type":"feature","properties":{"country_en":"Ireland","name":"Ballagh","name_adm0":"Ireland","name_adm1":"Clare","name_en":"Ballagh"},"geometry":{"type":"Point","coordinates":[-9.23583,52.96110999999999]}},{"type":"feature","properties":{"country_en":"Ireland","name":"Boherglass","name_adm0":"Ireland","name_adm1":"Clare","name_en":"Boherglass"},"geometry":{"type":"Point","coordinates":[-8.6,52.86667]}},{"type":"feature","properties":{"country_en":"Ireland","name":"Caher","name_adm0":"Ireland","name_adm1":"Clare","name_en":"Caher"},"geometry":{"type":"Point","coordinates":[-8.64528,52.96472]}},{"type":"feature","properties":{"country_en":"Ireland","name":"Carran","name_adm0":"Ireland","name_adm1":"Clare","name_en":"Carran"},"geometry":{"type":"Point","coordinates":[-9.07806,53.03806]}},{"type":"feature","properties":{"country_en":"Ireland","name":"Castletown","name_adm0":"Ireland","name_adm1":"Clare","name_en":"Castletown"},"geometry":{"type":"Point","coordinates":[-9.06861,53.02806]}},{"type":"feature","properties":{"country_en":"Ireland","name":"Ballyea","name_adm0":"Ireland","name_adm1":"Clare","name_en":"Ballyea"},"geometry":{"type":"Point","coordinates":[-9.21389,52.911109999999994]}},{"type":"feature","properties":{"country_en":"Ireland","name":"Kilmurry","name_adm0":"Ireland","name_adm1":"Clare","name_en":"Kilmurry"},"geometry":{"type":"Point","coordinates":[-9.454169999999998,52.801109999999994]}},{"type":"feature","properties":{"country_en":"Ireland","name":"Dysert","name_adm0":"Ireland","name_adm1":"Clare","name_en":"Dysert"},"geometry":{"type":"Point","coordinates":[-9.18167,52.875]}},{"type":"feature","properties":{"country_en":"Ireland","name":"Glendree","name_adm0":"Ireland","name_adm1":"Clare","name_en":"Glendree"},"geometry":{"type":"Point","coordinates":[-8.72333,52.92028]}},{"type":"feature","properties":{"country_en":"Ireland","name":"Ballynoe","name_adm0":"Ireland","name_adm1":"Cork","name_en":"Ballynoe"},"geometry":{"type":"Point","coordinates":[-8.85556,52.20249999999999]}},{"type":"feature","properties":{"country_en":"Ireland","name":"Barleyhill","name_adm0":"Ireland","name_adm1":"Cork","name_en":"Barleyhill"},"geometry":{"type":"Point","coordinates":[-8.986939999999999,52.24110999999999]}},{"type":"feature","properties":{"country_en":"Ireland","name":"Bealock","name_adm0":"Ireland","name_adm1":"Cork","name_en":"Bealock"},"geometry":{"type":"Point","coordinates":[-9.12194,51.82444]}},{"type":"feature","properties":{"country_en":"Ireland","name":"Brinny","name_adm0":"Ireland","name_adm1":"Cork","name_en":"Brinny"},"geometry":{"type":"Point","coordinates":[-8.70389,51.78944]}},{"type":"feature","properties":{"country_en":"Ireland","name":"Gortroe","name_adm0":"Ireland","name_adm1":"Cork","name_en":"Gortroe"},"geometry":{"type":"Point","coordinates":[-8.7825,52.11056]}},{"type":"feature","properties":{"country_en":"Ireland","name":"Greenville","name_adm0":"Ireland","name_adm1":"Cork","name_en":"Greenville"},"geometry":{"type":"Point","coordinates":[-8.26056,51.91972]}},{"type":"feature","properties":{"country_en":"Ireland","name":"Inchigeelagh","name_adm0":"Ireland","name_adm1":"Cork","name_en":"Inchigeelagh"},"geometry":{"type":"Point","coordinates":[-9.11667,51.83333]}},{"type":"feature","properties":{"country_en":"Ireland","name":"Keale","name_adm0":"Ireland","name_adm1":"Cork","name_en":"Keale"},"geometry":{"type":"Point","coordinates":[-9.033329999999998,52.11667]}},{"type":"feature","properties":{"country_en":"Ireland","name":"Kilbrin","name_adm0":"Ireland","name_adm1":"Cork","name_en":"Kilbrin"},"geometry":{"type":"Point","coordinates":[-8.83333,52.2]}},{"type":"feature","properties":{"country_en":"Ireland","name":"Kilcor","name_adm0":"Ireland","name_adm1":"Cork","name_en":"Kilcor"},"geometry":{"type":"Point","coordinates":[-8.20833,52.06278]}},{"type":"feature","properties":{"country_en":"Ireland","name":"Kilpatrick","name_adm0":"Ireland","name_adm1":"Cork","name_en":"Kilpatrick"},"geometry":{"type":"Point","coordinates":[-8.72194,51.78028]}},{"type":"feature","properties":{"country_en":"Ireland","name":"Kinneigh","name_adm0":"Ireland","name_adm1":"Cork","name_en":"Kinneigh"},"geometry":{"type":"Point","coordinates":[-8.96667,51.76667]}},{"type":"feature","properties":{"country_en":"Ireland","name":"Laherne","name_adm0":"Ireland","name_adm1":"Cork","name_en":"Laherne"},"geometry":{"type":"Point","coordinates":[-8.595559999999999,51.64528]}},{"type":"feature","properties":{"country_en":"Ireland","name":"Dunlewy","name_adm0":"Ireland","name_adm1":"Donegal","name_en":"Dunlewy"},"geometry":{"type":"Point","coordinates":[-8.1,55.01666999999999]}},{"type":"feature","properties":{"country_en":"Ireland","name":"Carrowkeel","name_adm0":"Ireland","name_adm1":"Donegal","name_en":"Carrowkeel"},"geometry":{"type":"Point","coordinates":[-7.6499999999999995,55.13333]}},{"type":"feature","properties":{"country_en":"Ireland","name":"Lettermore","name_adm0":"Ireland","name_adm1":"Donegal","name_en":"Lettermore"},"geometry":{"type":"Point","coordinates":[-8.242219999999998,54.71166999999999]}},{"type":"feature","properties":{"country_en":"Ireland","name":"Ballinduff","name_adm0":"Ireland","name_adm1":"Galway","name_en":"Ballinduff"},"geometry":{"type":"Point","coordinates":[-8.80639,53.125]}},{"type":"feature","properties":{"country_en":"Ireland","name":"Ballybaan","name_adm0":"Ireland","name_adm1":"Galway","name_en":"Ballybaan"},"geometry":{"type":"Point","coordinates":[-9.0075,53.28611]}},{"type":"feature","properties":{"country_en":"Ireland","name":"Ballymacward","name_adm0":"Ireland","name_adm1":"Galway","name_en":"Ballymacward"},"geometry":{"type":"Point","coordinates":[-8.485,53.37944]}},{"type":"feature","properties":{"country_en":"Ireland","name":"Ballynacourty","name_adm0":"Ireland","name_adm1":"Galway","name_en":"Ballynacourty"},"geometry":{"type":"Point","coordinates":[-8.94083,53.22139]}},{"type":"feature","properties":{"country_en":"Ireland","name":"Ballynakill","name_adm0":"Ireland","name_adm1":"Galway","name_en":"Ballynakill"},"geometry":{"type":"Point","coordinates":[-8.08889,53.206109999999995]}},{"type":"feature","properties":{"country_en":"Ireland","name":"Foxhall","name_adm0":"Ireland","name_adm1":"Galway","name_en":"Foxhall"},"geometry":{"type":"Point","coordinates":[-9.00129,53.58704]}},{"type":"feature","properties":{"country_en":"Ireland","name":"Greethill","name_adm0":"Ireland","name_adm1":"Galway","name_en":"Greethill"},"geometry":{"type":"Point","coordinates":[-8.7925,53.2725]}},{"type":"feature","properties":{"country_en":"Ireland","name":"Kilbeacanty","name_adm0":"Ireland","name_adm1":"Galway","name_en":"Kilbeacanty"},"geometry":{"type":"Point","coordinates":[-8.77444,53.06528]}},{"type":"feature","properties":{"country_en":"Ireland","name":"Kilbennan","name_adm0":"Ireland","name_adm1":"Galway","name_en":"Kilbennan"},"geometry":{"type":"Point","coordinates":[-8.883329999999999,53.53333]}},{"type":"feature","properties":{"country_en":"Ireland","name":"Kilconnell","name_adm0":"Ireland","name_adm1":"Galway","name_en":"Kilconnell"},"geometry":{"type":"Point","coordinates":[-8.39222,53.33278]}},{"type":"feature","properties":{"country_en":"Ireland","name":"Killannin","name_adm0":"Ireland","name_adm1":"Galway","name_en":"Killannin"},"geometry":{"type":"Point","coordinates":[-9.21083,53.38111]}},{"type":"feature","properties":{"country_en":"Ireland","name":"Killeany","name_adm0":"Ireland","name_adm1":"Galway","name_en":"Killeany"},"geometry":{"type":"Point","coordinates":[-9.66278,53.11028]}},{"type":"feature","properties":{"country_en":"Ireland","name":"Liscananaun","name_adm0":"Ireland","name_adm1":"Galway","name_en":"Liscananaun"},"geometry":{"type":"Point","coordinates":[-8.96056,53.36806]}},{"type":"feature","properties":{"country_en":"Ireland","name":"Lisheenavalla","name_adm0":"Ireland","name_adm1":"Galway","name_en":"Lisheenavalla"},"geometry":{"type":"Point","coordinates":[-8.885279999999998,53.33028]}},{"type":"feature","properties":{"country_en":"Ireland","name":"Mount Bellew","name_adm0":"Ireland","name_adm1":"Galway","name_en":"Mount Bellew"},"geometry":{"type":"Point","coordinates":[-8.5,53.46667]}},{"type":"feature","properties":{"country_en":"Ireland","name":"Skehanagh","name_adm0":"Ireland","name_adm1":"Galway","name_en":"Skehanagh"},"geometry":{"type":"Point","coordinates":[-8.766939999999998,53.12111]}},{"type":"feature","properties":{"country_en":"Ireland","name":"Raheen","name_adm0":"Ireland","name_adm1":"Galway","name_en":"Raheen"},"geometry":{"type":"Point","coordinates":[-8.6,53.58332999999999]}},{"type":"feature","properties":{"country_en":"Ireland","name":"Ballincloher","name_adm0":"Ireland","name_adm1":"Kerry","name_en":"Ballincloher"},"geometry":{"type":"Point","coordinates":[-9.684999999999999,52.38889]}},{"type":"feature","properties":{"country_en":"Ireland","name":"Ballybrack","name_adm0":"Ireland","name_adm1":"Kerry","name_en":"Ballybrack"},"geometry":{"type":"Point","coordinates":[-9.58333,52.13333]}},{"type":"feature","properties":{"country_en":"Ireland","name":"Brosna","name_adm0":"Ireland","name_adm1":"Kerry","name_en":"Brosna"},"geometry":{"type":"Point","coordinates":[-9.26667,52.31667]}},{"type":"feature","properties":{"country_en":"Ireland","name":"Cappagh","name_adm0":"Ireland","name_adm1":"Kerry","name_en":"Cappagh"},"geometry":{"type":"Point","coordinates":[-9.605,52.33583]}},{"type":"feature","properties":{"country_en":"Ireland","name":"Carker","name_adm0":"Ireland","name_adm1":"Kerry","name_en":"Carker"},"geometry":{"type":"Point","coordinates":[-9.382499999999999,52.15556]}},{"type":"feature","properties":{"country_en":"Ireland","name":"Carrig","name_adm0":"Ireland","name_adm1":"Kerry","name_en":"Carrig"},"geometry":{"type":"Point","coordinates":[-9.63333,51.93332999999999]}},{"type":"feature","properties":{"country_en":"Ireland","name":"Causeway","name_adm0":"Ireland","name_adm1":"Kerry","name_en":"Causeway"},"geometry":{"type":"Point","coordinates":[-9.73194,52.41333]}},{"type":"feature","properties":{"country_en":"Ireland","name":"Kilgobnet","name_adm0":"Ireland","name_adm1":"Kerry","name_en":"Kilgobnet"},"geometry":{"type":"Point","coordinates":[-9.716669999999999,52.06667]}},{"type":"feature","properties":{"country_en":"Ireland","name":"Glanlough","name_adm0":"Ireland","name_adm1":"Kerry","name_en":"Glanlough"},"geometry":{"type":"Point","coordinates":[-9.99111,51.8025]}},{"type":"feature","properties":{"country_en":"Ireland","name":"Gneeves","name_adm0":"Ireland","name_adm1":"Kerry","name_en":"Gneeves"},"geometry":{"type":"Point","coordinates":[-9.299999999999999,52.3]}},{"type":"feature","properties":{"country_en":"Ireland","name":"Inch","name_adm0":"Ireland","name_adm1":"Kerry","name_en":"Inch"},"geometry":{"type":"Point","coordinates":[-9.96806,52.14972]}},{"type":"feature","properties":{"country_en":"Ireland","name":"Inchaquire","name_adm0":"Ireland","name_adm1":"Kildare","name_en":"Inchaquire"},"geometry":{"type":"Point","coordinates":[-6.79944,53.0275]}},{"type":"feature","properties":{"country_en":"Ireland","name":"Kildangan","name_adm0":"Ireland","name_adm1":"Kildare","name_en":"Kildangan"},"geometry":{"type":"Point","coordinates":[-7.02361,53.108889999999995]}},{"type":"feature","properties":{"country_en":"Ireland","name":"Killinthomas","name_adm0":"Ireland","name_adm1":"Kildare","name_en":"Killinthomas"},"geometry":{"type":"Point","coordinates":[-7.01472,53.25861]}},{"type":"feature","properties":{"country_en":"Ireland","name":"Garvagh","name_adm0":"Ireland","name_adm1":"Leitrim","name_en":"Garvagh"},"geometry":{"type":"Point","coordinates":[-7.857220000000001,53.98028]}},{"type":"feature","properties":{"country_en":"Ireland","name":"Glenade","name_adm0":"Ireland","name_adm1":"Leitrim","name_en":"Glenade"},"geometry":{"type":"Point","coordinates":[-8.29944,54.38611]}},{"type":"feature","properties":{"country_en":"Ireland","name":"Arless","name_adm0":"Ireland","name_adm1":"Laois","name_en":"Arless"},"geometry":{"type":"Point","coordinates":[-7.03333,52.9]}},{"type":"feature","properties":{"country_en":"Ireland","name":"Ballyadams","name_adm0":"Ireland","name_adm1":"Laois","name_en":"Ballyadams"},"geometry":{"type":"Point","coordinates":[-7.08167,52.96417]}},{"type":"feature","properties":{"country_en":"Ireland","name":"Ballybrittas","name_adm0":"Ireland","name_adm1":"Laois","name_en":"Ballybrittas"},"geometry":{"type":"Point","coordinates":[-7.1375,53.10944]}},{"type":"feature","properties":{"country_en":"Ireland","name":"Ballybrophy","name_adm0":"Ireland","name_adm1":"Laois","name_en":"Ballybrophy"},"geometry":{"type":"Point","coordinates":[-7.602499999999999,52.89944]}},{"type":"feature","properties":{"country_en":"Ireland","name":"Bunlahy","name_adm0":"Ireland","name_adm1":"Longford","name_en":"Bunlahy"},"geometry":{"type":"Point","coordinates":[-7.58333,53.79999999999999]}},{"type":"feature","properties":{"country_en":"Ireland","name":"Pontoon","name_adm0":"Ireland","name_adm1":"Mayo","name_en":"Pontoon"},"geometry":{"type":"Point","coordinates":[-9.21167,53.97361]}},{"type":"feature","properties":{"country_en":"Ireland","name":"Rathoma","name_adm0":"Ireland","name_adm1":"Mayo","name_en":"Rathoma"},"geometry":{"type":"Point","coordinates":[-9.28389,54.18083]}},{"type":"feature","properties":{"country_en":"Ireland","name":"Sheskin","name_adm0":"Ireland","name_adm1":"Mayo","name_en":"Sheskin"},"geometry":{"type":"Point","coordinates":[-9.59306,54.185]}},{"type":"feature","properties":{"country_en":"Ireland","name":"Derrycooly","name_adm0":"Ireland","name_adm1":"Offaly","name_en":"Derrycooly"},"geometry":{"type":"Point","coordinates":[-7.673889999999999,53.26389]}},{"type":"feature","properties":{"country_en":"Ireland","name":"Killyon","name_adm0":"Ireland","name_adm1":"Offaly","name_en":"Killyon"},"geometry":{"type":"Point","coordinates":[-7.803609999999999,53.10056]}},{"type":"feature","properties":{"country_en":"Ireland","name":"Monasteroris","name_adm0":"Ireland","name_adm1":"Offaly","name_en":"Monasteroris"},"geometry":{"type":"Point","coordinates":[-7.08028,53.34944]}},{"type":"feature","properties":{"country_en":"Ireland","name":"Altagowlan","name_adm0":"Ireland","name_adm1":"Roscommon","name_en":"Altagowlan"},"geometry":{"type":"Point","coordinates":[-8.15278,54.108329999999995]}},{"type":"feature","properties":{"country_en":"Ireland","name":"Breedoge","name_adm0":"Ireland","name_adm1":"Roscommon","name_en":"Breedoge"},"geometry":{"type":"Point","coordinates":[-8.38333,53.9]}},{"type":"feature","properties":{"country_en":"Ireland","name":"Caltragh","name_adm0":"Ireland","name_adm1":"Roscommon","name_en":"Caltragh"},"geometry":{"type":"Point","coordinates":[-8.13333,53.48333]}},{"type":"feature","properties":{"country_en":"Ireland","name":"Carrowduff","name_adm0":"Ireland","name_adm1":"Roscommon","name_en":"Carrowduff"},"geometry":{"type":"Point","coordinates":[-8.10528,53.39528]}},{"type":"feature","properties":{"country_en":"Ireland","name":"Castlesampson","name_adm0":"Ireland","name_adm1":"Roscommon","name_en":"Castlesampson"},"geometry":{"type":"Point","coordinates":[-8.12111,53.41444]}},{"type":"feature","properties":{"country_en":"Ireland","name":"Branchfield","name_adm0":"Ireland","name_adm1":"Sligo","name_en":"Branchfield"},"geometry":{"type":"Point","coordinates":[-8.71639,54.133889999999994]}},{"type":"feature","properties":{"country_en":"Ireland","name":"Cloonacool","name_adm0":"Ireland","name_adm1":"Sligo","name_en":"Cloonacool"},"geometry":{"type":"Point","coordinates":[-8.777499999999998,54.10194]}},{"type":"feature","properties":{"country_en":"Ireland","name":"Kilmacowen","name_adm0":"Ireland","name_adm1":"Sligo","name_en":"Kilmacowen"},"geometry":{"type":"Point","coordinates":[-8.51611,54.22861]}},{"type":"feature","properties":{"country_en":"Ireland","name":"Kilmactranny","name_adm0":"Ireland","name_adm1":"Sligo","name_en":"Kilmactranny"},"geometry":{"type":"Point","coordinates":[-8.25583,54.06361]}},{"type":"feature","properties":{"country_en":"Ireland","name":"Dunhill","name_adm0":"Ireland","name_adm1":"Waterford","name_en":"Dunhill"},"geometry":{"type":"Point","coordinates":[-7.256939999999999,52.16972]}},{"type":"feature","properties":{"country_en":"Ireland","name":"Adamstown","name_adm0":"Ireland","name_adm1":"Wexford","name_en":"Adamstown"},"geometry":{"type":"Point","coordinates":[-6.71694,52.394169999999995]}},{"type":"feature","properties":{"country_en":"Ireland","name":"Ballycarney","name_adm0":"Ireland","name_adm1":"Wexford","name_en":"Ballycarney"},"geometry":{"type":"Point","coordinates":[-6.56806,52.58056]}},{"type":"feature","properties":{"country_en":"Ireland","name":"Barronstown","name_adm0":"Ireland","name_adm1":"Wexford","name_en":"Barronstown"},"geometry":{"type":"Point","coordinates":[-6.73333,52.4]}},{"type":"feature","properties":{"country_en":"Ireland","name":"Killenagh","name_adm0":"Ireland","name_adm1":"Wexford","name_en":"Killenagh"},"geometry":{"type":"Point","coordinates":[-6.27639,52.59]}},{"type":"feature","properties":{"country_en":"Ireland","name":"Ballinacor","name_adm0":"Ireland","name_adm1":"Wicklow","name_en":"Ballinacor"},"geometry":{"type":"Point","coordinates":[-6.14111,52.90833]}},{"type":"feature","properties":{"country_en":"Ireland","name":"Ballinderry","name_adm0":"Ireland","name_adm1":"Wicklow","name_en":"Ballinderry"},"geometry":{"type":"Point","coordinates":[-6.27722,52.94639]}},{"type":"feature","properties":{"country_en":"Ireland","name":"Ballycullen","name_adm0":"Ireland","name_adm1":"Wicklow","name_en":"Ballycullen"},"geometry":{"type":"Point","coordinates":[-6.200559999999999,53.00389]}},{"type":"feature","properties":{"country_en":"Ireland","name":"Coolboy","name_adm0":"Ireland","name_adm1":"Wicklow","name_en":"Coolboy"},"geometry":{"type":"Point","coordinates":[-6.46028,52.75943999999999]}},{"type":"feature","properties":{"country_en":"Ireland","name":"Donaghmore","name_adm0":"Ireland","name_adm1":"Wicklow","name_en":"Donaghmore"},"geometry":{"type":"Point","coordinates":[-6.639439999999999,52.99556]}},{"type":"feature","properties":{"country_en":"Ireland","name":"Rathsallagh","name_adm0":"Ireland","name_adm1":"Wicklow","name_en":"Rathsallagh"},"geometry":{"type":"Point","coordinates":[-6.72528,53.03833]}},{"type":"feature","properties":{"country_en":"Ireland","name":"Shillelagh","name_adm0":"Ireland","name_adm1":"Wicklow","name_en":"Shillelagh"},"geometry":{"type":"Point","coordinates":[-6.53722,52.75388999999999]}},{"type":"feature","properties":{"country_en":"Ireland","name":"Trooperstown","name_adm0":"Ireland","name_adm1":"Wicklow","name_en":"Trooperstown"},"geometry":{"type":"Point","coordinates":[-6.26583,52.996939999999995]}},{"type":"feature","properties":{"country_en":"Ireland","name":"Tuckmill","name_adm0":"Ireland","name_adm1":"Wicklow","name_en":"Tuckmill"},"geometry":{"type":"Point","coordinates":[-6.69722,52.96194]}},{"type":"feature","properties":{"country_en":"Ireland","name":"Carrickaslane","name_adm0":"Ireland","name_adm1":"Monaghan","name_en":"Carrickaslane"},"geometry":{"type":"Point","coordinates":[-6.75639,54.14944]}},{"type":"feature","properties":{"country_en":"Ireland","name":"Castleshane","name_adm0":"Ireland","name_adm1":"Monaghan","name_en":"Castleshane"},"geometry":{"type":"Point","coordinates":[-6.88389,54.23806]}},{"type":"feature","properties":{"country_en":"Ireland","name":"Derrygorry","name_adm0":"Ireland","name_adm1":"Monaghan","name_en":"Derrygorry"},"geometry":{"type":"Point","coordinates":[-7.05,54.40889]}},{"type":"feature","properties":{"country_en":"Ireland","name":"Bangor","name_adm0":"Ireland","name_adm1":"Mayo","name_en":"Bangor"},"geometry":{"type":"Point","coordinates":[-9.752596999999998,54.153714]}},{"type":"feature","properties":{"country_en":"Ireland","name":"Drumkeary","name_adm0":"Ireland","name_adm1":"Galway","name_en":"Drumkeary"},"geometry":{"type":"Point","coordinates":[-8.47639,53.10389]}},{"type":"feature","properties":{"country_en":"Ireland","name":"Kilglass","name_adm0":"Ireland","name_adm1":"Sligo","name_en":"Kilglass"},"geometry":{"type":"Point","coordinates":[-9.05611,54.239169999999994]}},{"type":"feature","properties":{"country_en":"Ireland","name":"Kilmore","name_adm0":"Ireland","name_adm1":"Dublin","name_en":"Kilmore"},"geometry":{"type":"Point","coordinates":[-6.228059999999999,53.39638999999999]}},{"type":"feature","properties":{"country_en":"Ireland","name":"Hollymount","name_adm0":"Ireland","name_adm1":"Mayo","name_en":"Hollymount"},"geometry":{"type":"Point","coordinates":[-9.11667,53.65]}},{"type":"feature","properties":{"country_en":"Ireland","name":"Ballinadee","name_adm0":"Ireland","name_adm1":"Cork","name_en":"Ballinadee"},"geometry":{"type":"Point","coordinates":[-8.63444,51.71278]}},{"type":"feature","properties":{"country_en":"Ireland","name":"Kernanstown","name_adm0":"Ireland","name_adm1":"Carlow","name_en":"Kernanstown"},"geometry":{"type":"Point","coordinates":[-6.52674,53.62754]}},{"type":"feature","properties":{"country_en":"Ireland","name":"Davidstown","name_adm0":"Ireland","name_adm1":"Wexford","name_en":"Davidstown"},"geometry":{"type":"Point","coordinates":[-6.556939999999999,52.33778]}},{"type":"feature","properties":{"country_en":"Ireland","name":"Neale","name_adm0":"Ireland","name_adm1":"Mayo","name_en":"Neale"},"geometry":{"type":"Point","coordinates":[-9.23333,53.56667]}},{"type":"feature","properties":{"country_en":"Ireland","name":"Kilnamanagh","name_adm0":"Ireland","name_adm1":"Cork","name_en":"Kilnamanagh"},"geometry":{"type":"Point","coordinates":[-10.1536605,51.609862]}},{"type":"feature","properties":{"country_en":"Ireland","name":"Kilmonoge","name_adm0":"Ireland","name_adm1":"Cork","name_en":"Kilmonoge"},"geometry":{"type":"Point","coordinates":[-8.48874,51.72511399999999]}},{"type":"feature","properties":{"country_en":"Ireland","name":"Kilworth","name_adm0":"Ireland","name_adm1":"Cork","name_en":"Kilworth"},"geometry":{"type":"Point","coordinates":[-8.250659,52.169212]}},{"type":"feature","properties":{"country_en":"Ireland","name":"Castleboy","name_adm0":"Ireland","name_adm1":"Galway","name_en":"Castleboy"},"geometry":{"type":"Point","coordinates":[-8.756275,53.105052]}},{"type":"feature","properties":{"country_en":"Ireland","name":"Kilcummin","name_adm0":"Ireland","name_adm1":"Galway","name_en":"Kilcummin"},"geometry":{"type":"Point","coordinates":[-9.5338685,53.244468]}},{"type":"feature","properties":{"country_en":"Ireland","name":"Tullamore Urban","name_adm0":"Ireland","name_adm1":"Offaly","name_en":"Tullamore Urban"},"geometry":{"type":"Point","coordinates":[-7.492202999999999,53.276608]}},{"type":"feature","properties":{"country_en":"Ireland","name":"Lea","name_adm0":"Ireland","name_adm1":"Offaly","name_en":"Lea"},"geometry":{"type":"Point","coordinates":[-7.72974,53.233167]}},{"type":"feature","properties":{"country_en":"Ireland","name":"Rathowen","name_adm0":"Ireland","name_adm1":"Westmeath","name_en":"Rathowen"},"geometry":{"type":"Point","coordinates":[-7.499999999999999,53.65]}},{"type":"feature","properties":{"country_en":"Ireland","name":"Jenkinstown","name_adm0":"Ireland","name_adm1":"Louth","name_en":"Jenkinstown"},"geometry":{"type":"Point","coordinates":[-6.293999999999999,54.00756599999999]}},{"type":"feature","properties":{"country_en":"Ireland","name":"Ballincurrig","name_adm0":"Ireland","name_adm1":"Cork","name_en":"Ballincurrig"},"geometry":{"type":"Point","coordinates":[-8.22778,51.98722]}},{"type":"feature","properties":{"country_en":"Ireland","name":"Lissarda","name_adm0":"Ireland","name_adm1":"Cork","name_en":"Lissarda"},"geometry":{"type":"Point","coordinates":[-8.88,51.86]}},{"type":"feature","properties":{"country_en":"Ireland","name":"Ballylaneen","name_adm0":"Ireland","name_adm1":"Waterford","name_en":"Ballylaneen"},"geometry":{"type":"Point","coordinates":[-7.403889999999999,52.17472]}},{"type":"feature","properties":{"country_en":"Ireland","name":"Newtown","name_adm0":"Ireland","name_adm1":"Tipperary","name_en":"Newtown"},"geometry":{"type":"Point","coordinates":[-7.78333,52.166669999999996]}},{"type":"feature","properties":{"country_en":"Ireland","name":"Barna","name_adm0":"Ireland","name_adm1":"Offaly","name_en":"Barna"},"geometry":{"type":"Point","coordinates":[-7.949439999999999,52.92778]}},{"type":"feature","properties":{"country_en":"Ireland","name":"Leap","name_adm0":"Ireland","name_adm1":"Cork","name_en":"Leap"},"geometry":{"type":"Point","coordinates":[-9.13,51.592499999999994]}},{"type":"feature","properties":{"country_en":"Ireland","name":"Furbogh","name_adm0":"Ireland","name_adm1":"Galway","name_en":"Furbogh"},"geometry":{"type":"Point","coordinates":[-9.21495,53.2494]}},{"type":"feature","properties":{"country_en":"Ireland","name":"Kinnitty","name_adm0":"Ireland","name_adm1":"Offaly","name_en":"Kinnitty"},"geometry":{"type":"Point","coordinates":[-7.7213899999999995,53.09556]}},{"type":"feature","properties":{"country_en":"Ireland","name":"Quigleys Point","name_adm0":"Ireland","name_adm1":"Donegal","name_en":"Quigleys Point"},"geometry":{"type":"Point","coordinates":[-7.127165,55.157738]}},{"type":"feature","properties":{"country_en":"Ireland","name":"Clareabbey","name_adm0":"Ireland","name_adm1":"Clare","name_en":"Clareabbey"},"geometry":{"type":"Point","coordinates":[-8.966367,52.814561]}},{"type":"feature","properties":{"country_en":"Ireland","name":"Dunlewy Near","name_adm0":"Ireland","name_adm1":"Donegal","name_en":"Dunlewy Near"},"geometry":{"type":"Point","coordinates":[-8.150482,55.032203]}},{"type":"feature","properties":{"country_en":"Ireland","name":"Baldoyle","name_adm0":"Ireland","name_adm1":"Dublin","name_en":"Baldoyle"},"geometry":{"type":"Point","coordinates":[-6.120328,53.397391]}},{"type":"feature","properties":{"country_en":"Ireland","name":"Churchtown-Woodlawn","name_adm0":"Ireland","name_adm1":"Dublin","name_en":"Churchtown-Woodlawn"},"geometry":{"type":"Point","coordinates":[-6.3045,53.354022]}},{"type":"feature","properties":{"country_en":"Ireland","name":"Stillorgan-Mount Merrion","name_adm0":"Ireland","name_adm1":"Dublin","name_en":"Stillorgan-Mount Merrion"},"geometry":{"type":"Point","coordinates":[-6.3045,53.354022]}},{"type":"feature","properties":{"country_en":"Ireland","name":"Swords-Lissenhall","name_adm0":"Ireland","name_adm1":"Dublin","name_en":"Swords-Lissenhall"},"geometry":{"type":"Point","coordinates":[-6.223088999999999,53.457508]}},{"type":"feature","properties":{"country_en":"Ireland","name":"Ballyhaunis","name_adm0":"Ireland","name_adm1":"Mayo","name_en":"Ballyhaunis"},"geometry":{"type":"Point","coordinates":[-8.7650625,53.763579]}},{"type":"feature","properties":{"country_en":"Ireland","name":"Ballyhowly","name_adm0":"Ireland","name_adm1":"Mayo","name_en":"Ballyhowly"},"geometry":{"type":"Point","coordinates":[-8.92004,53.792057]}},{"type":"feature","properties":{"country_en":"Ireland","name":"Kilgarvan","name_adm0":"Ireland","name_adm1":"Mayo","name_en":"Kilgarvan"},"geometry":{"type":"Point","coordinates":[-9.03861,54.09194]}},{"type":"feature","properties":{"country_en":"Ireland","name":"Lettermore","name_adm0":"Ireland","name_adm1":"Galway","name_en":"Lettermore"},"geometry":{"type":"Point","coordinates":[-9.618809,53.311339]}},{"type":"feature","properties":{"country_en":"Ireland","name":"Dunloe","name_adm0":"Ireland","name_adm1":"Kerry","name_en":"Dunloe"},"geometry":{"type":"Point","coordinates":[-9.631876,52.057768]}},{"type":"feature","properties":{"country_en":"Ireland","name":"Durrus","name_adm0":"Ireland","name_adm1":"Cork","name_en":"Durrus"},"geometry":{"type":"Point","coordinates":[-9.53333,51.61667]}},{"type":"feature","properties":{"country_en":"Ireland","name":"Bannow","name_adm0":"Ireland","name_adm1":"Wexford","name_en":"Bannow"},"geometry":{"type":"Point","coordinates":[-6.76611,52.21527999999999]}},{"type":"feature","properties":{"country_en":"Ireland","name":"The Downs","name_adm0":"Ireland","name_adm1":"Westmeath","name_en":"The Downs"},"geometry":{"type":"Point","coordinates":[-7.239719999999999,53.50472]}},{"type":"feature","properties":{"country_en":"Ireland","name":"Glenroe","name_adm0":"Ireland","name_adm1":"Clare","name_en":"Glenroe"},"geometry":{"type":"Point","coordinates":[-9.02806,53.00639]}},{"type":"feature","properties":{"country_en":"Ireland","name":"Rosbercon Rural","name_adm0":"Ireland","name_adm1":"Kilkenny","name_en":"Rosbercon Rural"},"geometry":{"type":"Point","coordinates":[-6.9901795,52.3855235]}},{"type":"feature","properties":{"country_en":"Ireland","name":"Dowra","name_adm0":"Ireland","name_adm1":"Cavan","name_en":"Dowra"},"geometry":{"type":"Point","coordinates":[-8.015,54.19111]}},{"type":"feature","properties":{"country_en":"Ireland","name":"Corkbeg","name_adm0":"Ireland","name_adm1":"Cork","name_en":"Corkbeg"},"geometry":{"type":"Point","coordinates":[-8.2500665,51.8157645]}},{"type":"feature","properties":{"country_en":"Ireland","name":"Mullanalaghta","name_adm0":"Ireland","name_adm1":"Longford","name_en":"Mullanalaghta"},"geometry":{"type":"Point","coordinates":[-7.51667,53.83333]}},{"type":"feature","properties":{"country_en":"Ireland","name":"Dromiskin","name_adm0":"Ireland","name_adm1":"Louth","name_en":"Dromiskin"},"geometry":{"type":"Point","coordinates":[-6.386661,53.92225899999999]}},{"type":"feature","properties":{"country_en":"Ireland","name":"Collon","name_adm0":"Ireland","name_adm1":"Louth","name_en":"Collon"},"geometry":{"type":"Point","coordinates":[-6.477062,53.799155]}},{"type":"feature","properties":{"country_en":"Ireland","name":"Newtown","name_adm0":"Ireland","name_adm1":"Westmeath","name_en":"Newtown"},"geometry":{"type":"Point","coordinates":[-7.381696,53.393681]}},{"type":"feature","properties":{"country_en":"Ireland","name":"Coolbaun","name_adm0":"Ireland","name_adm1":"Tipperary","name_en":"Coolbaun"},"geometry":{"type":"Point","coordinates":[-8.24917,52.98111]}},{"type":"feature","properties":{"country_en":"Ireland","name":"Kells","name_adm0":"Ireland","name_adm1":"Kilkenny","name_en":"Kells"},"geometry":{"type":"Point","coordinates":[-7.27306,52.54111]}},{"type":"feature","properties":{"country_en":"Ireland","name":"Murrisk","name_adm0":"Ireland","name_adm1":"Mayo","name_en":"Murrisk"},"geometry":{"type":"Point","coordinates":[-9.65,53.78333]}},{"type":"feature","properties":{"country_en":"Ireland","name":"Mullinavat","name_adm0":"Ireland","name_adm1":"Kilkenny","name_en":"Mullinavat"},"geometry":{"type":"Point","coordinates":[-7.164719999999999,52.367219999999996]}},{"type":"feature","properties":{"country_en":"Ireland","name":"Ardea","name_adm0":"Ireland","name_adm1":"Kerry","name_en":"Ardea"},"geometry":{"type":"Point","coordinates":[-9.75778,51.81444]}},{"type":"feature","properties":{"country_en":"Ireland","name":"Killashandra","name_adm0":"Ireland","name_adm1":"Cavan","name_en":"Killashandra"},"geometry":{"type":"Point","coordinates":[-7.528553,54.013657]}},{"type":"feature","properties":{"country_en":"Ireland","name":"Kilnaleck","name_adm0":"Ireland","name_adm1":"Cavan","name_en":"Kilnaleck"},"geometry":{"type":"Point","coordinates":[-7.31667,53.86666999999999]}},{"type":"feature","properties":{"country_en":"Ireland","name":"Carrigtohill","name_adm0":"Ireland","name_adm1":"Cork","name_en":"Carrigtohill"},"geometry":{"type":"Point","coordinates":[-8.284592,51.899521]}},{"type":"feature","properties":{"country_en":"Ireland","name":"Knockboy","name_adm0":"Ireland","name_adm1":"Galway","name_en":"Knockboy"},"geometry":{"type":"Point","coordinates":[-9.824523,53.340126]}},{"type":"feature","properties":{"country_en":"Ireland","name":"Manorhamilton","name_adm0":"Ireland","name_adm1":"Leitrim","name_en":"Manorhamilton"},"geometry":{"type":"Point","coordinates":[-8.179664,54.312017]}},{"type":"feature","properties":{"country_en":"Ireland","name":"Slievemahanagh","name_adm0":"Ireland","name_adm1":"Mayo","name_en":"Slievemahanagh"},"geometry":{"type":"Point","coordinates":[-9.592609,53.70364699999999]}},{"type":"feature","properties":{"country_en":"Ireland","name":"Sraheen","name_adm0":"Ireland","name_adm1":"Mayo","name_en":"Sraheen"},"geometry":{"type":"Point","coordinates":[-9.116592,53.981228]}},{"type":"feature","properties":{"country_en":"Ireland","name":"Templetown","name_adm0":"Ireland","name_adm1":"Wexford","name_en":"Templetown"},"geometry":{"type":"Point","coordinates":[-6.8960855,52.168351]}},{"type":"feature","properties":{"country_en":"Ireland","name":"Killydoon","name_adm0":"Ireland","name_adm1":"Cavan","name_en":"Killydoon"},"geometry":{"type":"Point","coordinates":[-6.835,53.3825]}},{"type":"feature","properties":{"country_en":"Ireland","name":"Canningstown","name_adm0":"Ireland","name_adm1":"Cavan","name_en":"Canningstown"},"geometry":{"type":"Point","coordinates":[-7.04611,53.97944]}},{"type":"feature","properties":{"country_en":"Ireland","name":"Banteer","name_adm0":"Ireland","name_adm1":"Cork","name_en":"Banteer"},"geometry":{"type":"Point","coordinates":[-8.9,52.11667]}},{"type":"feature","properties":{"country_en":"Ireland","name":"Kiltorcan","name_adm0":"Ireland","name_adm1":"Kilkenny","name_en":"Kiltorcan"},"geometry":{"type":"Point","coordinates":[-7.248229,52.628895]}},{"type":"feature","properties":{"country_en":"Ireland","name":"O'Callaghansmills","name_adm0":"Ireland","name_adm1":"Clare","name_en":"O'Callaghansmills"},"geometry":{"type":"Point","coordinates":[-8.686389999999998,52.84139]}},{"type":"feature","properties":{"country_en":"Ireland","name":"Summerhill","name_adm0":"Ireland","name_adm1":"Meath","name_en":"Summerhill"},"geometry":{"type":"Point","coordinates":[-6.73639,53.47694]}},{"type":"feature","properties":{"country_en":"Ireland","name":"Swanlinbar","name_adm0":"Ireland","name_adm1":"Cavan","name_en":"Swanlinbar"},"geometry":{"type":"Point","coordinates":[-7.70444,54.19471999999999]}},{"type":"feature","properties":{"country_en":"Ireland","name":"Muckross","name_adm0":"Ireland","name_adm1":"Kerry","name_en":"Muckross"},"geometry":{"type":"Point","coordinates":[-9.493796,52.028338999999995]}},{"type":"feature","properties":{"country_en":"Ireland","name":"Brittas","name_adm0":"Ireland","name_adm1":"Dublin","name_en":"Brittas"},"geometry":{"type":"Point","coordinates":[-6.452219999999999,53.23694]}},{"type":"feature","properties":{"country_en":"Ireland","name":"Dunmore","name_adm0":"Ireland","name_adm1":"Galway","name_en":"Dunmore"},"geometry":{"type":"Point","coordinates":[-8.73333,53.61667]}},{"type":"feature","properties":{"country_en":"Ireland","name":"Moylagh","name_adm0":"Ireland","name_adm1":"Meath","name_en":"Moylagh"},"geometry":{"type":"Point","coordinates":[-7.119419,53.726144]}},{"type":"feature","properties":{"country_en":"Ireland","name":"Stradbally","name_adm0":"Ireland","name_adm1":"Waterford","name_en":"Stradbally"},"geometry":{"type":"Point","coordinates":[-7.46,52.13]}},{"type":"feature","properties":{"country_en":"Ireland","name":"Nohaval","name_adm0":"Ireland","name_adm1":"Cork","name_en":"Nohaval"},"geometry":{"type":"Point","coordinates":[-8.40694,51.72472]}},{"type":"feature","properties":{"country_en":"Ireland","name":"Knockmahon","name_adm0":"Ireland","name_adm1":"Waterford","name_en":"Knockmahon"},"geometry":{"type":"Point","coordinates":[-7.367534,52.138795]}},{"type":"feature","properties":{"country_en":"Ireland","name":"Kilfinnane","name_adm0":"Ireland","name_adm1":"Limerick","name_en":"Kilfinnane"},"geometry":{"type":"Point","coordinates":[-8.471167,52.358833]}},{"type":"feature","properties":{"country_en":"Ireland","name":"Ballyfoyle","name_adm0":"Ireland","name_adm1":"Cork","name_en":"Ballyfoyle"},"geometry":{"type":"Point","coordinates":[-8.36444,51.74167]}},{"type":"feature","properties":{"country_en":"Ireland","name":"Killinkere","name_adm0":"Ireland","name_adm1":"Cavan","name_en":"Killinkere"},"geometry":{"type":"Point","coordinates":[-7.05,53.88333]}},{"type":"feature","properties":{"country_en":"Ireland","name":"Abbeymahon","name_adm0":"Ireland","name_adm1":"Cork","name_en":"Abbeymahon"},"geometry":{"type":"Point","coordinates":[-8.775279999999999,51.63306]}},{"type":"feature","properties":{"country_en":"Ireland","name":"Kinard","name_adm0":"Ireland","name_adm1":"Kerry","name_en":"Kinard"},"geometry":{"type":"Point","coordinates":[-10.2,52.13333]}},{"type":"feature","properties":{"country_en":"Ireland","name":"Donadea","name_adm0":"Ireland","name_adm1":"Kildare","name_en":"Donadea"},"geometry":{"type":"Point","coordinates":[-6.74583,53.35028]}},{"type":"feature","properties":{"country_en":"Ireland","name":"Kilmaganny","name_adm0":"Ireland","name_adm1":"Kilkenny","name_en":"Kilmaganny"},"geometry":{"type":"Point","coordinates":[-7.32861,52.46305999999999]}},{"type":"feature","properties":{"country_en":"Ireland","name":"Knappagh","name_adm0":"Ireland","name_adm1":"Mayo","name_en":"Knappagh"},"geometry":{"type":"Point","coordinates":[-9.55,53.74999999999999]}},{"type":"feature","properties":{"country_en":"Ireland","name":"Bracknagh","name_adm0":"Ireland","name_adm1":"Offaly","name_en":"Bracknagh"},"geometry":{"type":"Point","coordinates":[-7.100559999999999,53.21056]}},{"type":"feature","properties":{"country_en":"Ireland","name":"Crannagh","name_adm0":"Ireland","name_adm1":"Roscommon","name_en":"Crannagh"},"geometry":{"type":"Point","coordinates":[-7.983329999999999,53.4]}},{"type":"feature","properties":{"country_en":"Ireland","name":"Elphin","name_adm0":"Ireland","name_adm1":"Roscommon","name_en":"Elphin"},"geometry":{"type":"Point","coordinates":[-8.199999999999998,53.85]}},{"type":"feature","properties":{"country_en":"Ireland","name":"Killavackan","name_adm0":"Ireland","name_adm1":"Roscommon","name_en":"Killavackan"},"geometry":{"type":"Point","coordinates":[-8.049999999999999,53.71667]}},{"type":"feature","properties":{"country_en":"Ireland","name":"Screggan","name_adm0":"Ireland","name_adm1":"Offaly","name_en":"Screggan"},"geometry":{"type":"Point","coordinates":[-7.57944,53.2475]}},{"type":"feature","properties":{"country_en":"Ireland","name":"Crossna","name_adm0":"Ireland","name_adm1":"Roscommon","name_en":"Crossna"},"geometry":{"type":"Point","coordinates":[-8.18333,54.01667]}},{"type":"feature","properties":{"country_en":"Ireland","name":"Ringville","name_adm0":"Ireland","name_adm1":"Waterford","name_en":"Ringville"},"geometry":{"type":"Point","coordinates":[-7.585280000000001,52.04833]}},{"type":"feature","properties":{"country_en":"Ireland","name":"Whitechurch","name_adm0":"Ireland","name_adm1":"Waterford","name_en":"Whitechurch"},"geometry":{"type":"Point","coordinates":[-7.749439999999999,52.10943999999999]}},{"type":"feature","properties":{"country_en":"Ireland","name":"Coole","name_adm0":"Ireland","name_adm1":"Westmeath","name_en":"Coole"},"geometry":{"type":"Point","coordinates":[-7.38333,53.699999999999996]}},{"type":"feature","properties":{"country_en":"Ireland","name":"St Helen's","name_adm0":"Ireland","name_adm1":"Wexford","name_en":"St Helen's"},"geometry":{"type":"Point","coordinates":[-6.33556,52.22556]}},{"type":"feature","properties":{"country_en":"Ireland","name":"Glaslough","name_adm0":"Ireland","name_adm1":"Monaghan","name_en":"Glaslough"},"geometry":{"type":"Point","coordinates":[-6.895,54.31861]}},{"type":"feature","properties":{"country_en":"Ireland","name":"Killea","name_adm0":"Ireland","name_adm1":"Donegal","name_en":"Killea"},"geometry":{"type":"Point","coordinates":[-7.4125,54.97944]}},{"type":"feature","properties":{"country_en":"Ireland","name":"Aghamore","name_adm0":"Ireland","name_adm1":"Mayo","name_en":"Aghamore"},"geometry":{"type":"Point","coordinates":[-8.81667,53.816669999999995]}},{"type":"feature","properties":{"country_en":"Ireland","name":"Drummullagh","name_adm0":"Ireland","name_adm1":"Louth","name_en":"Drummullagh"},"geometry":{"type":"Point","coordinates":[-6.253848999999999,54.0983175]}},{"type":"feature","properties":{"country_en":"Ireland","name":"Killybegs","name_adm0":"Ireland","name_adm1":"Donegal","name_en":"Killybegs"},"geometry":{"type":"Point","coordinates":[-8.45,54.633329999999994]}},{"type":"feature","properties":{"country_en":"Ireland","name":"Doneraile","name_adm0":"Ireland","name_adm1":"Cork","name_en":"Doneraile"},"geometry":{"type":"Point","coordinates":[-8.5829395,52.217349]}},{"type":"feature","properties":{"country_en":"Ireland","name":"Castletaylor","name_adm0":"Ireland","name_adm1":"Galway","name_en":"Castletaylor"},"geometry":{"type":"Point","coordinates":[-8.8064,53.157733]}},{"type":"feature","properties":{"country_en":"Ireland","name":"Castleventry","name_adm0":"Ireland","name_adm1":"Cork","name_en":"Castleventry"},"geometry":{"type":"Point","coordinates":[-9.012392999999998,51.635759]}},{"type":"feature","properties":{"country_en":"Ireland","name":"Aghalateeve","name_adm0":"Ireland","name_adm1":"Leitrim","name_en":"Aghalateeve"},"geometry":{"type":"Point","coordinates":[-8.369264,54.3406455]}},{"type":"feature","properties":{"country_en":"Ireland","name":"Killeigh","name_adm0":"Ireland","name_adm1":"Offaly","name_en":"Killeigh"},"geometry":{"type":"Point","coordinates":[-7.44944,53.21333]}},{"type":"feature","properties":{"country_en":"Ireland","name":"Butlers Bridge","name_adm0":"Ireland","name_adm1":"Cavan","name_en":"Butlers Bridge"},"geometry":{"type":"Point","coordinates":[-7.376389999999999,54.04277999999999]}},{"type":"feature","properties":{"country_en":"Ireland","name":"Ballsbridge","name_adm0":"Ireland","name_adm1":"Dublin","name_en":"Ballsbridge"},"geometry":{"type":"Point","coordinates":[-6.23056,53.33028]}},{"type":"feature","properties":{"country_en":"Ireland","name":"Blackpool","name_adm0":"Ireland","name_adm1":"Cork","name_en":"Blackpool"},"geometry":{"type":"Point","coordinates":[-8.47139,51.91027999999999]}},{"type":"feature","properties":{"country_en":"Ireland","name":"Dalkey","name_adm0":"Ireland","name_adm1":"Dublin","name_en":"Dalkey"},"geometry":{"type":"Point","coordinates":[-6.10028,53.27832999999999]}},{"type":"feature","properties":{"country_en":"Ireland","name":"Deans Grange","name_adm0":"Ireland","name_adm1":"Dublin","name_en":"Deans Grange"},"geometry":{"type":"Point","coordinates":[-6.163669999999999,53.27838]}},{"type":"feature","properties":{"country_en":"Ireland","name":"Enfield","name_adm0":"Ireland","name_adm1":"Meath","name_en":"Enfield"},"geometry":{"type":"Point","coordinates":[-6.83229,53.41419]}},{"type":"feature","properties":{"country_en":"Ireland","name":"Finglas","name_adm0":"Ireland","name_adm1":"Dublin","name_en":"Finglas"},"geometry":{"type":"Point","coordinates":[-6.296939999999999,53.38917]}},{"type":"feature","properties":{"country_en":"Ireland","name":"Mountcharles","name_adm0":"Ireland","name_adm1":"Donegal","name_en":"Mountcharles"},"geometry":{"type":"Point","coordinates":[-8.19556,54.64639]}},{"type":"feature","properties":{"country_en":"Ireland","name":"Rathmines","name_adm0":"Ireland","name_adm1":"Dublin","name_en":"Rathmines"},"geometry":{"type":"Point","coordinates":[-6.26333,53.32028]}},{"type":"feature","properties":{"country_en":"Ireland","name":"Tallaght","name_adm0":"Ireland","name_adm1":"Dublin","name_en":"Tallaght"},"geometry":{"type":"Point","coordinates":[-6.3734399999999996,53.2859]}},{"type":"feature","properties":{"country_en":"Ireland","name":"Abbeyleix","name_adm0":"Ireland","name_adm1":"Laois","name_en":"Abbeyleix"},"geometry":{"type":"Point","coordinates":[-7.3575,52.89917]}},{"type":"feature","properties":{"country_en":"Ireland","name":"Swinford","name_adm0":"Ireland","name_adm1":"Mayo","name_en":"Swinford"},"geometry":{"type":"Point","coordinates":[-8.95,53.95]}},{"type":"feature","properties":{"country_en":"Ireland","name":"Claremorris","name_adm0":"Ireland","name_adm1":"Mayo","name_en":"Claremorris"},"geometry":{"type":"Point","coordinates":[-9,53.71667]}},{"type":"feature","properties":{"country_en":"Ireland","name":"Clonmany","name_adm0":"Ireland","name_adm1":"Donegal","name_en":"Clonmany"},"geometry":{"type":"Point","coordinates":[-7.41667,55.26667]}},{"type":"feature","properties":{"country_en":"Ireland","name":"Collooney","name_adm0":"Ireland","name_adm1":"Sligo","name_en":"Collooney"},"geometry":{"type":"Point","coordinates":[-8.5,54.18332999999999]}},{"type":"feature","properties":{"country_en":"Ireland","name":"Cratloe","name_adm0":"Ireland","name_adm1":"Clare","name_en":"Cratloe"},"geometry":{"type":"Point","coordinates":[-8.75972,52.695]}},{"type":"feature","properties":{"country_en":"Ireland","name":"Slane","name_adm0":"Ireland","name_adm1":"Meath","name_en":"Slane"},"geometry":{"type":"Point","coordinates":[-6.543329999999999,53.71]}},{"type":"feature","properties":{"country_en":"Ireland","name":"Newtownbarry","name_adm0":"Ireland","name_adm1":"Wexford","name_en":"Newtownbarry"},"geometry":{"type":"Point","coordinates":[-6.65611,52.65528]}},{"type":"feature","properties":{"country_en":"Ireland","name":"Castlegregory","name_adm0":"Ireland","name_adm1":"Kerry","name_en":"Castlegregory"},"geometry":{"type":"Point","coordinates":[-10.0225,52.25806]}},{"type":"feature","properties":{"country_en":"Ireland","name":"Tinahely","name_adm0":"Ireland","name_adm1":"Wicklow","name_en":"Tinahely"},"geometry":{"type":"Point","coordinates":[-6.46333,52.79667]}},{"type":"feature","properties":{"country_en":"Ireland","name":"Clifden","name_adm0":"Ireland","name_adm1":"Galway","name_en":"Clifden"},"geometry":{"type":"Point","coordinates":[-10.01667,53.48333]}},{"type":"feature","properties":{"country_en":"Ireland","name":"Clogherhead","name_adm0":"Ireland","name_adm1":"Louth","name_en":"Clogherhead"},"geometry":{"type":"Point","coordinates":[-6.237499999999999,53.79361]}},{"type":"feature","properties":{"country_en":"Ireland","name":"Rathcormack","name_adm0":"Ireland","name_adm1":"Cork","name_en":"Rathcormack"},"geometry":{"type":"Point","coordinates":[-8.28194,52.07694]}},{"type":"feature","properties":{"country_en":"Ireland","name":"Riverstown","name_adm0":"Ireland","name_adm1":"Cork","name_en":"Riverstown"},"geometry":{"type":"Point","coordinates":[-8.38917,51.92639]}},{"type":"feature","properties":{"country_en":"Ireland","name":"Headford","name_adm0":"Ireland","name_adm1":"Galway","name_en":"Headford"},"geometry":{"type":"Point","coordinates":[-9.1,53.46667]}},{"type":"feature","properties":{"country_en":"Ireland","name":"Castlefore","name_adm0":"Ireland","name_adm1":"Leitrim","name_en":"Castlefore"},"geometry":{"type":"Point","coordinates":[-7.907006,54.03088]}},{"type":"feature","properties":{"country_en":"Ireland","name":"Drumahaire","name_adm0":"Ireland","name_adm1":"Leitrim","name_en":"Drumahaire"},"geometry":{"type":"Point","coordinates":[-8.3,54.23333]}},{"type":"feature","properties":{"country_en":"Ireland","name":"Robertstown","name_adm0":"Ireland","name_adm1":"Kildare","name_en":"Robertstown"},"geometry":{"type":"Point","coordinates":[-6.817016,53.292335]}},{"type":"feature","properties":{"country_en":"Ireland","name":"Rutland","name_adm0":"Ireland","name_adm1":"Donegal","name_en":"Rutland"},"geometry":{"type":"Point","coordinates":[-8.449323,54.99201899999999]}},{"type":"feature","properties":{"country_en":"Ireland","name":"Shankhill-Rathmichael","name_adm0":"Ireland","name_adm1":"Dublin","name_en":"Shankhill-Rathmichael"},"geometry":{"type":"Point","coordinates":[-6.139233,53.22634299999999]}},{"type":"feature","properties":{"country_en":"Ireland","name":"Aghadoe","name_adm0":"Ireland","name_adm1":"Kerry","name_en":"Aghadoe"},"geometry":{"type":"Point","coordinates":[-9.562568,52.068941]}},{"type":"feature","properties":{"country_en":"Ireland","name":"Tuam Urban","name_adm0":"Ireland","name_adm1":"Galway","name_en":"Tuam Urban"},"geometry":{"type":"Point","coordinates":[-8.856697,53.513958]}},{"type":"feature","properties":{"country_en":"Ireland","name":"Grantstown","name_adm0":"Ireland","name_adm1":"Laois","name_en":"Grantstown"},"geometry":{"type":"Point","coordinates":[-7.513296,52.921569]}},{"type":"feature","properties":{"country_en":"Ireland","name":"Aughris","name_adm0":"Ireland","name_adm1":"Sligo","name_en":"Aughris"},"geometry":{"type":"Point","coordinates":[-8.755416,54.268657]}},{"type":"feature","properties":{"country_en":"Ireland","name":"Callow","name_adm0":"Ireland","name_adm1":"Mayo","name_en":"Callow"},"geometry":{"type":"Point","coordinates":[-9.04119,53.976338]}},{"type":"feature","properties":{"country_en":"Ireland","name":"Skibbereen Urban","name_adm0":"Ireland","name_adm1":"Cork","name_en":"Skibbereen Urban"},"geometry":{"type":"Point","coordinates":[-9.269242,51.549598]}},{"type":"feature","properties":{"country_en":"Ireland","name":"Rathmullan","name_adm0":"Ireland","name_adm1":"Donegal","name_en":"Rathmullan"},"geometry":{"type":"Point","coordinates":[-7.5311485,55.095167]}},{"type":"feature","properties":{"country_en":"Ireland","name":"Bohernabreena","name_adm0":"Ireland","name_adm1":"Dublin","name_en":"Bohernabreena"},"geometry":{"type":"Point","coordinates":[-6.320204,53.244724]}},{"type":"feature","properties":{"country_en":"Ireland","name":"Clondalkin-Village","name_adm0":"Ireland","name_adm1":"Dublin","name_en":"Clondalkin-Village"},"geometry":{"type":"Point","coordinates":[-6.412925,53.31264699999999]}},{"type":"feature","properties":{"country_en":"Ireland","name":"Ballyshannon Urban","name_adm0":"Ireland","name_adm1":"Donegal","name_en":"Ballyshannon Urban"},"geometry":{"type":"Point","coordinates":[-8.192024,54.503859]}},{"type":"feature","properties":{"country_en":"Ireland","name":"Creeslough","name_adm0":"Ireland","name_adm1":"Donegal","name_en":"Creeslough"},"geometry":{"type":"Point","coordinates":[-7.8999999999999995,55.11667]}},{"type":"feature","properties":{"country_en":"Ireland","name":"Douglas","name_adm0":"Ireland","name_adm1":"Cork","name_en":"Douglas"},"geometry":{"type":"Point","coordinates":[-8.435,51.87444]}},{"type":"feature","properties":{"country_en":"Ireland","name":"Bandon","name_adm0":"Ireland","name_adm1":"Cork","name_en":"Bandon"},"geometry":{"type":"Point","coordinates":[-8.7425,51.74694]}},{"type":"feature","properties":{"country_en":"Ireland","name":"Cloyne","name_adm0":"Ireland","name_adm1":"Cork","name_en":"Cloyne"},"geometry":{"type":"Point","coordinates":[-8.12444,51.86278]}},