{"type":"FeatureCollection","features":[{"type":"feature","properties":{"country_en":"Israel","name":"Ginnosar","name_adm0":"Israel","name_adm1":"Northern","name_en":"Ginnosar"},"geometry":{"type":"Point","coordinates":[35.52335,32.84713]}},{"type":"feature","properties":{"country_en":"Israel","name":"Ed Dahi","name_adm0":"Israel","name_adm1":"Northern","name_en":"Ed Dahi"},"geometry":{"type":"Point","coordinates":[35.34454,32.62094]}},{"type":"feature","properties":{"country_en":"Israel","name":"Nir Ezyon","name_adm0":"Israel","name_adm1":"Haifa","name_en":"Nir Ezyon"},"geometry":{"type":"Point","coordinates":[34.99448,32.69861]}},{"type":"feature","properties":{"country_en":"Israel","name":"Olesh","name_adm0":"Israel","name_adm1":"Central","name_en":"Olesh"},"geometry":{"type":"Point","coordinates":[34.98558,32.33199]}},{"type":"feature","properties":{"country_en":"Israel","name":"Paame Tashaz","name_adm0":"Israel","name_adm1":"Southern","name_en":"Paame Tashaz"},"geometry":{"type":"Point","coordinates":[34.694779999999994,31.43928]}},{"type":"feature","properties":{"country_en":"Israel","name":"Qiryat Binyamin","name_adm0":"Israel","name_adm1":"Haifa","name_en":"Qiryat Binyamin"},"geometry":{"type":"Point","coordinates":[35.09375,32.79933]}},{"type":"feature","properties":{"country_en":"Israel","name":"Sede Zevi","name_adm0":"Israel","name_adm1":"Southern","name_en":"Sede Zevi"},"geometry":{"type":"Point","coordinates":[34.7,31.449999999999996]}},{"type":"feature","properties":{"country_en":"Israel","name":"Baqa El Gharbiya","name_adm0":"Israel","name_adm1":"Haifa","name_en":"Baqa El Gharbiya"},"geometry":{"type":"Point","coordinates":[35.04312,32.41806]}},{"type":"feature","properties":{"country_en":"Israel","name":"Nordiyya","name_adm0":"Israel","name_adm1":"Central","name_en":"Nordiyya"},"geometry":{"type":"Point","coordinates":[34.89617,32.3147]}},{"type":"feature","properties":{"country_en":"Israel","name":"Migdal HaEmeq","name_adm0":"Israel","name_adm1":"Northern","name_en":"Migdal HaEmeq"},"geometry":{"type":"Point","coordinates":[35.23986,32.67597]}},{"type":"feature","properties":{"country_en":"Israel","name":"Abū Kabīr","name_adm0":"Israel","name_adm1":"Tel Aviv","name_en":"Abū Kabīr"},"geometry":{"type":"Point","coordinates":[34.76667,32.05]}},{"type":"feature","properties":{"country_en":"Israel","name":"Amir","name_adm0":"Israel","name_adm1":"Northern","name_en":"Amir"},"geometry":{"type":"Point","coordinates":[35.62083,33.17867]}},{"type":"feature","properties":{"country_en":"Israel","name":"Ammiad","name_adm0":"Israel","name_adm1":"Northern","name_en":"Ammiad"},"geometry":{"type":"Point","coordinates":[35.54154,32.92824]}},{"type":"feature","properties":{"country_en":"Israel","name":"Arara","name_adm0":"Israel","name_adm1":"Haifa","name_en":"Arara"},"geometry":{"type":"Point","coordinates":[35.09411,32.49554]}},{"type":"feature","properties":{"country_en":"Israel","name":"Aseret","name_adm0":"Israel","name_adm1":"Central","name_en":"Aseret"},"geometry":{"type":"Point","coordinates":[34.74738,31.825080000000003]}},{"type":"feature","properties":{"country_en":"Israel","name":"En HaMifraz","name_adm0":"Israel","name_adm1":"Northern","name_en":"En HaMifraz"},"geometry":{"type":"Point","coordinates":[35.09611,32.90361]}},{"type":"feature","properties":{"country_en":"Israel","name":"Esh Sheikh Dannun","name_adm0":"Israel","name_adm1":"Northern","name_en":"Esh Sheikh Dannun"},"geometry":{"type":"Point","coordinates":[35.1479,32.99231]}},{"type":"feature","properties":{"country_en":"Israel","name":"Kisra","name_adm0":"Israel","name_adm1":"Northern","name_en":"Kisra"},"geometry":{"type":"Point","coordinates":[35.302789999999995,32.96178]}},{"type":"feature","properties":{"country_en":"Israel","name":"Lahavot HaBashan","name_adm0":"Israel","name_adm1":"Northern","name_en":"Lahavot HaBashan"},"geometry":{"type":"Point","coordinates":[35.64678,33.14166]}},{"type":"feature","properties":{"country_en":"Israel","name":"Lappidot","name_adm0":"Israel","name_adm1":"Northern","name_en":"Lappidot"},"geometry":{"type":"Point","coordinates":[35.2616,32.95872]}},{"type":"feature","properties":{"country_en":"Israel","name":"Moran","name_adm0":"Israel","name_adm1":"Northern","name_en":"Moran"},"geometry":{"type":"Point","coordinates":[35.396629999999995,32.91934]}},{"type":"feature","properties":{"country_en":"Israel","name":"Moza Illit","name_adm0":"Israel","name_adm1":"Jerusalem","name_en":"Moza Illit"},"geometry":{"type":"Point","coordinates":[35.15776,31.79357]}},{"type":"feature","properties":{"country_en":"Israel","name":"Musmus","name_adm0":"Israel","name_adm1":"Haifa","name_en":"Musmus"},"geometry":{"type":"Point","coordinates":[35.15619,32.54358]}},{"type":"feature","properties":{"country_en":"Israel","name":"Nahala","name_adm0":"Israel","name_adm1":"Southern","name_en":"Nahala"},"geometry":{"type":"Point","coordinates":[34.7947,31.65823]}},{"type":"feature","properties":{"country_en":"Israel","name":"Yemin Orde","name_adm0":"Israel","name_adm1":"Haifa","name_en":"Yemin Orde"},"geometry":{"type":"Point","coordinates":[34.98573,32.70232]}},{"type":"feature","properties":{"country_en":"Israel","name":"Sede Eliyyahu","name_adm0":"Israel","name_adm1":"Northern","name_en":"Sede Eliyyahu"},"geometry":{"type":"Point","coordinates":[35.51667,32.43333]}},{"type":"feature","properties":{"country_en":"Israel","name":"Zofar","name_adm0":"Israel","name_adm1":"Southern","name_en":"Zofar"},"geometry":{"type":"Point","coordinates":[35.18112,30.559690000000003]}},{"type":"feature","properties":{"country_en":"Israel","name":"Yashresh","name_adm0":"Israel","name_adm1":"Central","name_en":"Yashresh"},"geometry":{"type":"Point","coordinates":[34.84911,31.914809999999996]}},{"type":"feature","properties":{"country_en":"Israel","name":"Yavor","name_adm0":"Israel","name_adm1":"Northern","name_en":"Yavor"},"geometry":{"type":"Point","coordinates":[35.17565,32.89736]}},{"type":"feature","properties":{"country_en":"Israel","name":"Yaziz","name_adm0":"Israel","name_adm1":"Central","name_en":"Yaziz"},"geometry":{"type":"Point","coordinates":[34.8614,31.86396]}},{"type":"feature","properties":{"country_en":"Israel","name":"Yoshivya","name_adm0":"Israel","name_adm1":"Southern","name_en":"Yoshivya"},"geometry":{"type":"Point","coordinates":[34.60949,31.44397]}},{"type":"feature","properties":{"country_en":"Israel","name":"Zelafon","name_adm0":"Israel","name_adm1":"Jerusalem","name_en":"Zelafon"},"geometry":{"type":"Point","coordinates":[34.9321,31.804619999999996]}},{"type":"feature","properties":{"country_en":"Israel","name":"Zerahya","name_adm0":"Israel","name_adm1":"Southern","name_en":"Zerahya"},"geometry":{"type":"Point","coordinates":[34.74524,31.682240000000004]}},{"type":"feature","properties":{"country_en":"Israel","name":"Negba","name_adm0":"Israel","name_adm1":"Southern","name_en":"Negba"},"geometry":{"type":"Point","coordinates":[34.68324,31.662369999999996]}},{"type":"feature","properties":{"country_en":"Israel","name":"Yodefat","name_adm0":"Israel","name_adm1":"Northern","name_en":"Yodefat"},"geometry":{"type":"Point","coordinates":[35.27157,32.83808]}},{"type":"feature","properties":{"country_en":"Israel","name":"Or Akiva","name_adm0":"Israel","name_adm1":"Haifa","name_en":"Or Akiva"},"geometry":{"type":"Point","coordinates":[34.92087,32.5064]}},{"type":"feature","properties":{"country_en":"Israel","name":"Kefar Netter","name_adm0":"Israel","name_adm1":"Central","name_en":"Kefar Netter"},"geometry":{"type":"Point","coordinates":[34.87349,32.273]}},{"type":"feature","properties":{"country_en":"Israel","name":"Bat Yam","name_adm0":"Israel","name_adm1":"Tel Aviv","name_en":"Bat Yam"},"geometry":{"type":"Point","coordinates":[34.75199,32.02362]}},{"type":"feature","properties":{"country_en":"Israel","name":"Kafr Kama","name_adm0":"Israel","name_adm1":"Northern","name_en":"Kafr Kama"},"geometry":{"type":"Point","coordinates":[35.44122,32.72129]}},{"type":"feature","properties":{"country_en":"Israel","name":"Meshar","name_adm0":"Israel","name_adm1":"Central","name_en":"Meshar"},"geometry":{"type":"Point","coordinates":[34.75293,31.81614]}},{"type":"feature","properties":{"country_en":"Israel","name":"Mishmar HaSharon","name_adm0":"Israel","name_adm1":"Central","name_en":"Mishmar HaSharon"},"geometry":{"type":"Point","coordinates":[34.90359,32.35689]}},{"type":"feature","properties":{"country_en":"Israel","name":"Qiryat Mal'akhi","name_adm0":"Israel","name_adm1":"Southern","name_en":"Qiryat Mal'akhi"},"geometry":{"type":"Point","coordinates":[34.74653,31.729949999999995]}},{"type":"feature","properties":{"country_en":"Israel","name":"Regba","name_adm0":"Israel","name_adm1":"Northern","name_en":"Regba"},"geometry":{"type":"Point","coordinates":[35.09864,32.97721]}},{"type":"feature","properties":{"country_en":"Israel","name":"Yanuv","name_adm0":"Israel","name_adm1":"Central","name_en":"Yanuv"},"geometry":{"type":"Point","coordinates":[34.9503,32.30627]}},{"type":"feature","properties":{"country_en":"Israel","name":"Sharona","name_adm0":"Israel","name_adm1":"Northern","name_en":"Sharona"},"geometry":{"type":"Point","coordinates":[35.46692,32.72533]}},{"type":"feature","properties":{"country_en":"Israel","name":"Yad Natan","name_adm0":"Israel","name_adm1":"Southern","name_en":"Yad Natan"},"geometry":{"type":"Point","coordinates":[34.70452,31.65397]}},{"type":"feature","properties":{"country_en":"Israel","name":"Zanoah","name_adm0":"Israel","name_adm1":"Jerusalem","name_en":"Zanoah"},"geometry":{"type":"Point","coordinates":[34.9965,31.73014]}},{"type":"feature","properties":{"country_en":"Israel","name":"Yehud","name_adm0":"Israel","name_adm1":"Central","name_en":"Yehud"},"geometry":{"type":"Point","coordinates":[34.89090999999999,32.03317]}},{"type":"feature","properties":{"country_en":"Israel","name":"Ashdot Yaaqov Me'uhad","name_adm0":"Israel","name_adm1":"Northern","name_en":"Ashdot Yaaqov Me'uhad"},"geometry":{"type":"Point","coordinates":[35.56667,32.65]}},{"type":"feature","properties":{"country_en":"Israel","name":"Kadarim","name_adm0":"Israel","name_adm1":"Northern","name_en":"Kadarim"},"geometry":{"type":"Point","coordinates":[35.47576,32.89783]}},{"type":"feature","properties":{"country_en":"Israel","name":"Amnon","name_adm0":"Israel","name_adm1":"Northern","name_en":"Amnon"},"geometry":{"type":"Point","coordinates":[35.57151,32.90459]}},{"type":"feature","properties":{"country_en":"Israel","name":"Peleh","name_adm0":"Israel","name_adm1":"Northern","name_en":"Peleh"},"geometry":{"type":"Point","coordinates":[35.23334,32.93343]}},{"type":"feature","properties":{"country_en":"Israel","name":"Tamra","name_adm0":"Israel","name_adm1":"Northern","name_en":"Tamra"},"geometry":{"type":"Point","coordinates":[35.1987,32.85301]}},{"type":"feature","properties":{"country_en":"Israel","name":"Yafo","name_adm0":"Israel","name_adm1":"Tel Aviv","name_en":"Yafo"},"geometry":{"type":"Point","coordinates":[34.75224,32.05043]}},{"type":"feature","properties":{"country_en":"Israel","name":"Eilat","name_adm0":"Israel","name_adm1":"Southern","name_en":"Eilat"},"geometry":{"type":"Point","coordinates":[34.94821,29.558049999999998]}},{"type":"feature","properties":{"country_en":"Israel","name":"Adamit","name_adm0":"Israel","name_adm1":"Northern","name_en":"Adamit"},"geometry":{"type":"Point","coordinates":[35.211029999999994,33.07971]}},{"type":"feature","properties":{"country_en":"Israel","name":"Ahiezer","name_adm0":"Israel","name_adm1":"Central","name_en":"Ahiezer"},"geometry":{"type":"Point","coordinates":[34.87213,31.98133]}},{"type":"feature","properties":{"country_en":"Israel","name":"Ginnaton","name_adm0":"Israel","name_adm1":"Central","name_en":"Ginnaton"},"geometry":{"type":"Point","coordinates":[34.91434,31.96309]}},{"type":"feature","properties":{"country_en":"Israel","name":"Givat Hayyim","name_adm0":"Israel","name_adm1":"Central","name_en":"Givat Hayyim"},"geometry":{"type":"Point","coordinates":[34.93187,32.39531]}},{"type":"feature","properties":{"country_en":"Israel","name":"Julis","name_adm0":"Israel","name_adm1":"Northern","name_en":"Julis"},"geometry":{"type":"Point","coordinates":[35.18278,32.94267]}},{"type":"feature","properties":{"country_en":"Israel","name":"Naura","name_adm0":"Israel","name_adm1":"Northern","name_en":"Naura"},"geometry":{"type":"Point","coordinates":[35.39168,32.61403]}},{"type":"feature","properties":{"country_en":"Israel","name":"Timmorim","name_adm0":"Israel","name_adm1":"Southern","name_en":"Timmorim"},"geometry":{"type":"Point","coordinates":[34.76126,31.71534]}},{"type":"feature","properties":{"country_en":"Israel","name":"Yuvallim","name_adm0":"Israel","name_adm1":"Northern","name_en":"Yuvallim"},"geometry":{"type":"Point","coordinates":[35.27031,32.87756]}},{"type":"feature","properties":{"country_en":"Israel","name":"Abu Ghaush","name_adm0":"Israel","name_adm1":"Jerusalem","name_en":"Abu Ghaush"},"geometry":{"type":"Point","coordinates":[35.1093,31.805919999999997]}},{"type":"feature","properties":{"country_en":"Israel","name":"Bir el Maksur","name_adm0":"Israel","name_adm1":"Northern","name_en":"Bir el Maksur"},"geometry":{"type":"Point","coordinates":[35.22069,32.77732]}},{"type":"feature","properties":{"country_en":"Israel","name":"El Fureidis","name_adm0":"Israel","name_adm1":"Haifa","name_en":"El Fureidis"},"geometry":{"type":"Point","coordinates":[34.95153,32.59812]}},{"type":"feature","properties":{"country_en":"Israel","name":"Judeida","name_adm0":"Israel","name_adm1":"Northern","name_en":"Judeida"},"geometry":{"type":"Point","coordinates":[35.15704999999999,32.92819999999999]}},{"type":"feature","properties":{"country_en":"Israel","name":"Kafr Yasif","name_adm0":"Israel","name_adm1":"Northern","name_en":"Kafr Yasif"},"geometry":{"type":"Point","coordinates":[35.1623,32.95451]}},{"type":"feature","properties":{"country_en":"Israel","name":"Mevo Betar","name_adm0":"Israel","name_adm1":"Jerusalem","name_en":"Mevo Betar"},"geometry":{"type":"Point","coordinates":[35.10669,31.72177]}},{"type":"feature","properties":{"country_en":"Israel","name":"Nahf","name_adm0":"Israel","name_adm1":"Northern","name_en":"Nahf"},"geometry":{"type":"Point","coordinates":[35.31678999999999,32.93444]}},{"type":"feature","properties":{"country_en":"Israel","name":"Qalansuwa","name_adm0":"Israel","name_adm1":"Central","name_en":"Qalansuwa"},"geometry":{"type":"Point","coordinates":[34.98106,32.28493]}},{"type":"feature","properties":{"country_en":"Israel","name":"Uzeir","name_adm0":"Israel","name_adm1":"Northern","name_en":"Uzeir"},"geometry":{"type":"Point","coordinates":[35.32984,32.79212]}},{"type":"feature","properties":{"country_en":"Israel","name":"Tira","name_adm0":"Israel","name_adm1":"Central","name_en":"Tira"},"geometry":{"type":"Point","coordinates":[34.95023,32.23409999999999]}},{"type":"feature","properties":{"country_en":"Israel","name":"Gannot","name_adm0":"Israel","name_adm1":"Tel Aviv","name_en":"Gannot"},"geometry":{"type":"Point","coordinates":[34.82658,32.01872]}},{"type":"feature","properties":{"country_en":"Israel","name":"Bahan","name_adm0":"Israel","name_adm1":"Central","name_en":"Bahan"},"geometry":{"type":"Point","coordinates":[35.01862,32.35082]}},{"type":"feature","properties":{"country_en":"Israel","name":"Balfouriyya","name_adm0":"Israel","name_adm1":"Northern","name_en":"Balfouriyya"},"geometry":{"type":"Point","coordinates":[35.29650999999999,32.63035]}},{"type":"feature","properties":{"country_en":"Israel","name":"Zikhron Yosef","name_adm0":"Israel","name_adm1":"Jerusalem","name_en":"Zikhron Yosef"},"geometry":{"type":"Point","coordinates":[35.208263,31.784799999999997]}},{"type":"feature","properties":{"country_en":"Israel","name":"Yemin Moshe","name_adm0":"Israel","name_adm1":"Jerusalem","name_en":"Yemin Moshe"},"geometry":{"type":"Point","coordinates":[35.224227,31.774932]}},{"type":"feature","properties":{"country_en":"Israel","name":"Kiryat Shmu'el","name_adm0":"Israel","name_adm1":"Jerusalem","name_en":"Kiryat Shmu'el"},"geometry":{"type":"Point","coordinates":[35.212211,31.771697]}},{"type":"feature","properties":{"country_en":"Israel","name":"Oron","name_adm0":"Israel","name_adm1":"Southern","name_en":"Oron"},"geometry":{"type":"Point","coordinates":[35.0158,30.91495]}},{"type":"feature","properties":{"country_en":"Israel","name":"Pardes Kaẕ","name_adm0":"Israel","name_adm1":"Tel Aviv","name_en":"Pardes Kaẕ"},"geometry":{"type":"Point","coordinates":[34.83837,32.09735]}},{"type":"feature","properties":{"country_en":"Israel","name":"Qiryat Yearim","name_adm0":"Israel","name_adm1":"Jerusalem","name_en":"Qiryat Yearim"},"geometry":{"type":"Point","coordinates":[35.10055,31.80362]}},{"type":"feature","properties":{"country_en":"Israel","name":"Ramat Dawid","name_adm0":"Israel","name_adm1":"Northern","name_en":"Ramat Dawid"},"geometry":{"type":"Point","coordinates":[35.20324,32.67845]}},{"type":"feature","properties":{"country_en":"Israel","name":"Yishi","name_adm0":"Israel","name_adm1":"Jerusalem","name_en":"Yishi"},"geometry":{"type":"Point","coordinates":[34.96667,31.733329999999995]}},{"type":"feature","properties":{"country_en":"Israel","name":"Zerufa","name_adm0":"Israel","name_adm1":"Haifa","name_en":"Zerufa"},"geometry":{"type":"Point","coordinates":[34.9499,32.64824]}},{"type":"feature","properties":{"country_en":"Israel","name":"Kesalon","name_adm0":"Israel","name_adm1":"Jerusalem","name_en":"Kesalon"},"geometry":{"type":"Point","coordinates":[35.04838,31.77498]}},{"type":"feature","properties":{"country_en":"Israel","name":"Ofer","name_adm0":"Israel","name_adm1":"Haifa","name_en":"Ofer"},"geometry":{"type":"Point","coordinates":[34.98302,32.62257]}},{"type":"feature","properties":{"country_en":"Israel","name":"Kefar Naẖaman","name_adm0":"Israel","name_adm1":"Central","name_en":"Kefar Naẖaman"},"geometry":{"type":"Point","coordinates":[34.85,32.199999999999996]}},{"type":"feature","properties":{"country_en":"Israel","name":"Oranim","name_adm0":"Israel","name_adm1":"Haifa","name_en":"Oranim"},"geometry":{"type":"Point","coordinates":[35.11658,32.71258]}},{"type":"feature","properties":{"country_en":"Israel","name":"Binyamina","name_adm0":"Israel","name_adm1":"Haifa","name_en":"Binyamina"},"geometry":{"type":"Point","coordinates":[34.94499,32.523199999999996]}},{"type":"feature","properties":{"country_en":"Israel","name":"Bet Lehem HaGelilit","name_adm0":"Israel","name_adm1":"Northern","name_en":"Bet Lehem HaGelilit"},"geometry":{"type":"Point","coordinates":[35.19146,32.73568]}},{"type":"feature","properties":{"country_en":"Israel","name":"Be'eri","name_adm0":"Israel","name_adm1":"Southern","name_en":"Be'eri"},"geometry":{"type":"Point","coordinates":[34.49163,31.424259999999997]}},{"type":"feature","properties":{"country_en":"Israel","name":"Avigedor","name_adm0":"Israel","name_adm1":"Southern","name_en":"Avigedor"},"geometry":{"type":"Point","coordinates":[34.7444,31.710829999999998]}},{"type":"feature","properties":{"country_en":"Israel","name":"Kefar Yehoshua","name_adm0":"Israel","name_adm1":"Northern","name_en":"Kefar Yehoshua"},"geometry":{"type":"Point","coordinates":[35.15264,32.68063]}},{"type":"feature","properties":{"country_en":"Israel","name":"Kefar Zetim","name_adm0":"Israel","name_adm1":"Northern","name_en":"Kefar Zetim"},"geometry":{"type":"Point","coordinates":[35.46359,32.81137]}},{"type":"feature","properties":{"country_en":"Israel","name":"Beit Ya'akov","name_adm0":"Israel","name_adm1":"Tel Aviv","name_en":"Beit Ya'akov"},"geometry":{"type":"Point","coordinates":[34.80503,32.059009]}},{"type":"feature","properties":{"country_en":"Israel","name":"Buqeia","name_adm0":"Israel","name_adm1":"Northern","name_en":"Buqeia"},"geometry":{"type":"Point","coordinates":[35.33345,32.97746]}},{"type":"feature","properties":{"country_en":"Israel","name":"Dafna","name_adm0":"Israel","name_adm1":"Northern","name_en":"Dafna"},"geometry":{"type":"Point","coordinates":[35.63867,33.23013]}},{"type":"feature","properties":{"country_en":"Israel","name":"Rosh HaAyin","name_adm0":"Israel","name_adm1":"Central","name_en":"Rosh HaAyin"},"geometry":{"type":"Point","coordinates":[34.95664,32.09556]}},{"type":"feature","properties":{"country_en":"Israel","name":"Pardesiyya","name_adm0":"Israel","name_adm1":"Central","name_en":"Pardesiyya"},"geometry":{"type":"Point","coordinates":[34.90911,32.30577]}},{"type":"feature","properties":{"country_en":"Israel","name":"Gonen","name_adm0":"Israel","name_adm1":"Jerusalem","name_en":"Gonen"},"geometry":{"type":"Point","coordinates":[35.20684,31.76023]}},{"type":"feature","properties":{"country_en":"Israel","name":"Even Sappir","name_adm0":"Israel","name_adm1":"Jerusalem","name_en":"Even Sappir"},"geometry":{"type":"Point","coordinates":[35.13421999999999,31.76319]}},{"type":"feature","properties":{"country_en":"Israel","name":"Tsahalon","name_adm0":"Israel","name_adm1":"Tel Aviv","name_en":"Tsahalon"},"geometry":{"type":"Point","coordinates":[34.756579,32.047733]}},{"type":"feature","properties":{"country_en":"Israel","name":"Tel Giborim","name_adm0":"Israel","name_adm1":"Tel Aviv","name_en":"Tel Giborim"},"geometry":{"type":"Point","coordinates":[34.771471,32.023431]}},{"type":"feature","properties":{"country_en":"Israel","name":"Petah Tikva","name_adm0":"Israel","name_adm1":"Central","name_en":"Petah Tikva"},"geometry":{"type":"Point","coordinates":[34.88503,32.09174]}},{"type":"feature","properties":{"country_en":"Israel","name":"Beersheba","name_adm0":"Israel","name_adm1":"Southern","name_en":"Beersheba"},"geometry":{"type":"Point","coordinates":[34.7913,31.251809999999995]}},{"type":"feature","properties":{"country_en":"Israel","name":"Bet Shemesh","name_adm0":"Israel","name_adm1":"Jerusalem","name_en":"Bet Shemesh"},"geometry":{"type":"Point","coordinates":[34.98877,31.74959]}},{"type":"feature","properties":{"country_en":"Israel","name":"Kefar Yona","name_adm0":"Israel","name_adm1":"Central","name_en":"Kefar Yona"},"geometry":{"type":"Point","coordinates":[34.93507,32.31669]}},{"type":"feature","properties":{"country_en":"Israel","name":"Netaim","name_adm0":"Israel","name_adm1":"Central","name_en":"Netaim"},"geometry":{"type":"Point","coordinates":[34.77542,31.945039999999995]}},{"type":"feature","properties":{"country_en":"Israel","name":"Shelomi","name_adm0":"Israel","name_adm1":"Northern","name_en":"Shelomi"},"geometry":{"type":"Point","coordinates":[35.14608,33.07471999999999]}},{"type":"feature","properties":{"country_en":"Israel","name":"Talme Elazar","name_adm0":"Israel","name_adm1":"Haifa","name_en":"Talme Elazar"},"geometry":{"type":"Point","coordinates":[34.977169999999994,32.44566]}},{"type":"feature","properties":{"country_en":"Israel","name":"Shefaram","name_adm0":"Israel","name_adm1":"Northern","name_en":"Shefaram"},"geometry":{"type":"Point","coordinates":[35.16895,32.80583]}},{"type":"feature","properties":{"country_en":"Israel","name":"Yoqneam Illit","name_adm0":"Israel","name_adm1":"Northern","name_en":"Yoqneam Illit"},"geometry":{"type":"Point","coordinates":[35.10567,32.6574]}},{"type":"feature","properties":{"country_en":"Israel","name":"Shkhunat Sheinkin","name_adm0":"Israel","name_adm1":"Tel Aviv","name_en":"Shkhunat Sheinkin"},"geometry":{"type":"Point","coordinates":[34.816302,32.078511]}},{"type":"feature","properties":{"country_en":"Israel","name":"Aẖuzzat Shemu’el","name_adm0":"Israel","name_adm1":"Haifa","name_en":"Aẖuzzat Shemu’el"},"geometry":{"type":"Point","coordinates":[34.97858,32.781429]}},{"type":"feature","properties":{"country_en":"Israel","name":"Hod HaSharon","name_adm0":"Israel","name_adm1":"Central","name_en":"Hod HaSharon"},"geometry":{"type":"Point","coordinates":[34.8932,32.15934]}},{"type":"feature","properties":{"country_en":"Israel","name":"Hadera","name_adm0":"Israel","name_adm1":"Haifa","name_en":"Hadera"},"geometry":{"type":"Point","coordinates":[34.91956,32.43645]}},{"type":"feature","properties":{"country_en":"Israel","name":"Isfiya","name_adm0":"Israel","name_adm1":"Haifa","name_en":"Isfiya"},"geometry":{"type":"Point","coordinates":[35.06509,32.71836]}},{"type":"feature","properties":{"country_en":"Israel","name":"Bat Gallim","name_adm0":"Israel","name_adm1":"Haifa","name_en":"Bat Gallim"},"geometry":{"type":"Point","coordinates":[34.98193,32.83270999999999]}},{"type":"feature","properties":{"country_en":"Israel","name":"Goren","name_adm0":"Israel","name_adm1":"Northern","name_en":"Goren"},"geometry":{"type":"Point","coordinates":[35.237719999999996,33.0566]}},{"type":"feature","properties":{"country_en":"Israel","name":"Hadar HaKarmel","name_adm0":"Israel","name_adm1":"Haifa","name_en":"Hadar HaKarmel"},"geometry":{"type":"Point","coordinates":[34.99525,32.80947]}},{"type":"feature","properties":{"country_en":"Israel","name":"Hamadya","name_adm0":"Israel","name_adm1":"Northern","name_en":"Hamadya"},"geometry":{"type":"Point","coordinates":[35.5191,32.51971]}},{"type":"feature","properties":{"country_en":"Israel","name":"Acre","name_adm0":"Israel","name_adm1":"Northern","name_en":"Acre"},"geometry":{"type":"Point","coordinates":[35.07647,32.92814]}},{"type":"feature","properties":{"country_en":"Israel","name":"Ramat Pinkas","name_adm0":"Israel","name_adm1":"Central","name_en":"Ramat Pinkas"},"geometry":{"type":"Point","coordinates":[34.84603,32.03352]}},{"type":"feature","properties":{"country_en":"Israel","name":"Sede Eliezer","name_adm0":"Israel","name_adm1":"Northern","name_en":"Sede Eliezer"},"geometry":{"type":"Point","coordinates":[35.56389,33.04528]}},{"type":"feature","properties":{"country_en":"Israel","name":"Ibtin","name_adm0":"Israel","name_adm1":"Haifa","name_en":"Ibtin"},"geometry":{"type":"Point","coordinates":[35.11402,32.7615]}},{"type":"feature","properties":{"country_en":"Israel","name":"Shekhanya","name_adm0":"Israel","name_adm1":"Northern","name_en":"Shekhanya"},"geometry":{"type":"Point","coordinates":[35.24681999999999,32.84851]}},{"type":"feature","properties":{"country_en":"Israel","name":"Afiqim","name_adm0":"Israel","name_adm1":"Northern","name_en":"Afiqim"},"geometry":{"type":"Point","coordinates":[35.57776,32.68046]}},{"type":"feature","properties":{"country_en":"Israel","name":"Yated","name_adm0":"Israel","name_adm1":"Southern","name_en":"Yated"},"geometry":{"type":"Point","coordinates":[34.32757,31.20648]}},{"type":"feature","properties":{"country_en":"Israel","name":"Yevul","name_adm0":"Israel","name_adm1":"Southern","name_en":"Yevul"},"geometry":{"type":"Point","coordinates":[34.31706,31.18893]}},{"type":"feature","properties":{"country_en":"Israel","name":"Matat","name_adm0":"Israel","name_adm1":"Northern","name_en":"Matat"},"geometry":{"type":"Point","coordinates":[35.35858,33.04134]}},{"type":"feature","properties":{"country_en":"Israel","name":"Giv'at Aliya","name_adm0":"Israel","name_adm1":"Tel Aviv","name_en":"Giv'at Aliya"},"geometry":{"type":"Point","coordinates":[34.74812,32.03966]}},{"type":"feature","properties":{"country_en":"Israel","name":"En Tamar","name_adm0":"Israel","name_adm1":"Southern","name_en":"En Tamar"},"geometry":{"type":"Point","coordinates":[35.36683,30.94308]}},{"type":"feature","properties":{"country_en":"Israel","name":"Maale Edomim","name_adm0":"Israel","name_adm1":"Jerusalem","name_en":"Maale Edomim"},"geometry":{"type":"Point","coordinates":[35.30748,31.782320000000002]}},{"type":"feature","properties":{"country_en":"Israel","name":"Yad Hashemona","name_adm0":"Israel","name_adm1":"Jerusalem","name_en":"Yad Hashemona"},"geometry":{"type":"Point","coordinates":[35.08959,31.80993]}},{"type":"feature","properties":{"country_en":"Israel","name":"Kiryat Atidim","name_adm0":"Israel","name_adm1":"Tel Aviv","name_en":"Kiryat Atidim"},"geometry":{"type":"Point","coordinates":[34.879531,32.105552]}},{"type":"feature","properties":{"country_en":"Israel","name":"Shkhunat Gefen","name_adm0":"Israel","name_adm1":"Tel Aviv","name_en":"Shkhunat Gefen"},"geometry":{"type":"Point","coordinates":[34.814987,32.0906]}},{"type":"feature","properties":{"country_en":"Israel","name":"Qiryat Moshe","name_adm0":"Israel","name_adm1":"Jerusalem","name_en":"Qiryat Moshe"},"geometry":{"type":"Point","coordinates":[35.19283999999999,31.783999999999995]}},{"type":"feature","properties":{"country_en":"Israel","name":"Zalafa el Gharbīya","name_adm0":"Israel","name_adm1":"Haifa","name_en":"Zalafa el Gharbīya"},"geometry":{"type":"Point","coordinates":[35.18333,32.55]}},{"type":"feature","properties":{"country_en":"Israel","name":"Zur Moshe","name_adm0":"Israel","name_adm1":"Central","name_en":"Zur Moshe"},"geometry":{"type":"Point","coordinates":[34.91313,32.29819]}},{"type":"feature","properties":{"country_en":"Israel","name":"Newe Hadassa","name_adm0":"Israel","name_adm1":"Central","name_en":"Newe Hadassa"},"geometry":{"type":"Point","coordinates":[34.898757,32.262603999999996]}},{"type":"feature","properties":{"country_en":"Israel","name":"Kefar Truman","name_adm0":"Israel","name_adm1":"Central","name_en":"Kefar Truman"},"geometry":{"type":"Point","coordinates":[34.92402,31.98014]}},{"type":"feature","properties":{"country_en":"Israel","name":"Neve Sharet","name_adm0":"Israel","name_adm1":"Tel Aviv","name_en":"Neve Sharet"},"geometry":{"type":"Point","coordinates":[34.84125999999999,32.11763]}},{"type":"feature","properties":{"country_en":"Israel","name":"Newe Ẕedeq","name_adm0":"Israel","name_adm1":"Tel Aviv","name_en":"Newe Ẕedeq"},"geometry":{"type":"Point","coordinates":[34.76667,32.06667]}},{"type":"feature","properties":{"country_en":"Israel","name":"Qiryat HaTekhniyyon","name_adm0":"Israel","name_adm1":"Haifa","name_en":"Qiryat HaTekhniyyon"},"geometry":{"type":"Point","coordinates":[35.033139999999996,32.77677]}},{"type":"feature","properties":{"country_en":"Israel","name":"Afeq","name_adm0":"Israel","name_adm1":"Northern","name_en":"Afeq"},"geometry":{"type":"Point","coordinates":[35.12782,32.83889]}},{"type":"feature","properties":{"country_en":"Israel","name":"Avi'el","name_adm0":"Israel","name_adm1":"Haifa","name_en":"Avi'el"},"geometry":{"type":"Point","coordinates":[34.9936,32.531949999999995]}},{"type":"feature","properties":{"country_en":"Israel","name":"Bayit Wegan","name_adm0":"Israel","name_adm1":"Jerusalem","name_en":"Bayit Wegan"},"geometry":{"type":"Point","coordinates":[35.18454,31.769820000000003]}},{"type":"feature","properties":{"country_en":"Israel","name":"Ayyelet HaShahar","name_adm0":"Israel","name_adm1":"Northern","name_en":"Ayyelet HaShahar"},"geometry":{"type":"Point","coordinates":[35.57716,33.02224]}},{"type":"feature","properties":{"country_en":"Israel","name":"Adderet","name_adm0":"Israel","name_adm1":"Jerusalem","name_en":"Adderet"},"geometry":{"type":"Point","coordinates":[34.99564,31.66071]}},{"type":"feature","properties":{"country_en":"Israel","name":"Ein Mahil","name_adm0":"Israel","name_adm1":"Northern","name_en":"Ein Mahil"},"geometry":{"type":"Point","coordinates":[35.35303,32.72304]}},{"type":"feature","properties":{"country_en":"Israel","name":"Metulla","name_adm0":"Israel","name_adm1":"Northern","name_en":"Metulla"},"geometry":{"type":"Point","coordinates":[35.579499999999996,33.27918]}},{"type":"feature","properties":{"country_en":"Israel","name":"Gonen Dalet","name_adm0":"Israel","name_adm1":"Jerusalem","name_en":"Gonen Dalet"},"geometry":{"type":"Point","coordinates":[35.212554,31.756196]}},{"type":"feature","properties":{"country_en":"Israel","name":"Addirim","name_adm0":"Israel","name_adm1":"Northern","name_en":"Addirim"},"geometry":{"type":"Point","coordinates":[35.271899999999995,32.5491]}},{"type":"feature","properties":{"country_en":"Israel","name":"Ammioz","name_adm0":"Israel","name_adm1":"Southern","name_en":"Ammioz"},"geometry":{"type":"Point","coordinates":[34.41329,31.24833]}},{"type":"feature","properties":{"country_en":"Israel","name":"Bene Darom","name_adm0":"Israel","name_adm1":"Central","name_en":"Bene Darom"},"geometry":{"type":"Point","coordinates":[34.69235,31.820339999999998]}},{"type":"feature","properties":{"country_en":"Israel","name":"Devora","name_adm0":"Israel","name_adm1":"Northern","name_en":"Devora"},"geometry":{"type":"Point","coordinates":[35.26418,32.55309]}},{"type":"feature","properties":{"country_en":"Israel","name":"Bueina","name_adm0":"Israel","name_adm1":"Northern","name_en":"Bueina"},"geometry":{"type":"Point","coordinates":[35.36486,32.80636]}},{"type":"feature","properties":{"country_en":"Israel","name":"En Sarid","name_adm0":"Israel","name_adm1":"Central","name_en":"En Sarid"},"geometry":{"type":"Point","coordinates":[34.93333,32.26667]}},{"type":"feature","properties":{"country_en":"Israel","name":"Esh Sheikh Jarrāḥ","name_adm0":"Israel","name_adm1":"Jerusalem","name_en":"Esh Sheikh Jarrāḥ"},"geometry":{"type":"Point","coordinates":[35.23333,31.799999999999997]}},{"type":"feature","properties":{"country_en":"Israel","name":"Eshbol","name_adm0":"Israel","name_adm1":"Southern","name_en":"Eshbol"},"geometry":{"type":"Point","coordinates":[34.6672,31.446769999999997]}},{"type":"feature","properties":{"country_en":"Israel","name":"Etan","name_adm0":"Israel","name_adm1":"Southern","name_en":"Etan"},"geometry":{"type":"Point","coordinates":[34.74809,31.57276]}},{"type":"feature","properties":{"country_en":"Israel","name":"Eyal","name_adm0":"Israel","name_adm1":"Central","name_en":"Eyal"},"geometry":{"type":"Point","coordinates":[34.979459999999996,32.21156]}},{"type":"feature","properties":{"country_en":"Israel","name":"Gadish","name_adm0":"Israel","name_adm1":"Northern","name_en":"Gadish"},"geometry":{"type":"Point","coordinates":[35.24471,32.55874]}},{"type":"feature","properties":{"country_en":"Israel","name":"Gan HaDarom","name_adm0":"Israel","name_adm1":"Central","name_en":"Gan HaDarom"},"geometry":{"type":"Point","coordinates":[34.69993999999999,31.80413]}},{"type":"feature","properties":{"country_en":"Israel","name":"Gan Shelomo","name_adm0":"Israel","name_adm1":"Central","name_en":"Gan Shelomo"},"geometry":{"type":"Point","coordinates":[34.79961,31.878639999999997]}},{"type":"feature","properties":{"country_en":"Israel","name":"En Gev","name_adm0":"Israel","name_adm1":"Northern","name_en":"En Gev"},"geometry":{"type":"Point","coordinates":[35.63833,32.78341]}},{"type":"feature","properties":{"country_en":"Israel","name":"Kefar Haroeh","name_adm0":"Israel","name_adm1":"Central","name_en":"Kefar Haroeh"},"geometry":{"type":"Point","coordinates":[34.91163,32.39244]}},{"type":"feature","properties":{"country_en":"Israel","name":"Nirit","name_adm0":"Israel","name_adm1":"Central","name_en":"Nirit"},"geometry":{"type":"Point","coordinates":[34.986219999999996,32.14677]}},{"type":"feature","properties":{"country_en":"Israel","name":"Mahane Yafa","name_adm0":"Israel","name_adm1":"Southern","name_en":"Mahane Yafa"},"geometry":{"type":"Point","coordinates":[34.672551,31.239664]}},{"type":"feature","properties":{"country_en":"Israel","name":"Orim","name_adm0":"Israel","name_adm1":"Southern","name_en":"Orim"},"geometry":{"type":"Point","coordinates":[34.532194,31.159705]}},{"type":"feature","properties":{"country_en":"Israel","name":"Sha'arei Khesed","name_adm0":"Israel","name_adm1":"Jerusalem","name_en":"Sha'arei Khesed"},"geometry":{"type":"Point","coordinates":[35.208156,31.780568]}},{"type":"feature","properties":{"country_en":"Israel","name":"Zekharya","name_adm0":"Israel","name_adm1":"Jerusalem","name_en":"Zekharya"},"geometry":{"type":"Point","coordinates":[34.94488,31.70927]}},{"type":"feature","properties":{"country_en":"Israel","name":"Zova","name_adm0":"Israel","name_adm1":"Jerusalem","name_en":"Zova"},"geometry":{"type":"Point","coordinates":[35.11926,31.783779999999997]}},{"type":"feature","properties":{"country_en":"Israel","name":"Tel Aviv","name_adm0":"Israel","name_adm1":"Tel Aviv","name_en":"Tel Aviv"},"geometry":{"type":"Point","coordinates":[34.8,32.08333]}},{"type":"feature","properties":{"country_en":"Israel","name":"Arnona","name_adm0":"Israel","name_adm1":"Jerusalem","name_en":"Arnona"},"geometry":{"type":"Point","coordinates":[35.22294,31.753202999999996]}},{"type":"feature","properties":{"country_en":"Israel","name":"Beit Jann","name_adm0":"Israel","name_adm1":"Northern","name_en":"Beit Jann"},"geometry":{"type":"Point","coordinates":[35.38152,32.96464]}},{"type":"feature","properties":{"country_en":"Israel","name":"Bet HaLewi","name_adm0":"Israel","name_adm1":"Central","name_en":"Bet HaLewi"},"geometry":{"type":"Point","coordinates":[34.93012,32.35285]}},{"type":"feature","properties":{"country_en":"Israel","name":"Hazeva","name_adm0":"Israel","name_adm1":"Southern","name_en":"Hazeva"},"geometry":{"type":"Point","coordinates":[35.27932,30.76895]}},{"type":"feature","properties":{"country_en":"Israel","name":"Nazerat Illit","name_adm0":"Israel","name_adm1":"Northern","name_en":"Nazerat Illit"},"geometry":{"type":"Point","coordinates":[35.32468,32.70816]}},{"type":"feature","properties":{"country_en":"Israel","name":"Rosh Pinna","name_adm0":"Israel","name_adm1":"Northern","name_en":"Rosh Pinna"},"geometry":{"type":"Point","coordinates":[35.54258,32.96894]}},{"type":"feature","properties":{"country_en":"Israel","name":"Gan Yavne","name_adm0":"Israel","name_adm1":"Central","name_en":"Gan Yavne"},"geometry":{"type":"Point","coordinates":[34.70659,31.78737]}},{"type":"feature","properties":{"country_en":"Israel","name":"Givat Hen","name_adm0":"Israel","name_adm1":"Central","name_en":"Givat Hen"},"geometry":{"type":"Point","coordinates":[34.87537,32.16831]}},{"type":"feature","properties":{"country_en":"Israel","name":"Zefat","name_adm0":"Israel","name_adm1":"Northern","name_en":"Zefat"},"geometry":{"type":"Point","coordinates":[35.50049,32.96564]}},{"type":"feature","properties":{"country_en":"Israel","name":"Bene Ziyyon","name_adm0":"Israel","name_adm1":"Central","name_en":"Bene Ziyyon"},"geometry":{"type":"Point","coordinates":[34.86965,32.22121]}},{"type":"feature","properties":{"country_en":"Israel","name":"Tel Mond","name_adm0":"Israel","name_adm1":"Central","name_en":"Tel Mond"},"geometry":{"type":"Point","coordinates":[34.91737,32.24995]}},{"type":"feature","properties":{"country_en":"Israel","name":"Elifelet","name_adm0":"Israel","name_adm1":"Northern","name_en":"Elifelet"},"geometry":{"type":"Point","coordinates":[35.54791,32.94722]}},{"type":"feature","properties":{"country_en":"Israel","name":"Romema Illit","name_adm0":"Israel","name_adm1":"Jerusalem","name_en":"Romema Illit"},"geometry":{"type":"Point","coordinates":[35.196731,31.797663]}},{"type":"feature","properties":{"country_en":"Israel","name":"Shapira","name_adm0":"Israel","name_adm1":"Tel Aviv","name_en":"Shapira"},"geometry":{"type":"Point","coordinates":[34.780311,32.054671]}},{"type":"feature","properties":{"country_en":"Israel","name":"Arraba","name_adm0":"Israel","name_adm1":"Northern","name_en":"Arraba"},"geometry":{"type":"Point","coordinates":[35.33707,32.85094]}},{"type":"feature","properties":{"country_en":"Israel","name":"Kefar Yehezqel","name_adm0":"Israel","name_adm1":"Northern","name_en":"Kefar Yehezqel"},"geometry":{"type":"Point","coordinates":[35.36184,32.56833]}},{"type":"feature","properties":{"country_en":"Israel","name":"Yad Eliyahu","name_adm0":"Israel","name_adm1":"Tel Aviv","name_en":"Yad Eliyahu"},"geometry":{"type":"Point","coordinates":[34.79371,32.05922]}},{"type":"feature","properties":{"country_en":"Israel","name":"Yavne","name_adm0":"Israel","name_adm1":"Central","name_en":"Yavne"},"geometry":{"type":"Point","coordinates":[34.73843,31.880779999999998]}},{"type":"feature","properties":{"country_en":"Israel","name":"Ge'ula","name_adm0":"Israel","name_adm1":"Jerusalem","name_en":"Ge'ula"},"geometry":{"type":"Point","coordinates":[35.218047999999996,31.792970999999998]}},{"type":"feature","properties":{"country_en":"Israel","name":"Ofaqim","name_adm0":"Israel","name_adm1":"Southern","name_en":"Ofaqim"},"geometry":{"type":"Point","coordinates":[34.62025,31.3141]}},{"type":"feature","properties":{"country_en":"Israel","name":"Qiryat Shalom","name_adm0":"Israel","name_adm1":"Tel Aviv","name_en":"Qiryat Shalom"},"geometry":{"type":"Point","coordinates":[34.77461,32.04559]}},{"type":"feature","properties":{"country_en":"Israel","name":"Ohad","name_adm0":"Israel","name_adm1":"Southern","name_en":"Ohad"},"geometry":{"type":"Point","coordinates":[34.42937,31.235969999999995]}},{"type":"feature","properties":{"country_en":"Israel","name":"Hadid","name_adm0":"Israel","name_adm1":"Central","name_en":"Hadid"},"geometry":{"type":"Point","coordinates":[34.93373,31.96846]}},{"type":"feature","properties":{"country_en":"Israel","name":"Nizzanim","name_adm0":"Israel","name_adm1":"Southern","name_en":"Nizzanim"},"geometry":{"type":"Point","coordinates":[34.6347,31.71682]}},{"type":"feature","properties":{"country_en":"Israel","name":"Atlit","name_adm0":"Israel","name_adm1":"Haifa","name_en":"Atlit"},"geometry":{"type":"Point","coordinates":[34.94236,32.68889]}},{"type":"feature","properties":{"country_en":"Israel","name":"Be'er Ora","name_adm0":"Israel","name_adm1":"Southern","name_en":"Be'er Ora"},"geometry":{"type":"Point","coordinates":[34.98019,29.71053]}},{"type":"feature","properties":{"country_en":"Israel","name":"Ze'elim","name_adm0":"Israel","name_adm1":"Southern","name_en":"Ze'elim"},"geometry":{"type":"Point","coordinates":[34.53473,31.203029999999995]}},{"type":"feature","properties":{"country_en":"Israel","name":"Musheirifa","name_adm0":"Israel","name_adm1":"Haifa","name_en":"Musheirifa"},"geometry":{"type":"Point","coordinates":[35.15624,32.55300999999999]}},{"type":"feature","properties":{"country_en":"Israel","name":"Or HaNer","name_adm0":"Israel","name_adm1":"Southern","name_en":"Or HaNer"},"geometry":{"type":"Point","coordinates":[34.602019999999996,31.55701]}},{"type":"feature","properties":{"country_en":"Israel","name":"Reshafim","name_adm0":"Israel","name_adm1":"Northern","name_en":"Reshafim"},"geometry":{"type":"Point","coordinates":[35.4762,32.48126]}},{"type":"feature","properties":{"country_en":"Israel","name":"Ahisamakh","name_adm0":"Israel","name_adm1":"Central","name_en":"Ahisamakh"},"geometry":{"type":"Point","coordinates":[34.90739,31.93503]}},{"type":"feature","properties":{"country_en":"Israel","name":"Ahuzzam","name_adm0":"Israel","name_adm1":"Southern","name_en":"Ahuzzam"},"geometry":{"type":"Point","coordinates":[34.77009,31.553850000000004]}},{"type":"feature","properties":{"country_en":"Israel","name":"Eilabun","name_adm0":"Israel","name_adm1":"Northern","name_en":"Eilabun"},"geometry":{"type":"Point","coordinates":[35.4004,32.83621999999999]}},{"type":"feature","properties":{"country_en":"Israel","name":"Kefar HaNasi","name_adm0":"Israel","name_adm1":"Northern","name_en":"Kefar HaNasi"},"geometry":{"type":"Point","coordinates":[35.60395,32.97446999999999]}},{"type":"feature","properties":{"country_en":"Israel","name":"Naẖalat Yiẕẖaq","name_adm0":"Israel","name_adm1":"Tel Aviv","name_en":"Naẖalat Yiẕẖaq"},"geometry":{"type":"Point","coordinates":[34.8,32.06667]}},{"type":"feature","properties":{"country_en":"Israel","name":"Nahshonim","name_adm0":"Israel","name_adm1":"Central","name_en":"Nahshonim"},"geometry":{"type":"Point","coordinates":[34.94891,32.06147]}},{"type":"feature","properties":{"country_en":"Israel","name":"Ram On","name_adm0":"Israel","name_adm1":"Northern","name_en":"Ram On"},"geometry":{"type":"Point","coordinates":[35.25774,32.52787]}},{"type":"feature","properties":{"country_en":"Israel","name":"Revivim","name_adm0":"Israel","name_adm1":"Southern","name_en":"Revivim"},"geometry":{"type":"Point","coordinates":[34.72184,31.04395]}},{"type":"feature","properties":{"country_en":"Israel","name":"Mash Had","name_adm0":"Israel","name_adm1":"Northern","name_en":"Mash Had"},"geometry":{"type":"Point","coordinates":[35.324799999999996,32.73938]}},{"type":"feature","properties":{"country_en":"Israel","name":"Misgav Am","name_adm0":"Israel","name_adm1":"Northern","name_en":"Misgav Am"},"geometry":{"type":"Point","coordinates":[35.54891,33.24744]}},{"type":"feature","properties":{"country_en":"Israel","name":"Bet Shearim","name_adm0":"Israel","name_adm1":"Northern","name_en":"Bet Shearim"},"geometry":{"type":"Point","coordinates":[35.17834,32.69581]}},{"type":"feature","properties":{"country_en":"Israel","name":"Barqai","name_adm0":"Israel","name_adm1":"Haifa","name_en":"Barqai"},"geometry":{"type":"Point","coordinates":[35.02966,32.4751]}},{"type":"feature","properties":{"country_en":"Israel","name":"Bet Yosef","name_adm0":"Israel","name_adm1":"Northern","name_en":"Bet Yosef"},"geometry":{"type":"Point","coordinates":[35.5516,32.5585]}},{"type":"feature","properties":{"country_en":"Israel","name":"Bet Yehoshua","name_adm0":"Israel","name_adm1":"Central","name_en":"Bet Yehoshua"},"geometry":{"type":"Point","coordinates":[34.86414,32.25942]}},{"type":"feature","properties":{"country_en":"Israel","name":"Bet Nehemya","name_adm0":"Israel","name_adm1":"Central","name_en":"Bet Nehemya"},"geometry":{"type":"Point","coordinates":[34.9505,31.97913]}},{"type":"feature","properties":{"country_en":"Israel","name":"HaYogev","name_adm0":"Israel","name_adm1":"Northern","name_en":"HaYogev"},"geometry":{"type":"Point","coordinates":[35.203579999999995,32.610929999999996]}},{"type":"feature","properties":{"country_en":"Israel","name":"Kefar Hess","name_adm0":"Israel","name_adm1":"Central","name_en":"Kefar Hess"},"geometry":{"type":"Point","coordinates":[34.93333,32.24999999999999]}},{"type":"feature","properties":{"country_en":"Israel","name":"Ramat HaShofet","name_adm0":"Israel","name_adm1":"Northern","name_en":"Ramat HaShofet"},"geometry":{"type":"Point","coordinates":[35.09472,32.61102]}},{"type":"feature","properties":{"country_en":"Israel","name":"Bene Atarot","name_adm0":"Israel","name_adm1":"Central","name_en":"Bene Atarot"},"geometry":{"type":"Point","coordinates":[34.91288,32.02364]}},{"type":"feature","properties":{"country_en":"Israel","name":"Zur Hadassa","name_adm0":"Israel","name_adm1":"Jerusalem","name_en":"Zur Hadassa"},"geometry":{"type":"Point","coordinates":[35.09548999999999,31.717940000000002]}},{"type":"feature","properties":{"country_en":"Israel","name":"Kammon","name_adm0":"Israel","name_adm1":"Northern","name_en":"Kammon"},"geometry":{"type":"Point","coordinates":[35.36075,32.90891]}},{"type":"feature","properties":{"country_en":"Israel","name":"Rewaha","name_adm0":"Israel","name_adm1":"Southern","name_en":"Rewaha"},"geometry":{"type":"Point","coordinates":[34.73333,31.649999999999995]}},{"type":"feature","properties":{"country_en":"Israel","name":"Kafr Kanna","name_adm0":"Israel","name_adm1":"Northern","name_en":"Kafr Kanna"},"geometry":{"type":"Point","coordinates":[35.34242,32.7466]}},{"type":"feature","properties":{"country_en":"Israel","name":"Mazkeret Batya","name_adm0":"Israel","name_adm1":"Central","name_en":"Mazkeret Batya"},"geometry":{"type":"Point","coordinates":[34.84645999999999,31.85357]}},{"type":"feature","properties":{"country_en":"Israel","name":"Karmi'el","name_adm0":"Israel","name_adm1":"Northern","name_en":"Karmi'el"},"geometry":{"type":"Point","coordinates":[35.29918,32.91669]}},{"type":"feature","properties":{"country_en":"Israel","name":"Nir Zevi","name_adm0":"Israel","name_adm1":"Central","name_en":"Nir Zevi"},"geometry":{"type":"Point","coordinates":[34.86408,31.95291]}},{"type":"feature","properties":{"country_en":"Israel","name":"En Harod","name_adm0":"Israel","name_adm1":"Northern","name_en":"En Harod"},"geometry":{"type":"Point","coordinates":[35.39026,32.56039]}},{"type":"feature","properties":{"country_en":"Israel","name":"Kafr Manda","name_adm0":"Israel","name_adm1":"Northern","name_en":"Kafr Manda"},"geometry":{"type":"Point","coordinates":[35.26009,32.81034]}},{"type":"feature","properties":{"country_en":"Israel","name":"Nofit","name_adm0":"Israel","name_adm1":"Northern","name_en":"Nofit"},"geometry":{"type":"Point","coordinates":[35.1477,32.76226]}},{"type":"feature","properties":{"country_en":"Israel","name":"Givat Ada","name_adm0":"Israel","name_adm1":"Haifa","name_en":"Givat Ada"},"geometry":{"type":"Point","coordinates":[35.00602,32.51908]}},{"type":"feature","properties":{"country_en":"Israel","name":"Omen","name_adm0":"Israel","name_adm1":"Northern","name_en":"Omen"},"geometry":{"type":"Point","coordinates":[35.24194,32.56257]}},{"type":"feature","properties":{"country_en":"Israel","name":"Yeroham","name_adm0":"Israel","name_adm1":"Southern","name_en":"Yeroham"},"geometry":{"type":"Point","coordinates":[34.93176,30.988219999999995]}},{"type":"feature","properties":{"country_en":"Israel","name":"Givat Brenner","name_adm0":"Israel","name_adm1":"Central","name_en":"Givat Brenner"},"geometry":{"type":"Point","coordinates":[34.80096999999999,31.86684]}},{"type":"feature","properties":{"country_en":"Israel","name":"Jerusalem","name_adm0":"Israel","name_adm1":"Jerusalem","name_en":"Jerusalem"},"geometry":{"type":"Point","coordinates":[35.21633,31.769040000000004]}},{"type":"feature","properties":{"country_en":"Israel","name":"Ramla","name_adm0":"Israel","name_adm1":"Central","name_en":"Ramla"},"geometry":{"type":"Point","coordinates":[34.86563,31.92923]}},{"type":"feature","properties":{"country_en":"Israel","name":"Haifa","name_adm0":"Israel","name_adm1":"Haifa","name_en":"Haifa"},"geometry":{"type":"Point","coordinates":[34.9885,32.81841]}},{"type":"feature","properties":{"country_en":"Israel","name":"Nir Oz","name_adm0":"Israel","name_adm1":"Southern","name_en":"Nir Oz"},"geometry":{"type":"Point","coordinates":[34.4021,31.310169999999996]}},{"type":"feature","properties":{"country_en":"Israel","name":"Sede Warburg","name_adm0":"Israel","name_adm1":"Central","name_en":"Sede Warburg"},"geometry":{"type":"Point","coordinates":[34.90722,32.20361]}},{"type":"feature","properties":{"country_en":"Israel","name":"HaOgen","name_adm0":"Israel","name_adm1":"Central","name_en":"HaOgen"},"geometry":{"type":"Point","coordinates":[34.923919999999995,32.3621]}},{"type":"feature","properties":{"country_en":"Israel","name":"Hagor","name_adm0":"Israel","name_adm1":"Central","name_en":"Hagor"},"geometry":{"type":"Point","coordinates":[34.94695,32.13932]}},{"type":"feature","properties":{"country_en":"Israel","name":"Ra'anana","name_adm0":"Israel","name_adm1":"Central","name_en":"Ra'anana"},"geometry":{"type":"Point","coordinates":[34.87386,32.1836]}},{"type":"feature","properties":{"country_en":"Israel","name":"Ramat Aviv","name_adm0":"Israel","name_adm1":"Tel Aviv","name_en":"Ramat Aviv"},"geometry":{"type":"Point","coordinates":[34.79624,32.10841]}},{"type":"feature","properties":{"country_en":"Israel","name":"Givat Yeshayahu","name_adm0":"Israel","name_adm1":"Jerusalem","name_en":"Givat Yeshayahu"},"geometry":{"type":"Point","coordinates":[34.94471999999999,31.67119]}},{"type":"feature","properties":{"country_en":"Israel","name":"Hawwat Shalem","name_adm0":"Israel","name_adm1":"Tel Aviv","name_en":"Hawwat Shalem"},"geometry":{"type":"Point","coordinates":[34.81671,32.0426]}},{"type":"feature","properties":{"country_en":"Israel","name":"Kefar HaHoresh","name_adm0":"Israel","name_adm1":"Northern","name_en":"Kefar HaHoresh"},"geometry":{"type":"Point","coordinates":[35.27393,32.70185]}},{"type":"feature","properties":{"country_en":"Israel","name":"Kare Deshe","name_adm0":"Israel","name_adm1":"Northern","name_en":"Kare Deshe"},"geometry":{"type":"Point","coordinates":[35.5413,32.86888]}},{"type":"feature","properties":{"country_en":"Israel","name":"Amqa","name_adm0":"Israel","name_adm1":"Northern","name_en":"Amqa"},"geometry":{"type":"Point","coordinates":[35.16332,32.97987]}},{"type":"feature","properties":{"country_en":"Israel","name":"Be'er Toviyya","name_adm0":"Israel","name_adm1":"Southern","name_en":"Be'er Toviyya"},"geometry":{"type":"Point","coordinates":[34.72389,31.73501]}},{"type":"feature","properties":{"country_en":"Israel","name":"Kannot","name_adm0":"Israel","name_adm1":"Southern","name_en":"Kannot"},"geometry":{"type":"Point","coordinates":[34.75202,31.802629999999997]}},{"type":"feature","properties":{"country_en":"Israel","name":"Karkur","name_adm0":"Israel","name_adm1":"Haifa","name_en":"Karkur"},"geometry":{"type":"Point","coordinates":[34.99999999999999,32.46667]}},{"type":"feature","properties":{"country_en":"Israel","name":"Magshimim","name_adm0":"Israel","name_adm1":"Central","name_en":"Magshimim"},"geometry":{"type":"Point","coordinates":[34.899,32.04734]}},{"type":"feature","properties":{"country_en":"Israel","name":"Basmat Tabun","name_adm0":"Israel","name_adm1":"Haifa","name_en":"Basmat Tabun"},"geometry":{"type":"Point","coordinates":[35.153,32.73656]}},{"type":"feature","properties":{"country_en":"Israel","name":"Keramim","name_adm0":"Israel","name_adm1":"Southern","name_en":"Keramim"},"geometry":{"type":"Point","coordinates":[34.91757,31.33192]}},{"type":"feature","properties":{"country_en":"Israel","name":"En Karmel","name_adm0":"Israel","name_adm1":"Haifa","name_en":"En Karmel"},"geometry":{"type":"Point","coordinates":[34.95304,32.67697]}},{"type":"feature","properties":{"country_en":"Israel","name":"Arbel","name_adm0":"Israel","name_adm1":"Northern","name_en":"Arbel"},"geometry":{"type":"Point","coordinates":[35.485659999999996,32.81212]}},{"type":"feature","properties":{"country_en":"Israel","name":"Huqoq","name_adm0":"Israel","name_adm1":"Northern","name_en":"Huqoq"},"geometry":{"type":"Point","coordinates":[35.49555,32.87918]}},{"type":"feature","properties":{"country_en":"Israel","name":"Ilaniyya","name_adm0":"Israel","name_adm1":"Northern","name_en":"Ilaniyya"},"geometry":{"type":"Point","coordinates":[35.40837,32.75467]}},{"type":"feature","properties":{"country_en":"Israel","name":"Kefar Blum","name_adm0":"Israel","name_adm1":"Northern","name_en":"Kefar Blum"},"geometry":{"type":"Point","coordinates":[35.60982,33.17171999999999]}},{"type":"feature","properties":{"country_en":"Israel","name":"Nes Ammim","name_adm0":"Israel","name_adm1":"Northern","name_en":"Nes Ammim"},"geometry":{"type":"Point","coordinates":[35.12124,32.96578]}},{"type":"feature","properties":{"country_en":"Israel","name":"Christian Quarter","name_adm0":"Israel","name_adm1":"Jerusalem","name_en":"Christian Quarter"},"geometry":{"type":"Point","coordinates":[35.225429,31.780859999999997]}},{"type":"feature","properties":{"country_en":"Israel","name":"Neve Granot","name_adm0":"Israel","name_adm1":"Jerusalem","name_en":"Neve Granot"},"geometry":{"type":"Point","coordinates":[35.203692,31.773164999999995]}},{"type":"feature","properties":{"country_en":"Israel","name":"Azri'el","name_adm0":"Israel","name_adm1":"Central","name_en":"Azri'el"},"geometry":{"type":"Point","coordinates":[34.97006,32.26137]}},{"type":"feature","properties":{"country_en":"Israel","name":"Bar Giyyora","name_adm0":"Israel","name_adm1":"Jerusalem","name_en":"Bar Giyyora"},"geometry":{"type":"Point","coordinates":[35.07296,31.729729999999996]}},{"type":"feature","properties":{"country_en":"Israel","name":"Berekhya","name_adm0":"Israel","name_adm1":"Southern","name_en":"Berekhya"},"geometry":{"type":"Point","coordinates":[34.62554999999999,31.66828]}},{"type":"feature","properties":{"country_en":"Israel","name":"Berosh","name_adm0":"Israel","name_adm1":"Southern","name_en":"Berosh"},"geometry":{"type":"Point","coordinates":[34.63395,31.37121]}},{"type":"feature","properties":{"country_en":"Israel","name":"Romema","name_adm0":"Israel","name_adm1":"Jerusalem","name_en":"Romema"},"geometry":{"type":"Point","coordinates":[35.20369,31.7918]}},{"type":"feature","properties":{"country_en":"Israel","name":"Qidron","name_adm0":"Israel","name_adm1":"Central","name_en":"Qidron"},"geometry":{"type":"Point","coordinates":[34.79714,31.81405]}},{"type":"feature","properties":{"country_en":"Israel","name":"Shuva","name_adm0":"Israel","name_adm1":"Southern","name_en":"Shuva"},"geometry":{"type":"Point","coordinates":[34.54404,31.450939999999996]}},{"type":"feature","properties":{"country_en":"Israel","name":"Sitriyya","name_adm0":"Israel","name_adm1":"Central","name_en":"Sitriyya"},"geometry":{"type":"Point","coordinates":[34.8438,31.892379999999996]}},{"type":"feature","properties":{"country_en":"Israel","name":"Nahal Oz","name_adm0":"Israel","name_adm1":"Southern","name_en":"Nahal Oz"},"geometry":{"type":"Point","coordinates":[34.49782,31.47319]}},{"type":"feature","properties":{"country_en":"Israel","name":"Givat Koah","name_adm0":"Israel","name_adm1":"Central","name_en":"Givat Koah"},"geometry":{"type":"Point","coordinates":[34.936569999999996,32.03117]}},{"type":"feature","properties":{"country_en":"Israel","name":"Givat Nili","name_adm0":"Israel","name_adm1":"Haifa","name_en":"Givat Nili"},"geometry":{"type":"Point","coordinates":[35.04026,32.54864]}},{"type":"feature","properties":{"country_en":"Israel","name":"Erez","name_adm0":"Israel","name_adm1":"Southern","name_en":"Erez"},"geometry":{"type":"Point","coordinates":[34.56661,31.560240000000004]}},{"type":"feature","properties":{"country_en":"Israel","name":"Bene Re'em","name_adm0":"Israel","name_adm1":"Southern","name_en":"Bene Re'em"},"geometry":{"type":"Point","coordinates":[34.79104999999999,31.77028]}},{"type":"feature","properties":{"country_en":"Israel","name":"Ramat Khen","name_adm0":"Israel","name_adm1":"Tel Aviv","name_en":"Ramat Khen"},"geometry":{"type":"Point","coordinates":[34.81947,32.05597]}},{"type":"feature","properties":{"country_en":"Israel","name":"Sanhedria Ha-murkhevet","name_adm0":"Israel","name_adm1":"Jerusalem","name_en":"Sanhedria Ha-murkhevet"},"geometry":{"type":"Point","coordinates":[35.218047999999996,31.800558]}},{"type":"feature","properties":{"country_en":"Israel","name":"Gidona","name_adm0":"Israel","name_adm1":"Northern","name_en":"Gidona"},"geometry":{"type":"Point","coordinates":[35.35833,32.54722]}},{"type":"feature","properties":{"country_en":"Israel","name":"Sede Nahum","name_adm0":"Israel","name_adm1":"Northern","name_en":"Sede Nahum"},"geometry":{"type":"Point","coordinates":[35.47917,32.525]}},{"type":"feature","properties":{"country_en":"Israel","name":"Tel Giborim","name_adm0":"Israel","name_adm1":"Tel Aviv","name_en":"Tel Giborim"},"geometry":{"type":"Point","coordinates":[34.8239,32.100608]}},{"type":"feature","properties":{"country_en":"Israel","name":"Kefar Darom","name_adm0":"Israel","name_adm1":"Central","name_en":"Kefar Darom"},"geometry":{"type":"Point","coordinates":[34.69235,31.820339999999998]}},{"type":"feature","properties":{"country_en":"Israel","name":"Kfar Shalem","name_adm0":"Israel","name_adm1":"Tel Aviv","name_en":"Kfar Shalem"},"geometry":{"type":"Point","coordinates":[34.80332,32.04928]}},{"type":"feature","properties":{"country_en":"Israel","name":"Okevi","name_adm0":"Israel","name_adm1":"Southern","name_en":"Okevi"},"geometry":{"type":"Point","coordinates":[35.074539,31.295421000000005]}},{"type":"feature","properties":{"country_en":"Israel","name":"Bayit Va-gan","name_adm0":"Israel","name_adm1":"Jerusalem","name_en":"Bayit Va-gan"},"geometry":{"type":"Point","coordinates":[35.184059,31.772760999999996]}},{"type":"feature","properties":{"country_en":"Israel","name":"Ein Ibrahim","name_adm0":"Israel","name_adm1":"Haifa","name_en":"Ein Ibrahim"},"geometry":{"type":"Point","coordinates":[35.14811,32.53409]}},{"type":"feature","properties":{"country_en":"Israel","name":"El Makr","name_adm0":"Israel","name_adm1":"Northern","name_en":"El Makr"},"geometry":{"type":"Point","coordinates":[35.1414,32.93282]}},{"type":"feature","properties":{"country_en":"Israel","name":"El Musheirifa et Taḥtā","name_adm0":"Israel","name_adm1":"Haifa","name_en":"El Musheirifa et Taḥtā"},"geometry":{"type":"Point","coordinates":[35.15,32.55]}},{"type":"feature","properties":{"country_en":"Israel","name":"Qiryat Ata","name_adm0":"Israel","name_adm1":"Haifa","name_en":"Qiryat Ata"},"geometry":{"type":"Point","coordinates":[35.11255,32.81034]}},{"type":"feature","properties":{"country_en":"Israel","name":"Bet Dagan","name_adm0":"Israel","name_adm1":"Central","name_en":"Bet Dagan"},"geometry":{"type":"Point","coordinates":[34.8233,31.99712]}},{"type":"feature","properties":{"country_en":"Israel","name":"Be'er Yaaqov","name_adm0":"Israel","name_adm1":"Central","name_en":"Be'er Yaaqov"},"geometry":{"type":"Point","coordinates":[34.837489999999995,31.93864]}},{"type":"feature","properties":{"country_en":"Israel","name":"Bezet","name_adm0":"Israel","name_adm1":"Northern","name_en":"Bezet"},"geometry":{"type":"Point","coordinates":[35.13587,33.06847]}},{"type":"feature","properties":{"country_en":"Israel","name":"Guizou","name_adm0":"Israel","name_adm1":"Jerusalem","name_en":"Guizou"},"geometry":{"type":"Point","coordinates":[34.93852,31.804740000000002]}},{"type":"feature","properties":{"country_en":"Israel","name":"Alumim","name_adm0":"Israel","name_adm1":"Southern","name_en":"Alumim"},"geometry":{"type":"Point","coordinates":[34.51384,31.452320000000004]}},{"type":"feature","properties":{"country_en":"Israel","name":"Talpiyot","name_adm0":"Israel","name_adm1":"Jerusalem","name_en":"Talpiyot"},"geometry":{"type":"Point","coordinates":[35.21667,31.750000000000004]}},{"type":"feature","properties":{"country_en":"Israel","name":"Bartaa","name_adm0":"Israel","name_adm1":"Haifa","name_en":"Bartaa"},"geometry":{"type":"Point","coordinates":[35.08846,32.47616]}},{"type":"feature","properties":{"country_en":"Israel","name":"Ahihud","name_adm0":"Israel","name_adm1":"Northern","name_en":"Ahihud"},"geometry":{"type":"Point","coordinates":[35.17137,32.90836]}},{"type":"feature","properties":{"country_en":"Israel","name":"Kabul","name_adm0":"Israel","name_adm1":"Northern","name_en":"Kabul"},"geometry":{"type":"Point","coordinates":[35.21171,32.86856]}},{"type":"feature","properties":{"country_en":"Israel","name":"Tuval","name_adm0":"Israel","name_adm1":"Northern","name_en":"Tuval"},"geometry":{"type":"Point","coordinates":[35.24501,32.92859]}},{"type":"feature","properties":{"country_en":"Israel","name":"Umm el Qutuf","name_adm0":"Israel","name_adm1":"Haifa","name_en":"Umm el Qutuf"},"geometry":{"type":"Point","coordinates":[35.05811,32.46718]}},{"type":"feature","properties":{"country_en":"Israel","name":"Yad Hanna","name_adm0":"Israel","name_adm1":"Central","name_en":"Yad Hanna"},"geometry":{"type":"Point","coordinates":[34.99999999999999,32.31667]}},{"type":"feature","properties":{"country_en":"Israel","name":"Shkhunat Borokhov","name_adm0":"Israel","name_adm1":"Tel Aviv","name_en":"Shkhunat Borokhov"},"geometry":{"type":"Point","coordinates":[34.807333,32.0825]}},{"type":"feature","properties":{"country_en":"Israel","name":"Sede Nehemya","name_adm0":"Israel","name_adm1":"Northern","name_en":"Sede Nehemya"},"geometry":{"type":"Point","coordinates":[35.62111,33.18639]}},{"type":"feature","properties":{"country_en":"Israel","name":"Tal Shahar","name_adm0":"Israel","name_adm1":"Jerusalem","name_en":"Tal Shahar"},"geometry":{"type":"Point","coordinates":[34.90309,31.805019999999995]}},{"type":"feature","properties":{"country_en":"Israel","name":"Mishmar HaEmeq","name_adm0":"Israel","name_adm1":"Northern","name_en":"Mishmar HaEmeq"},"geometry":{"type":"Point","coordinates":[35.14227,32.61045]}},{"type":"feature","properties":{"country_en":"Israel","name":"Newe Yaraq","name_adm0":"Israel","name_adm1":"Central","name_en":"Newe Yaraq"},"geometry":{"type":"Point","coordinates":[34.92447,32.13247]}},{"type":"feature","properties":{"country_en":"Israel","name":"Avtalyon","name_adm0":"Israel","name_adm1":"Northern","name_en":"Avtalyon"},"geometry":{"type":"Point","coordinates":[35.34932,32.83619]}},{"type":"feature","properties":{"country_en":"Israel","name":"Ganneam","name_adm0":"Israel","name_adm1":"Central","name_en":"Ganneam"},"geometry":{"type":"Point","coordinates":[34.90038,32.1529]}},{"type":"feature","properties":{"country_en":"Israel","name":"Daliyya","name_adm0":"Israel","name_adm1":"Northern","name_en":"Daliyya"},"geometry":{"type":"Point","coordinates":[35.07514,32.58982]}},{"type":"feature","properties":{"country_en":"Israel","name":"En Hod","name_adm0":"Israel","name_adm1":"Haifa","name_en":"En Hod"},"geometry":{"type":"Point","coordinates":[34.98279999999999,32.70027]}},{"type":"feature","properties":{"country_en":"Israel","name":"Kefar Barukh","name_adm0":"Israel","name_adm1":"Northern","name_en":"Kefar Barukh"},"geometry":{"type":"Point","coordinates":[35.19079,32.64618]}},{"type":"feature","properties":{"country_en":"Israel","name":"Kefar Vitkin","name_adm0":"Israel","name_adm1":"Central","name_en":"Kefar Vitkin"},"geometry":{"type":"Point","coordinates":[34.87737,32.38126]}},{"type":"feature","properties":{"country_en":"Israel","name":"Herev Le'et","name_adm0":"Israel","name_adm1":"Central","name_en":"Herev Le'et"},"geometry":{"type":"Point","coordinates":[34.91616,32.40136]}},{"type":"feature","properties":{"country_en":"Israel","name":"Ruhama","name_adm0":"Israel","name_adm1":"Southern","name_en":"Ruhama"},"geometry":{"type":"Point","coordinates":[34.70612,31.49743]}},{"type":"feature","properties":{"country_en":"Israel","name":"Kmehim","name_adm0":"Israel","name_adm1":"Southern","name_en":"Kmehim"},"geometry":{"type":"Point","coordinates":[34.42359849999999,30.929433]}},{"type":"feature","properties":{"country_en":"Israel","name":"Snir","name_adm0":"Israel","name_adm1":"Northern","name_en":"Snir"},"geometry":{"type":"Point","coordinates":[35.693833,33.243167]}},{"type":"feature","properties":{"country_en":"Israel","name":"Telaim","name_adm0":"Israel","name_adm1":"Southern","name_en":"Telaim"},"geometry":{"type":"Point","coordinates":[34.67211,31.563869999999998]}},{"type":"feature","properties":{"country_en":"Israel","name":"Nakhalat Akhim","name_adm0":"Israel","name_adm1":"Jerusalem","name_en":"Nakhalat Akhim"},"geometry":{"type":"Point","coordinates":[35.212522,31.784308999999997]}},{"type":"feature","properties":{"country_en":"Israel","name":"Elqosh","name_adm0":"Israel","name_adm1":"Northern","name_en":"Elqosh"},"geometry":{"type":"Point","coordinates":[35.32443,33.03346]}},{"type":"feature","properties":{"country_en":"Israel","name":"En Zurim","name_adm0":"Israel","name_adm1":"Southern","name_en":"En Zurim"},"geometry":{"type":"Point","coordinates":[34.7194,31.69464]}},{"type":"feature","properties":{"country_en":"Israel","name":"Reim","name_adm0":"Israel","name_adm1":"Southern","name_en":"Reim"},"geometry":{"type":"Point","coordinates":[34.45943,31.3853]}},{"type":"feature","properties":{"country_en":"Israel","name":"Shorashim","name_adm0":"Israel","name_adm1":"Northern","name_en":"Shorashim"},"geometry":{"type":"Point","coordinates":[35.25972,32.89305999999999]}},{"type":"feature","properties":{"country_en":"Israel","name":"Nir Banim","name_adm0":"Israel","name_adm1":"Southern","name_en":"Nir Banim"},"geometry":{"type":"Point","coordinates":[34.75482,31.67178]}},{"type":"feature","properties":{"country_en":"Israel","name":"Nir Eliyyahu","name_adm0":"Israel","name_adm1":"Central","name_en":"Nir Eliyyahu"},"geometry":{"type":"Point","coordinates":[34.94921,32.19672]}},{"type":"feature","properties":{"country_en":"Israel","name":"Gonen Gimel","name_adm0":"Israel","name_adm1":"Jerusalem","name_en":"Gonen Gimel"},"geometry":{"type":"Point","coordinates":[35.201568,31.759845]}},{"type":"feature","properties":{"country_en":"Israel","name":"Ets Khayim","name_adm0":"Israel","name_adm1":"Jerusalem","name_en":"Ets Khayim"},"geometry":{"type":"Point","coordinates":[35.197091,31.788246999999995]}},{"type":"feature","properties":{"country_en":"Israel","name":"Giv'at Beit Ha-kerem","name_adm0":"Israel","name_adm1":"Jerusalem","name_en":"Giv'at Beit Ha-kerem"},"geometry":{"type":"Point","coordinates":[35.176667,31.774202]}},{"type":"feature","properties":{"country_en":"Israel","name":"Havazzelet HaSharon","name_adm0":"Israel","name_adm1":"Central","name_en":"Havazzelet HaSharon"},"geometry":{"type":"Point","coordinates":[34.85934,32.36263]}},{"type":"feature","properties":{"country_en":"Israel","name":"Jisr ez Zarqa","name_adm0":"Israel","name_adm1":"Haifa","name_en":"Jisr ez Zarqa"},"geometry":{"type":"Point","coordinates":[34.912699999999994,32.53684]}},{"type":"feature","properties":{"country_en":"Israel","name":"Tel Yosef","name_adm0":"Israel","name_adm1":"Northern","name_en":"Tel Yosef"},"geometry":{"type":"Point","coordinates":[35.4,32.55833]}},{"type":"feature","properties":{"country_en":"Israel","name":"Zafriyya","name_adm0":"Israel","name_adm1":"Central","name_en":"Zafriyya"},"geometry":{"type":"Point","coordinates":[34.85588,32.00354]}},{"type":"feature","properties":{"country_en":"Israel","name":"Amirim","name_adm0":"Israel","name_adm1":"Northern","name_en":"Amirim"},"geometry":{"type":"Point","coordinates":[35.45302,32.93773]}},{"type":"feature","properties":{"country_en":"Israel","name":"Shoham","name_adm0":"Israel","name_adm1":"Central","name_en":"Shoham"},"geometry":{"type":"Point","coordinates":[34.94559,31.99866]}},{"type":"feature","properties":{"country_en":"Israel","name":"En HaShofet","name_adm0":"Israel","name_adm1":"Northern","name_en":"En HaShofet"},"geometry":{"type":"Point","coordinates":[35.099169999999994,32.59472]}},{"type":"feature","properties":{"country_en":"Israel","name":"Maghar","name_adm0":"Israel","name_adm1":"Northern","name_en":"Maghar"},"geometry":{"type":"Point","coordinates":[35.40702999999999,32.88984]}},{"type":"feature","properties":{"country_en":"Israel","name":"Abu Sinan","name_adm0":"Israel","name_adm1":"Northern","name_en":"Abu Sinan"},"geometry":{"type":"Point","coordinates":[35.171519999999994,32.9589]}},{"type":"feature","properties":{"country_en":"Israel","name":"Ahituv","name_adm0":"Israel","name_adm1":"Central","name_en":"Ahituv"},"geometry":{"type":"Point","coordinates":[34.99072,32.38874]}},{"type":"feature","properties":{"country_en":"Israel","name":"Alma","name_adm0":"Israel","name_adm1":"Northern","name_en":"Alma"},"geometry":{"type":"Point","coordinates":[35.49964,33.0516]}},{"type":"feature","properties":{"country_en":"Israel","name":"Aviezer","name_adm0":"Israel","name_adm1":"Jerusalem","name_en":"Aviezer"},"geometry":{"type":"Point","coordinates":[35.01767,31.68161]}},{"type":"feature","properties":{"country_en":"Israel","name":"Avivim","name_adm0":"Israel","name_adm1":"Northern","name_en":"Avivim"},"geometry":{"type":"Point","coordinates":[35.47227999999999,33.08892]}},{"type":"feature","properties":{"country_en":"Israel","name":"Baraq","name_adm0":"Israel","name_adm1":"Northern","name_en":"Baraq"},"geometry":{"type":"Point","coordinates":[35.2652,32.54277]}},{"type":"feature","properties":{"country_en":"Israel","name":"Be'erot Yizhaq","name_adm0":"Israel","name_adm1":"Central","name_en":"Be'erot Yizhaq"},"geometry":{"type":"Point","coordinates":[34.91068,32.0403]}},{"type":"feature","properties":{"country_en":"Israel","name":"Benaya","name_adm0":"Israel","name_adm1":"Central","name_en":"Benaya"},"geometry":{"type":"Point","coordinates":[34.75398,31.84341]}},{"type":"feature","properties":{"country_en":"Israel","name":"Bet Hashmonay","name_adm0":"Israel","name_adm1":"Central","name_en":"Bet Hashmonay"},"geometry":{"type":"Point","coordinates":[34.916729999999994,31.88969]}},{"type":"feature","properties":{"country_en":"Israel","name":"Bet Herut","name_adm0":"Israel","name_adm1":"Central","name_en":"Bet Herut"},"geometry":{"type":"Point","coordinates":[34.86992,32.37966]}},{"type":"feature","properties":{"country_en":"Israel","name":"Bet Hilqiyya","name_adm0":"Israel","name_adm1":"Central","name_en":"Bet Hilqiyya"},"geometry":{"type":"Point","coordinates":[34.81048,31.792809999999996]}},{"type":"feature","properties":{"country_en":"Israel","name":"Bet Shiqma","name_adm0":"Israel","name_adm1":"Southern","name_en":"Bet Shiqma"},"geometry":{"type":"Point","coordinates":[34.60636,31.635889999999996]}},{"type":"feature","properties":{"country_en":"Israel","name":"Bet Me'ir","name_adm0":"Israel","name_adm1":"Jerusalem","name_en":"Bet Me'ir"},"geometry":{"type":"Point","coordinates":[35.03689,31.79393]}},{"type":"feature","properties":{"country_en":"Israel","name":"Bet Neqofa","name_adm0":"Israel","name_adm1":"Jerusalem","name_en":"Bet Neqofa"},"geometry":{"type":"Point","coordinates":[35.12596,31.804519999999997]}},{"type":"feature","properties":{"country_en":"Israel","name":"Bet Nir","name_adm0":"Israel","name_adm1":"Southern","name_en":"Bet Nir"},"geometry":{"type":"Point","coordinates":[34.87382,31.64747]}},{"type":"feature","properties":{"country_en":"Israel","name":"Bet Rabban","name_adm0":"Israel","name_adm1":"Central","name_en":"Bet Rabban"},"geometry":{"type":"Point","coordinates":[34.72937,31.816769999999998]}},{"type":"feature","properties":{"country_en":"Israel","name":"Bet Rimmon","name_adm0":"Israel","name_adm1":"Northern","name_en":"Bet Rimmon"},"geometry":{"type":"Point","coordinates":[35.327659999999995,32.77995]}},{"type":"feature","properties":{"country_en":"Israel","name":"Bet Qeshet","name_adm0":"Israel","name_adm1":"Northern","name_en":"Bet Qeshet"},"geometry":{"type":"Point","coordinates":[35.39515999999999,32.71869]}},{"type":"feature","properties":{"country_en":"Israel","name":"En Dor","name_adm0":"Israel","name_adm1":"Northern","name_en":"En Dor"},"geometry":{"type":"Point","coordinates":[35.41703,32.65614]}},{"type":"feature","properties":{"country_en":"Israel","name":"En Harod Ihud","name_adm0":"Israel","name_adm1":"Northern","name_en":"En Harod Ihud"},"geometry":{"type":"Point","coordinates":[35.38877,32.56697]}},{"type":"feature","properties":{"country_en":"Israel","name":"Ge'alya","name_adm0":"Israel","name_adm1":"Central","name_en":"Ge'alya"},"geometry":{"type":"Point","coordinates":[34.76568,31.884189999999997]}},{"type":"feature","properties":{"country_en":"Israel","name":"Ge'ullim","name_adm0":"Israel","name_adm1":"Central","name_en":"Ge'ullim"},"geometry":{"type":"Point","coordinates":[34.94514,32.29962]}},{"type":"feature","properties":{"country_en":"Israel","name":"Gefen","name_adm0":"Israel","name_adm1":"Jerusalem","name_en":"Gefen"},"geometry":{"type":"Point","coordinates":[34.87902,31.740579999999998]}},{"type":"feature","properties":{"country_en":"Israel","name":"Geva","name_adm0":"Israel","name_adm1":"Northern","name_en":"Geva"},"geometry":{"type":"Point","coordinates":[35.37158,32.5664]}},{"type":"feature","properties":{"country_en":"Israel","name":"Gevim","name_adm0":"Israel","name_adm1":"Southern","name_en":"Gevim"},"geometry":{"type":"Point","coordinates":[34.59868999999999,31.50756]}},{"type":"feature","properties":{"country_en":"Israel","name":"Giv’at Mordekhay","name_adm0":"Israel","name_adm1":"Jerusalem","name_en":"Giv’at Mordekhay"},"geometry":{"type":"Point","coordinates":[35.2,31.76667]}},{"type":"feature","properties":{"country_en":"Israel","name":"Givolim","name_adm0":"Israel","name_adm1":"Southern","name_en":"Givolim"},"geometry":{"type":"Point","coordinates":[34.59136,31.39658]}},{"type":"feature","properties":{"country_en":"Israel","name":"HaQirya","name_adm0":"Israel","name_adm1":"Tel Aviv","name_en":"HaQirya"},"geometry":{"type":"Point","coordinates":[34.7856,32.07193]}},{"type":"feature","properties":{"country_en":"Israel","name":"HaMapil","name_adm0":"Israel","name_adm1":"Central","name_en":"HaMapil"},"geometry":{"type":"Point","coordinates":[34.98337,32.37802]}},{"type":"feature","properties":{"country_en":"Israel","name":"HaSolelim","name_adm0":"Israel","name_adm1":"Northern","name_en":"HaSolelim"},"geometry":{"type":"Point","coordinates":[35.23727,32.7513]}},{"type":"feature","properties":{"country_en":"Israel","name":"HaHoterim","name_adm0":"Israel","name_adm1":"Haifa","name_en":"HaHoterim"},"geometry":{"type":"Point","coordinates":[34.95694,32.75179]}},{"type":"feature","properties":{"country_en":"Israel","name":"HaGosherim","name_adm0":"Israel","name_adm1":"Northern","name_en":"HaGosherim"},"geometry":{"type":"Point","coordinates":[35.62331,33.22061]}},{"type":"feature","properties":{"country_en":"Israel","name":"Hafez Hayyim","name_adm0":"Israel","name_adm1":"Central","name_en":"Hafez Hayyim"},"geometry":{"type":"Point","coordinates":[34.80011,31.78832]}},{"type":"feature","properties":{"country_en":"Israel","name":"Har'el","name_adm0":"Israel","name_adm1":"Jerusalem","name_en":"Har'el"},"geometry":{"type":"Point","coordinates":[34.94865,31.809059999999995]}},{"type":"feature","properties":{"country_en":"Israel","name":"Hazav","name_adm0":"Israel","name_adm1":"Southern","name_en":"Hazav"},"geometry":{"type":"Point","coordinates":[34.76915,31.780519999999996]}},{"type":"feature","properties":{"country_en":"Israel","name":"Helez","name_adm0":"Israel","name_adm1":"Southern","name_en":"Helez"},"geometry":{"type":"Point","coordinates":[34.65831,31.57788]}},{"type":"feature","properties":{"country_en":"Israel","name":"Hever","name_adm0":"Israel","name_adm1":"Northern","name_en":"Hever"},"geometry":{"type":"Point","coordinates":[35.2645,32.54735]}},{"type":"feature","properties":{"country_en":"Israel","name":"Hofit","name_adm0":"Israel","name_adm1":"Central","name_en":"Hofit"},"geometry":{"type":"Point","coordinates":[34.87425,32.38564999999999]}},{"type":"feature","properties":{"country_en":"Israel","name":"Horeshim","name_adm0":"Israel","name_adm1":"Central","name_en":"Horeshim"},"geometry":{"type":"Point","coordinates":[34.97111,32.13817]}},{"type":"feature","properties":{"country_en":"Israel","name":"Kefar HaRif","name_adm0":"Israel","name_adm1":"Southern","name_en":"Kefar HaRif"},"geometry":{"type":"Point","coordinates":[34.79089,31.746969999999997]}},{"type":"feature","properties":{"country_en":"Israel","name":"Kefar Hananya","name_adm0":"Israel","name_adm1":"Northern","name_en":"Kefar Hananya"},"geometry":{"type":"Point","coordinates":[35.42298,32.91002]}},{"type":"feature","properties":{"country_en":"Israel","name":"Kefar Szold","name_adm0":"Israel","name_adm1":"Northern","name_en":"Kefar Szold"},"geometry":{"type":"Point","coordinates":[35.65836,33.19591]}},{"type":"feature","properties":{"country_en":"Israel","name":"Kefar Ruppin","name_adm0":"Israel","name_adm1":"Northern","name_en":"Kefar Ruppin"},"geometry":{"type":"Point","coordinates":[35.55528,32.45721999999999]}},{"type":"feature","properties":{"country_en":"Israel","name":"Kefar Shemu'el","name_adm0":"Israel","name_adm1":"Central","name_en":"Kefar Shemu'el"},"geometry":{"type":"Point","coordinates":[34.93152,31.89032]}},{"type":"feature","properties":{"country_en":"Israel","name":"Kefar Sirkin","name_adm0":"Israel","name_adm1":"Central","name_en":"Kefar Sirkin"},"geometry":{"type":"Point","coordinates":[34.92261,32.07804]}},{"type":"feature","properties":{"country_en":"Israel","name":"Kefar Yabez","name_adm0":"Israel","name_adm1":"Central","name_en":"Kefar Yabez"},"geometry":{"type":"Point","coordinates":[34.96596,32.27382999999999]}},{"type":"feature","properties":{"country_en":"Israel","name":"Kokhav","name_adm0":"Israel","name_adm1":"Southern","name_en":"Kokhav"},"geometry":{"type":"Point","coordinates":[34.66904,31.628039999999995]}},{"type":"feature","properties":{"country_en":"Israel","name":"Lahavot Haviva","name_adm0":"Israel","name_adm1":"Haifa","name_en":"Lahavot Haviva"},"geometry":{"type":"Point","coordinates":[35.00978,32.39517]}},{"type":"feature","properties":{"country_en":"Israel","name":"Lotem","name_adm0":"Israel","name_adm1":"Northern","name_en":"Lotem"},"geometry":{"type":"Point","coordinates":[35.35882,32.88178]}},{"type":"feature","properties":{"country_en":"Israel","name":"Maale HaHamisha","name_adm0":"Israel","name_adm1":"Jerusalem","name_en":"Maale HaHamisha"},"geometry":{"type":"Point","coordinates":[35.11292,31.81788]}},{"type":"feature","properties":{"country_en":"Israel","name":"Mabarot","name_adm0":"Israel","name_adm1":"Central","name_en":"Mabarot"},"geometry":{"type":"Point","coordinates":[34.90545,32.36367]}},{"type":"feature","properties":{"country_en":"Israel","name":"Mabbuim","name_adm0":"Israel","name_adm1":"Southern","name_en":"Mabbuim"},"geometry":{"type":"Point","coordinates":[34.65477,31.449659999999998]}},{"type":"feature","properties":{"country_en":"Israel","name":"Magen","name_adm0":"Israel","name_adm1":"Southern","name_en":"Magen"},"geometry":{"type":"Point","coordinates":[34.4275,31.29908]}},{"type":"feature","properties":{"country_en":"Israel","name":"Mele'a","name_adm0":"Israel","name_adm1":"Northern","name_en":"Mele'a"},"geometry":{"type":"Point","coordinates":[35.23747,32.56331]}},{"type":"feature","properties":{"country_en":"Israel","name":"Melilot","name_adm0":"Israel","name_adm1":"Southern","name_en":"Melilot"},"geometry":{"type":"Point","coordinates":[34.59660999999999,31.390150000000002]}},{"type":"feature","properties":{"country_en":"Israel","name":"Mesillat Ziyyon","name_adm0":"Israel","name_adm1":"Jerusalem","name_en":"Mesillat Ziyyon"},"geometry":{"type":"Point","coordinates":[35.01095,31.802]}},{"type":"feature","properties":{"country_en":"Israel","name":"Metav","name_adm0":"Israel","name_adm1":"Northern","name_en":"Metav"},"geometry":{"type":"Point","coordinates":[35.30107,32.54591]}},{"type":"feature","properties":{"country_en":"Israel","name":"Migdal Tefen","name_adm0":"Israel","name_adm1":"Northern","name_en":"Migdal Tefen"},"geometry":{"type":"Point","coordinates":[35.27283,32.97874]}},{"type":"feature","properties":{"country_en":"Israel","name":"Muawiya","name_adm0":"Israel","name_adm1":"Northern","name_en":"Muawiya"},"geometry":{"type":"Point","coordinates":[35.10426,32.53076]}},{"type":"feature","properties":{"country_en":"Israel","name":"Muqeibila","name_adm0":"Israel","name_adm1":"Northern","name_en":"Muqeibila"},"geometry":{"type":"Point","coordinates":[35.29617,32.51424]}},{"type":"feature","properties":{"country_en":"Israel","name":"Nahal Shittim","name_adm0":"Israel","name_adm1":"Southern","name_en":"Nahal Shittim"},"geometry":{"type":"Point","coordinates":[35.0163,30.17705]}},{"type":"feature","properties":{"country_en":"Israel","name":"Nahal Yaalon","name_adm0":"Israel","name_adm1":"Southern","name_en":"Nahal Yaalon"},"geometry":{"type":"Point","coordinates":[35.04207,30.05168]}},{"type":"feature","properties":{"country_en":"Israel","name":"Nahshon","name_adm0":"Israel","name_adm1":"Jerusalem","name_en":"Nahshon"},"geometry":{"type":"Point","coordinates":[34.95548,31.83117]}},{"type":"feature","properties":{"country_en":"Israel","name":"Nehora","name_adm0":"Israel","name_adm1":"Southern","name_en":"Nehora"},"geometry":{"type":"Point","coordinates":[34.70546,31.622679999999995]}},{"type":"feature","properties":{"country_en":"Israel","name":"Nehusha","name_adm0":"Israel","name_adm1":"Jerusalem","name_en":"Nehusha"},"geometry":{"type":"Point","coordinates":[34.9531,31.630639999999996]}},{"type":"feature","properties":{"country_en":"Israel","name":"Sanhedriyya Murẖevet","name_adm0":"Israel","name_adm1":"Jerusalem","name_en":"Sanhedriyya Murẖevet"},"geometry":{"type":"Point","coordinates":[35.21667,31.799999999999997]}},{"type":"feature","properties":{"country_en":"Israel","name":"Newe Ilan","name_adm0":"Israel","name_adm1":"Jerusalem","name_en":"Newe Ilan"},"geometry":{"type":"Point","coordinates":[35.08029,31.80858]}},{"type":"feature","properties":{"country_en":"Israel","name":"Newe Miftah","name_adm0":"Israel","name_adm1":"Southern","name_en":"Newe Miftah"},"geometry":{"type":"Point","coordinates":[34.73961,31.80591]}},{"type":"feature","properties":{"country_en":"Israel","name":"Nir Aqiva","name_adm0":"Israel","name_adm1":"Southern","name_en":"Nir Aqiva"},"geometry":{"type":"Point","coordinates":[34.64634,31.469939999999998]}},{"type":"feature","properties":{"country_en":"Israel","name":"Newe Sha'anan","name_adm0":"Israel","name_adm1":"Haifa","name_en":"Newe Sha'anan"},"geometry":{"type":"Point","coordinates":[35.01448,32.7857]}},{"type":"feature","properties":{"country_en":"Israel","name":"Newe Sha'anan","name_adm0":"Israel","name_adm1":"Tel Aviv","name_en":"Newe Sha'anan"},"geometry":{"type":"Point","coordinates":[34.78333,32.05]}},{"type":"feature","properties":{"country_en":"Israel","name":"Nofekh","name_adm0":"Israel","name_adm1":"Central","name_en":"Nofekh"},"geometry":{"type":"Point","coordinates":[34.92066,32.04372]}},{"type":"feature","properties":{"country_en":"Israel","name":"Nir Yafe","name_adm0":"Israel","name_adm1":"Northern","name_en":"Nir Yafe"},"geometry":{"type":"Point","coordinates":[35.24499999999999,32.56905]}},{"type":"feature","properties":{"country_en":"Israel","name":"Noam","name_adm0":"Israel","name_adm1":"Southern","name_en":"Noam"},"geometry":{"type":"Point","coordinates":[34.78892,31.567719999999998]}},{"type":"feature","properties":{"country_en":"Israel","name":"Nogah","name_adm0":"Israel","name_adm1":"Southern","name_en":"Nogah"},"geometry":{"type":"Point","coordinates":[34.69512999999999,31.624250000000004]}},{"type":"feature","properties":{"country_en":"Israel","name":"Parod","name_adm0":"Israel","name_adm1":"Northern","name_en":"Parod"},"geometry":{"type":"Point","coordinates":[35.43379,32.93269]}},{"type":"feature","properties":{"country_en":"Israel","name":"Pattish","name_adm0":"Israel","name_adm1":"Southern","name_en":"Pattish"},"geometry":{"type":"Point","coordinates":[34.55906,31.327939999999998]}},{"type":"feature","properties":{"country_en":"Israel","name":"Peduyim","name_adm0":"Israel","name_adm1":"Southern","name_en":"Peduyim"},"geometry":{"type":"Point","coordinates":[34.61189,31.327139999999996]}},{"type":"feature","properties":{"country_en":"Israel","name":"Qevuzat Yavne","name_adm0":"Israel","name_adm1":"Central","name_en":"Qevuzat Yavne"},"geometry":{"type":"Point","coordinates":[34.7208,31.81555]}},{"type":"feature","properties":{"country_en":"Israel","name":"Qiryat Anavim","name_adm0":"Israel","name_adm1":"Jerusalem","name_en":"Qiryat Anavim"},"geometry":{"type":"Point","coordinates":[35.12035,31.810819999999996]}},{"type":"feature","properties":{"country_en":"Israel","name":"Qomemiyyut","name_adm0":"Israel","name_adm1":"Southern","name_en":"Qomemiyyut"},"geometry":{"type":"Point","coordinates":[34.72976,31.66259]}},{"type":"feature","properties":{"country_en":"Israel","name":"Ramot Naftali","name_adm0":"Israel","name_adm1":"Northern","name_en":"Ramot Naftali"},"geometry":{"type":"Point","coordinates":[35.55321,33.10149]}},{"type":"feature","properties":{"country_en":"Israel","name":"Ramot Me'ir","name_adm0":"Israel","name_adm1":"Central","name_en":"Ramot Me'ir"},"geometry":{"type":"Point","coordinates":[34.85639,31.875719999999998]}},{"type":"feature","properties":{"country_en":"Israel","name":"Rannen","name_adm0":"Israel","name_adm1":"Southern","name_en":"Rannen"},"geometry":{"type":"Point","coordinates":[34.60069,31.337739999999997]}},{"type":"feature","properties":{"country_en":"Israel","name":"Raqqefet","name_adm0":"Israel","name_adm1":"Northern","name_en":"Raqqefet"},"geometry":{"type":"Point","coordinates":[35.2595,32.85923]}},{"type":"feature","properties":{"country_en":"Israel","name":"Ramot Menashe","name_adm0":"Israel","name_adm1":"Northern","name_en":"Ramot Menashe"},"geometry":{"type":"Point","coordinates":[35.05656,32.59784]}},{"type":"feature","properties":{"country_en":"Israel","name":"Regavim","name_adm0":"Israel","name_adm1":"Haifa","name_en":"Regavim"},"geometry":{"type":"Point","coordinates":[35.03412,32.52391]}},{"type":"feature","properties":{"country_en":"Israel","name":"Rewaya","name_adm0":"Israel","name_adm1":"Northern","name_en":"Rewaya"},"geometry":{"type":"Point","coordinates":[35.47083,32.45]}},{"type":"feature","properties":{"country_en":"Israel","name":"Salim","name_adm0":"Israel","name_adm1":"Haifa","name_en":"Salim"},"geometry":{"type":"Point","coordinates":[35.19929,32.54391]}},{"type":"feature","properties":{"country_en":"Israel","name":"Sede Dawid","name_adm0":"Israel","name_adm1":"Southern","name_en":"Sede Dawid"},"geometry":{"type":"Point","coordinates":[34.68333,31.58333]}},{"type":"feature","properties":{"country_en":"Israel","name":"Sede Ilan","name_adm0":"Israel","name_adm1":"Northern","name_en":"Sede Ilan"},"geometry":{"type":"Point","coordinates":[35.42222,32.74861]}},{"type":"feature","properties":{"country_en":"Israel","name":"Sede Terumot","name_adm0":"Israel","name_adm1":"Northern","name_en":"Sede Terumot"},"geometry":{"type":"Point","coordinates":[35.4875,32.44167]}},{"type":"feature","properties":{"country_en":"Israel","name":"Sede Uziyyahu","name_adm0":"Israel","name_adm1":"Southern","name_en":"Sede Uziyyahu"},"geometry":{"type":"Point","coordinates":[34.68333,31.750000000000004]}},{"type":"feature","properties":{"country_en":"Israel","name":"Sede Yoav","name_adm0":"Israel","name_adm1":"Southern","name_en":"Sede Yoav"},"geometry":{"type":"Point","coordinates":[34.67697,31.646]}},{"type":"feature","properties":{"country_en":"Israel","name":"Sedot Mikha","name_adm0":"Israel","name_adm1":"Jerusalem","name_en":"Sedot Mikha"},"geometry":{"type":"Point","coordinates":[34.92027,31.7213]}},{"type":"feature","properties":{"country_en":"Israel","name":"Segev","name_adm0":"Israel","name_adm1":"Northern","name_en":"Segev"},"geometry":{"type":"Point","coordinates":[35.25189,32.86602]}},{"type":"feature","properties":{"country_en":"Israel","name":"Shaab","name_adm0":"Israel","name_adm1":"Northern","name_en":"Shaab"},"geometry":{"type":"Point","coordinates":[35.24093,32.88943]}},{"type":"feature","properties":{"country_en":"Israel","name":"Shaar Efrayim","name_adm0":"Israel","name_adm1":"Central","name_en":"Shaar Efrayim"},"geometry":{"type":"Point","coordinates":[34.99839999999999,32.29067]}},{"type":"feature","properties":{"country_en":"Israel","name":"Sheluhot","name_adm0":"Israel","name_adm1":"Northern","name_en":"Sheluhot"},"geometry":{"type":"Point","coordinates":[35.48057,32.47203]}},{"type":"feature","properties":{"country_en":"Israel","name":"Shetula","name_adm0":"Israel","name_adm1":"Northern","name_en":"Shetula"},"geometry":{"type":"Point","coordinates":[35.3149,33.0852]}},{"type":"feature","properties":{"country_en":"Israel","name":"Shetulim","name_adm0":"Israel","name_adm1":"Southern","name_en":"Shetulim"},"geometry":{"type":"Point","coordinates":[34.68305,31.774000000000004]}},{"type":"feature","properties":{"country_en":"Israel","name":"Shibbolim","name_adm0":"Israel","name_adm1":"Southern","name_en":"Shibbolim"},"geometry":{"type":"Point","coordinates":[34.6079,31.396229999999996]}},{"type":"feature","properties":{"country_en":"Israel","name":"Sho'eva","name_adm0":"Israel","name_adm1":"Jerusalem","name_en":"Sho'eva"},"geometry":{"type":"Point","coordinates":[35.07764,31.79867]}},{"type":"feature","properties":{"country_en":"Israel","name":"Talme Yehi'el","name_adm0":"Israel","name_adm1":"Southern","name_en":"Talme Yehi'el"},"geometry":{"type":"Point","coordinates":[34.76316,31.7521]}},{"type":"feature","properties":{"country_en":"Israel","name":"Taoz","name_adm0":"Israel","name_adm1":"Jerusalem","name_en":"Taoz"},"geometry":{"type":"Point","coordinates":[34.97504,31.801239999999996]}},{"type":"feature","properties":{"country_en":"Israel","name":"Te'ashur","name_adm0":"Israel","name_adm1":"Southern","name_en":"Te'ashur"},"geometry":{"type":"Point","coordinates":[34.64359,31.37194]}},{"type":"feature","properties":{"country_en":"Israel","name":"Tefahot","name_adm0":"Israel","name_adm1":"Northern","name_en":"Tefahot"},"geometry":{"type":"Point","coordinates":[35.42402,32.86791]}},{"type":"feature","properties":{"country_en":"Israel","name":"Tushiyya","name_adm0":"Israel","name_adm1":"Southern","name_en":"Tushiyya"},"geometry":{"type":"Point","coordinates":[34.54109,31.43327]}},{"type":"feature","properties":{"country_en":"Israel","name":"Yad Binyamin","name_adm0":"Israel","name_adm1":"Central","name_en":"Yad Binyamin"},"geometry":{"type":"Point","coordinates":[34.82083,31.7974]}},{"type":"feature","properties":{"country_en":"Israel","name":"Yad Mordekhay","name_adm0":"Israel","name_adm1":"Southern","name_en":"Yad Mordekhay"},"geometry":{"type":"Point","coordinates":[34.55816,31.589019999999998]}},{"type":"feature","properties":{"country_en":"Israel","name":"Yael","name_adm0":"Israel","name_adm1":"Northern","name_en":"Yael"},"geometry":{"type":"Point","coordinates":[35.3083,32.5524]}},{"type":"feature","properties":{"country_en":"Israel","name":"Yehiam","name_adm0":"Israel","name_adm1":"Northern","name_en":"Yehiam"},"geometry":{"type":"Point","coordinates":[35.22077999999999,32.99663]}},{"type":"feature","properties":{"country_en":"Israel","name":"Yesha","name_adm0":"Israel","name_adm1":"Southern","name_en":"Yesha"},"geometry":{"type":"Point","coordinates":[34.40276,31.24729]}},{"type":"feature","properties":{"country_en":"Israel","name":"Yifat","name_adm0":"Israel","name_adm1":"Northern","name_en":"Yifat"},"geometry":{"type":"Point","coordinates":[35.22333,32.6775]}},{"type":"feature","properties":{"country_en":"Israel","name":"Yinnon","name_adm0":"Israel","name_adm1":"Southern","name_en":"Yinnon"},"geometry":{"type":"Point","coordinates":[34.7823,31.74199]}},{"type":"feature","properties":{"country_en":"Israel","name":"Yizream","name_adm0":"Israel","name_adm1":"Southern","name_en":"Yizream"},"geometry":{"type":"Point","coordinates":[34.57206,31.4428]}},{"type":"feature","properties":{"country_en":"Israel","name":"Zalafa","name_adm0":"Israel","name_adm1":"Haifa","name_en":"Zalafa"},"geometry":{"type":"Point","coordinates":[35.1852,32.54805]}},{"type":"feature","properties":{"country_en":"Israel","name":"Zarit","name_adm0":"Israel","name_adm1":"Northern","name_en":"Zarit"},"geometry":{"type":"Point","coordinates":[35.2889,33.09955]}},{"type":"feature","properties":{"country_en":"Israel","name":"Zavdi'el","name_adm0":"Israel","name_adm1":"Southern","name_en":"Zavdi'el"},"geometry":{"type":"Point","coordinates":[34.7612,31.65837]}},{"type":"feature","properties":{"country_en":"Israel","name":"Zekher Dov","name_adm0":"Israel","name_adm1":"Central","name_en":"Zekher Dov"},"geometry":{"type":"Point","coordinates":[34.73333,31.81667]}},{"type":"feature","properties":{"country_en":"Israel","name":"Zerua","name_adm0":"Israel","name_adm1":"Southern","name_en":"Zerua"},"geometry":{"type":"Point","coordinates":[34.62409,31.45929]}},{"type":"feature","properties":{"country_en":"Israel","name":"Zeviyya","name_adm0":"Israel","name_adm1":"Northern","name_en":"Zeviyya"},"geometry":{"type":"Point","coordinates":[35.33196,32.89017]}},{"type":"feature","properties":{"country_en":"Israel","name":"Zimrat","name_adm0":"Israel","name_adm1":"Southern","name_en":"Zimrat"},"geometry":{"type":"Point","coordinates":[34.55401,31.447839999999996]}},{"type":"feature","properties":{"country_en":"Israel","name":"Zohar","name_adm0":"Israel","name_adm1":"Southern","name_en":"Zohar"},"geometry":{"type":"Point","coordinates":[34.69263,31.59547]}},{"type":"feature","properties":{"country_en":"Israel","name":"Zur Natan","name_adm0":"Israel","name_adm1":"Central","name_en":"Zur Natan"},"geometry":{"type":"Point","coordinates":[35.013169999999995,32.24091]}},{"type":"feature","properties":{"country_en":"Israel","name":"Zuri'el","name_adm0":"Israel","name_adm1":"Northern","name_en":"Zuri'el"},"geometry":{"type":"Point","coordinates":[35.31398,33.00571]}},{"type":"feature","properties":{"country_en":"Israel","name":"Mivtahim","name_adm0":"Israel","name_adm1":"Southern","name_en":"Mivtahim"},"geometry":{"type":"Point","coordinates":[34.40761,31.24174]}},{"type":"feature","properties":{"country_en":"Israel","name":"En Yahav","name_adm0":"Israel","name_adm1":"Southern","name_en":"En Yahav"},"geometry":{"type":"Point","coordinates":[35.23745999999999,30.65817]}},{"type":"feature","properties":{"country_en":"Israel","name":"Nir Yizhaq","name_adm0":"Israel","name_adm1":"Southern","name_en":"Nir Yizhaq"},"geometry":{"type":"Point","coordinates":[34.35743,31.23739]}},{"type":"feature","properties":{"country_en":"Israel","name":"Rama","name_adm0":"Israel","name_adm1":"Northern","name_en":"Rama"},"geometry":{"type":"Point","coordinates":[35.3675,32.93844]}},{"type":"feature","properties":{"country_en":"Israel","name":"En HaNaziv","name_adm0":"Israel","name_adm1":"Northern","name_en":"En HaNaziv"},"geometry":{"type":"Point","coordinates":[35.50242,32.47037]}},{"type":"feature","properties":{"country_en":"Israel","name":"Shikun Rasko","name_adm0":"Israel","name_adm1":"Jerusalem","name_en":"Shikun Rasko"},"geometry":{"type":"Point","coordinates":[35.203857,31.768862]}},{"type":"feature","properties":{"country_en":"Israel","name":"Israel","name_adm0":"Israel","name_en":"Israel"},"geometry":{"type":"Point","coordinates":[35.36124,31.389299]}},{"type":"feature","properties":{"country_en":"Israel","name":"Mizpe Ramon","name_adm0":"Israel","name_adm1":"Southern","name_en":"Mizpe Ramon"},"geometry":{"type":"Point","coordinates":[34.80111,30.609439999999996]}},{"type":"feature","properties":{"country_en":"Israel","name":"Elyakhin","name_adm0":"Israel","name_adm1":"Central","name_en":"Elyakhin"},"geometry":{"type":"Point","coordinates":[34.92433,32.40793]}},{"type":"feature","properties":{"country_en":"Israel","name":"En HaHoresh","name_adm0":"Israel","name_adm1":"Central","name_en":"En HaHoresh"},"geometry":{"type":"Point","coordinates":[34.93967,32.38628]}},{"type":"feature","properties":{"country_en":"Israel","name":"Bustan HaGalil","name_adm0":"Israel","name_adm1":"Northern","name_en":"Bustan HaGalil"},"geometry":{"type":"Point","coordinates":[35.08075999999999,32.95385]}},{"type":"feature","properties":{"country_en":"Israel","name":"Nes Harim","name_adm0":"Israel","name_adm1":"Jerusalem","name_en":"Nes Harim"},"geometry":{"type":"Point","coordinates":[35.0574,31.745470000000005]}},{"type":"feature","properties":{"country_en":"Israel","name":"Netiv HaLamed He","name_adm0":"Israel","name_adm1":"Jerusalem","name_en":"Netiv HaLamed He"},"geometry":{"type":"Point","coordinates":[34.98272,31.68755]}},{"type":"feature","properties":{"country_en":"Israel","name":"Newe Yam","name_adm0":"Israel","name_adm1":"Haifa","name_en":"Newe Yam"},"geometry":{"type":"Point","coordinates":[34.93294,32.68121]}},{"type":"feature","properties":{"country_en":"Israel","name":"Tarum","name_adm0":"Israel","name_adm1":"Jerusalem","name_en":"Tarum"},"geometry":{"type":"Point","coordinates":[34.98096,31.782889999999995]}},{"type":"feature","properties":{"country_en":"Israel","name":"Yagur","name_adm0":"Israel","name_adm1":"Haifa","name_en":"Yagur"},"geometry":{"type":"Point","coordinates":[35.0774,32.7421]}},{"type":"feature","properties":{"country_en":"Israel","name":"Or Haganouz","name_adm0":"Israel","name_adm1":"Northern","name_en":"Or Haganouz"},"geometry":{"type":"Point","coordinates":[35.44691,33.00513999999999]}},{"type":"feature","properties":{"country_en":"Israel","name":"Vered Hagalil","name_adm0":"Israel","name_adm1":"Northern","name_en":"Vered Hagalil"},"geometry":{"type":"Point","coordinates":[35.54992,32.90421]}},{"type":"feature","properties":{"country_en":"Israel","name":"Zikhron Yaaqov","name_adm0":"Israel","name_adm1":"Haifa","name_en":"Zikhron Yaaqov"},"geometry":{"type":"Point","coordinates":[34.95628,32.56645]}},{"type":"feature","properties":{"country_en":"Israel","name":"Afula","name_adm0":"Israel","name_adm1":"Northern","name_en":"Afula"},"geometry":{"type":"Point","coordinates":[35.28947,32.60954999999999]}},{"type":"feature","properties":{"country_en":"Israel","name":"Bet HaKerem","name_adm0":"Israel","name_adm1":"Jerusalem","name_en":"Bet HaKerem"},"geometry":{"type":"Point","coordinates":[35.19004,31.779529999999998]}},{"type":"feature","properties":{"country_en":"Israel","name":"Bet HaGaddi","name_adm0":"Israel","name_adm1":"Southern","name_en":"Bet HaGaddi"},"geometry":{"type":"Point","coordinates":[34.60600999999999,31.425159999999998]}},{"type":"feature","properties":{"country_en":"Israel","name":"Gonen","name_adm0":"Israel","name_adm1":"Northern","name_en":"Gonen"},