{"type":"FeatureCollection","features":[{"type":"feature","properties":{"country_en":"Kenya","name":"Nakuru","name_adm0":"Kenya","name_adm1":"Rift Valley","name_en":"Nakuru"},"geometry":{"type":"Point","coordinates":[36.06667,-0.28333]}},{"type":"feature","properties":{"country_en":"Kenya","name":"Kendu Bay","name_adm0":"Kenya","name_adm1":"Nyanza","name_en":"Kendu Bay"},"geometry":{"type":"Point","coordinates":[34.64924,-0.35892]}},{"type":"feature","properties":{"country_en":"Kenya","name":"Kikoko","name_adm0":"Kenya","name_adm1":"Eastern","name_en":"Kikoko"},"geometry":{"type":"Point","coordinates":[37.39478,-1.80867]}},{"type":"feature","properties":{"country_en":"Kenya","name":"Chebiemit","name_adm0":"Kenya","name_adm1":"Rift Valley","name_en":"Chebiemit"},"geometry":{"type":"Point","coordinates":[35.50171,0.85371]}},{"type":"feature","properties":{"country_en":"Kenya","name":"Chemoigut","name_adm0":"Kenya","name_adm1":"Rift Valley","name_en":"Chemoigut"},"geometry":{"type":"Point","coordinates":[36.2163,0.67995]}},{"type":"feature","properties":{"country_en":"Kenya","name":"Mado Gashi","name_adm0":"Kenya","name_adm1":"Eastern","name_en":"Mado Gashi"},"geometry":{"type":"Point","coordinates":[39.17341,0.72805]}},{"type":"feature","properties":{"country_en":"Kenya","name":"Maragi One","name_adm0":"Kenya","name_adm1":"Central","name_en":"Maragi One"},"geometry":{"type":"Point","coordinates":[37.11667,-0.73333]}},{"type":"feature","properties":{"country_en":"Kenya","name":"Turi","name_adm0":"Kenya","name_adm1":"Rift Valley","name_en":"Turi"},"geometry":{"type":"Point","coordinates":[35.76118,-0.27922]}},{"type":"feature","properties":{"country_en":"Kenya","name":"Uhuru","name_adm0":"Kenya","name_adm1":"Nairobi Area","name_en":"Uhuru"},"geometry":{"type":"Point","coordinates":[36.86667,-1.28333]}},{"type":"feature","properties":{"country_en":"Kenya","name":"Upper Hill","name_adm0":"Kenya","name_adm1":"Nairobi Area","name_en":"Upper Hill"},"geometry":{"type":"Point","coordinates":[36.78333,-1.28333]}},{"type":"feature","properties":{"country_en":"Kenya","name":"Kiganjo","name_adm0":"Kenya","name_adm1":"Central","name_en":"Kiganjo"},"geometry":{"type":"Point","coordinates":[36.83333,-0.9833299999999999]}},{"type":"feature","properties":{"country_en":"Kenya","name":"Kigongo","name_adm0":"Kenya","name_adm1":"Central","name_en":"Kigongo"},"geometry":{"type":"Point","coordinates":[37.13333,-0.6499999999999999]}},{"type":"feature","properties":{"country_en":"Kenya","name":"Kigumo","name_adm0":"Kenya","name_adm1":"Central","name_en":"Kigumo"},"geometry":{"type":"Point","coordinates":[36.83333,-1.03333]}},{"type":"feature","properties":{"country_en":"Kenya","name":"Mgange","name_adm0":"Kenya","name_adm1":"Coast","name_en":"Mgange"},"geometry":{"type":"Point","coordinates":[38.31667,-3.38333]}},{"type":"feature","properties":{"country_en":"Kenya","name":"Mugumoini","name_adm0":"Kenya","name_adm1":"Central","name_en":"Mugumoini"},"geometry":{"type":"Point","coordinates":[37.36666999999999,-0.63333]}},{"type":"feature","properties":{"country_en":"Kenya","name":"Asembo","name_adm0":"Kenya","name_adm1":"Nyanza","name_en":"Asembo"},"geometry":{"type":"Point","coordinates":[34.38552,-0.18138999999999997]}},{"type":"feature","properties":{"country_en":"Kenya","name":"Entasekera","name_adm0":"Kenya","name_adm1":"Rift Valley","name_en":"Entasekera"},"geometry":{"type":"Point","coordinates":[35.84928,-1.852]}},{"type":"feature","properties":{"country_en":"Kenya","name":"Dembwa","name_adm0":"Kenya","name_adm1":"Coast","name_en":"Dembwa"},"geometry":{"type":"Point","coordinates":[38.36667,-3.45]}},{"type":"feature","properties":{"country_en":"Kenya","name":"Don Dol","name_adm0":"Kenya","name_adm1":"Rift Valley","name_en":"Don Dol"},"geometry":{"type":"Point","coordinates":[37.16299,0.39608]}},{"type":"feature","properties":{"country_en":"Kenya","name":"Dudi","name_adm0":"Kenya","name_adm1":"Nyanza","name_en":"Dudi"},"geometry":{"type":"Point","coordinates":[34.58333,-0.8]}},{"type":"feature","properties":{"country_en":"Kenya","name":"Kongelai","name_adm0":"Kenya","name_adm1":"Rift Valley","name_en":"Kongelai"},"geometry":{"type":"Point","coordinates":[35.01366,1.4801199999999999]}},{"type":"feature","properties":{"country_en":"Kenya","name":"Magunga","name_adm0":"Kenya","name_adm1":"Nyanza","name_en":"Magunga"},"geometry":{"type":"Point","coordinates":[34.15046,-0.68886]}},{"type":"feature","properties":{"country_en":"Kenya","name":"Makindu","name_adm0":"Kenya","name_adm1":"Eastern","name_en":"Makindu"},"geometry":{"type":"Point","coordinates":[37.82654,-2.28524]}},{"type":"feature","properties":{"country_en":"Kenya","name":"Magwagwa","name_adm0":"Kenya","name_adm1":"Nyanza","name_en":"Magwagwa"},"geometry":{"type":"Point","coordinates":[35.02418,-0.48085]}},{"type":"feature","properties":{"country_en":"Kenya","name":"Muthara","name_adm0":"Kenya","name_adm1":"Eastern","name_en":"Muthara"},"geometry":{"type":"Point","coordinates":[37.7978,0.22267]}},{"type":"feature","properties":{"country_en":"Kenya","name":"Nairobi Hill","name_adm0":"Kenya","name_adm1":"Nairobi Area","name_en":"Nairobi Hill"},"geometry":{"type":"Point","coordinates":[36.81667,-1.2999999999999998]}},{"type":"feature","properties":{"country_en":"Kenya","name":"Muthinga","name_adm0":"Kenya","name_adm1":"Central","name_en":"Muthinga"},"geometry":{"type":"Point","coordinates":[37.01667,-0.5]}},{"type":"feature","properties":{"country_en":"Kenya","name":"Waa","name_adm0":"Kenya","name_adm1":"Coast","name_en":"Waa"},"geometry":{"type":"Point","coordinates":[39.60279,-4.16994]}},{"type":"feature","properties":{"country_en":"Kenya","name":"Waithaka","name_adm0":"Kenya","name_adm1":"Nairobi Area","name_en":"Waithaka"},"geometry":{"type":"Point","coordinates":[36.71667,-1.28333]}},{"type":"feature","properties":{"country_en":"Kenya","name":"Kapenguria","name_adm0":"Kenya","name_adm1":"Rift Valley","name_en":"Kapenguria"},"geometry":{"type":"Point","coordinates":[35.11667,1.23333]}},{"type":"feature","properties":{"country_en":"Kenya","name":"Lokichokio","name_adm0":"Kenya","name_adm1":"Rift Valley","name_en":"Lokichokio"},"geometry":{"type":"Point","coordinates":[34.36384,4.20711]}},{"type":"feature","properties":{"country_en":"Kenya","name":"Webuye","name_adm0":"Kenya","name_adm1":"Western","name_en":"Webuye"},"geometry":{"type":"Point","coordinates":[34.76966,0.60751]}},{"type":"feature","properties":{"country_en":"Kenya","name":"Bungoma","name_adm0":"Kenya","name_adm1":"Western","name_en":"Bungoma"},"geometry":{"type":"Point","coordinates":[34.56055,0.5634999999999999]}},{"type":"feature","properties":{"country_en":"Kenya","name":"Ukunda","name_adm0":"Kenya","name_adm1":"Coast","name_en":"Ukunda"},"geometry":{"type":"Point","coordinates":[39.56404,-4.2929]}},{"type":"feature","properties":{"country_en":"Kenya","name":"Mikinduri","name_adm0":"Kenya","name_adm1":"Eastern","name_en":"Mikinduri"},"geometry":{"type":"Point","coordinates":[37.83579,0.12308]}},{"type":"feature","properties":{"country_en":"Kenya","name":"Khorof Harar","name_adm0":"Kenya","name_adm1":"North-Eastern","name_en":"Khorof Harar"},"geometry":{"type":"Point","coordinates":[40.73962999999999,2.23268]}},{"type":"feature","properties":{"country_en":"Kenya","name":"Londiani","name_adm0":"Kenya","name_adm1":"Rift Valley","name_en":"Londiani"},"geometry":{"type":"Point","coordinates":[35.59086,-0.16495999999999997]}},{"type":"feature","properties":{"country_en":"Kenya","name":"Lower Kabete","name_adm0":"Kenya","name_adm1":"Central","name_en":"Lower Kabete"},"geometry":{"type":"Point","coordinates":[36.71667,-1.23333]}},{"type":"feature","properties":{"country_en":"Kenya","name":"Likoni","name_adm0":"Kenya","name_adm1":"Coast","name_en":"Likoni"},"geometry":{"type":"Point","coordinates":[39.66161,-4.08394]}},{"type":"feature","properties":{"country_en":"Kenya","name":"Nairobi Industrial Area","name_adm0":"Kenya","name_adm1":"Nairobi Area","name_en":"Nairobi Industrial Area"},"geometry":{"type":"Point","coordinates":[36.83333,-1.2999999999999998]}},{"type":"feature","properties":{"country_en":"Kenya","name":"Ishiara","name_adm0":"Kenya","name_adm1":"Eastern","name_en":"Ishiara"},"geometry":{"type":"Point","coordinates":[37.78948,-0.45056]}},{"type":"feature","properties":{"country_en":"Kenya","name":"Kapsakwony","name_adm0":"Kenya","name_adm1":"Western","name_en":"Kapsakwony"},"geometry":{"type":"Point","coordinates":[34.71347,0.84253]}},{"type":"feature","properties":{"country_en":"Kenya","name":"Watamu","name_adm0":"Kenya","name_adm1":"Coast","name_en":"Watamu"},"geometry":{"type":"Point","coordinates":[40.02086,-3.35429]}},{"type":"feature","properties":{"country_en":"Kenya","name":"Mbita","name_adm0":"Kenya","name_adm1":"Nyanza","name_en":"Mbita"},"geometry":{"type":"Point","coordinates":[34.20168,-0.4159999999999999]}},{"type":"feature","properties":{"country_en":"Kenya","name":"Mbotela","name_adm0":"Kenya","name_adm1":"Nairobi Area","name_en":"Mbotela"},"geometry":{"type":"Point","coordinates":[36.86667,-1.2999999999999998]}},{"type":"feature","properties":{"country_en":"Kenya","name":"Rumuruti","name_adm0":"Kenya","name_adm1":"Rift Valley","name_en":"Rumuruti"},"geometry":{"type":"Point","coordinates":[36.53886,0.26698999999999995]}},{"type":"feature","properties":{"country_en":"Kenya","name":"Changamwe","name_adm0":"Kenya","name_adm1":"Coast","name_en":"Changamwe"},"geometry":{"type":"Point","coordinates":[39.62892999999999,-4.016589999999999]}},{"type":"feature","properties":{"country_en":"Kenya","name":"Elmenteita","name_adm0":"Kenya","name_adm1":"Rift Valley","name_en":"Elmenteita"},"geometry":{"type":"Point","coordinates":[36.1575,-0.48697]}},{"type":"feature","properties":{"country_en":"Kenya","name":"Fort Hall","name_adm0":"Kenya","name_adm1":"Central","name_en":"Fort Hall"},"geometry":{"type":"Point","coordinates":[37.15,-0.71667]}},{"type":"feature","properties":{"country_en":"Kenya","name":"Kikuyu","name_adm0":"Kenya","name_adm1":"Central","name_en":"Kikuyu"},"geometry":{"type":"Point","coordinates":[36.66328,-1.24576]}},{"type":"feature","properties":{"country_en":"Kenya","name":"Mtito Andei","name_adm0":"Kenya","name_adm1":"Eastern","name_en":"Mtito Andei"},"geometry":{"type":"Point","coordinates":[38.16631,-2.6900899999999996]}},{"type":"feature","properties":{"country_en":"Kenya","name":"Nyali","name_adm0":"Kenya","name_adm1":"Coast","name_en":"Nyali"},"geometry":{"type":"Point","coordinates":[39.12816,-4.10598]}},{"type":"feature","properties":{"country_en":"Kenya","name":"Marsabit","name_adm0":"Kenya","name_adm1":"Eastern","name_en":"Marsabit"},"geometry":{"type":"Point","coordinates":[37.98986,2.3283899999999997]}},{"type":"feature","properties":{"country_en":"Kenya","name":"Brackenhurst","name_adm0":"Kenya","name_adm1":"Central","name_en":"Brackenhurst"},"geometry":{"type":"Point","coordinates":[36.650217999999995,-1.099252]}},{"type":"feature","properties":{"country_en":"Kenya","name":"Racecourse Road","name_adm0":"Kenya","name_adm1":"Nairobi Area","name_en":"Racecourse Road"},"geometry":{"type":"Point","coordinates":[36.837157999999995,-1.343985]}},{"type":"feature","properties":{"country_en":"Kenya","name":"Magina","name_adm0":"Kenya","name_adm1":"Central","name_en":"Magina"},"geometry":{"type":"Point","coordinates":[36.61386,-0.9483800000000001]}},{"type":"feature","properties":{"country_en":"Kenya","name":"Bartabwa","name_adm0":"Kenya","name_adm1":"Rift Valley","name_en":"Bartabwa"},"geometry":{"type":"Point","coordinates":[35.80991,0.83782]}},{"type":"feature","properties":{"country_en":"Kenya","name":"Chonye","name_adm0":"Kenya","name_adm1":"Coast","name_en":"Chonye"},"geometry":{"type":"Point","coordinates":[39.67906,-3.78059]}},{"type":"feature","properties":{"country_en":"Kenya","name":"Churo","name_adm0":"Kenya","name_adm1":"Rift Valley","name_en":"Churo"},"geometry":{"type":"Point","coordinates":[36.68971,-1.21712]}},{"type":"feature","properties":{"country_en":"Kenya","name":"Kaiboi","name_adm0":"Kenya","name_adm1":"Rift Valley","name_en":"Kaiboi"},"geometry":{"type":"Point","coordinates":[35.02044,0.41658]}},{"type":"feature","properties":{"country_en":"Kenya","name":"Kiawambogo","name_adm0":"Kenya","name_adm1":"Central","name_en":"Kiawambogo"},"geometry":{"type":"Point","coordinates":[36.88333,-0.66667]}},{"type":"feature","properties":{"country_en":"Kenya","name":"Nyeri","name_adm0":"Kenya","name_adm1":"Central","name_en":"Nyeri"},"geometry":{"type":"Point","coordinates":[36.94759,-0.42012999999999995]}},{"type":"feature","properties":{"country_en":"Kenya","name":"Migori","name_adm0":"Kenya","name_adm1":"Nyanza","name_en":"Migori"},"geometry":{"type":"Point","coordinates":[34.47313,-1.06344]}},{"type":"feature","properties":{"country_en":"Kenya","name":"Kilkoris","name_adm0":"Kenya","name_adm1":"Rift Valley","name_en":"Kilkoris"},"geometry":{"type":"Point","coordinates":[34.88062,-1.0077]}},{"type":"feature","properties":{"country_en":"Kenya","name":"Mirogi","name_adm0":"Kenya","name_adm1":"Nyanza","name_en":"Mirogi"},"geometry":{"type":"Point","coordinates":[34.39652,-0.70706]}},{"type":"feature","properties":{"country_en":"Kenya","name":"Lugulu","name_adm0":"Kenya","name_adm1":"Western","name_en":"Lugulu"},"geometry":{"type":"Point","coordinates":[34.30528,0.39361]}},{"type":"feature","properties":{"country_en":"Kenya","name":"Githiga","name_adm0":"Kenya","name_adm1":"Central","name_en":"Githiga"},"geometry":{"type":"Point","coordinates":[36.93333,-0.7]}},{"type":"feature","properties":{"country_en":"Kenya","name":"Madungoni","name_adm0":"Kenya","name_adm1":"Coast","name_en":"Madungoni"},"geometry":{"type":"Point","coordinates":[39.20937,-4.05654]}},{"type":"feature","properties":{"country_en":"Kenya","name":"Malikisi","name_adm0":"Kenya","name_adm1":"Western","name_en":"Malikisi"},"geometry":{"type":"Point","coordinates":[34.42167,0.67694]}},{"type":"feature","properties":{"country_en":"Kenya","name":"Gatitu","name_adm0":"Kenya","name_adm1":"Central","name_en":"Gatitu"},"geometry":{"type":"Point","coordinates":[36.8452,-1.00738]}},{"type":"feature","properties":{"country_en":"Kenya","name":"Kinari","name_adm0":"Kenya","name_adm1":"Central","name_en":"Kinari"},"geometry":{"type":"Point","coordinates":[36.63186,-0.9019199999999999]}},{"type":"feature","properties":{"country_en":"Kenya","name":"Chiokarige","name_adm0":"Kenya","name_adm1":"Eastern","name_en":"Chiokarige"},"geometry":{"type":"Point","coordinates":[37.92342,-0.2758]}},{"type":"feature","properties":{"country_en":"Kenya","name":"Buna","name_adm0":"Kenya","name_adm1":"North-Eastern","name_en":"Buna"},"geometry":{"type":"Point","coordinates":[39.50422,2.78818]}},{"type":"feature","properties":{"country_en":"Kenya","name":"Kalimoni","name_adm0":"Kenya","name_adm1":"Central","name_en":"Kalimoni"},"geometry":{"type":"Point","coordinates":[37.00908,-1.11616]}},{"type":"feature","properties":{"country_en":"Kenya","name":"Kinancha","name_adm0":"Kenya","name_adm1":"Nyanza","name_en":"Kinancha"},"geometry":{"type":"Point","coordinates":[34.62616,-1.1837599999999997]}},{"type":"feature","properties":{"country_en":"Kenya","name":"Kuchelebai","name_adm0":"Kenya","name_adm1":"Rift Valley","name_en":"Kuchelebai"},"geometry":{"type":"Point","coordinates":[35.01667,1.48333]}},{"type":"feature","properties":{"country_en":"Kenya","name":"Kimbimbi","name_adm0":"Kenya","name_adm1":"Central","name_en":"Kimbimbi"},"geometry":{"type":"Point","coordinates":[37.36573,-0.62177]}},{"type":"feature","properties":{"country_en":"Kenya","name":"Kimilili","name_adm0":"Kenya","name_adm1":"Western","name_en":"Kimilili"},"geometry":{"type":"Point","coordinates":[34.7193,0.78297]}},{"type":"feature","properties":{"country_en":"Kenya","name":"Kiminini","name_adm0":"Kenya","name_adm1":"Western","name_en":"Kiminini"},"geometry":{"type":"Point","coordinates":[34.92409,0.89312]}},{"type":"feature","properties":{"country_en":"Kenya","name":"Kinna","name_adm0":"Kenya","name_adm1":"Eastern","name_en":"Kinna"},"geometry":{"type":"Point","coordinates":[38.20354,0.32138]}},{"type":"feature","properties":{"country_en":"Kenya","name":"Outer Ring Road","name_adm0":"Kenya","name_adm1":"Nairobi Area","name_en":"Outer Ring Road"},"geometry":{"type":"Point","coordinates":[36.88333,-1.26667]}},{"type":"feature","properties":{"country_en":"Kenya","name":"Mitunguu","name_adm0":"Kenya","name_adm1":"Eastern","name_en":"Mitunguu"},"geometry":{"type":"Point","coordinates":[37.78084,-0.10778]}},{"type":"feature","properties":{"country_en":"Kenya","name":"Githunguri","name_adm0":"Kenya","name_adm1":"Central","name_en":"Githunguri"},"geometry":{"type":"Point","coordinates":[37.07838999999999,-0.9134]}},{"type":"feature","properties":{"country_en":"Kenya","name":"Kahuro","name_adm0":"Kenya","name_adm1":"Central","name_en":"Kahuro"},"geometry":{"type":"Point","coordinates":[37,-0.75]}},{"type":"feature","properties":{"country_en":"Kenya","name":"Emining","name_adm0":"Kenya","name_adm1":"Rift Valley","name_en":"Emining"},"geometry":{"type":"Point","coordinates":[35.89173999999999,0.14488]}},{"type":"feature","properties":{"country_en":"Kenya","name":"Giakaibii","name_adm0":"Kenya","name_adm1":"Central","name_en":"Giakaibii"},"geometry":{"type":"Point","coordinates":[37.15,-0.41667]}},{"type":"feature","properties":{"country_en":"Kenya","name":"Githagara","name_adm0":"Kenya","name_adm1":"Central","name_en":"Githagara"},"geometry":{"type":"Point","coordinates":[37.01667,-0.7666699999999999]}},{"type":"feature","properties":{"country_en":"Kenya","name":"Nyadorera","name_adm0":"Kenya","name_adm1":"Nyanza","name_en":"Nyadorera"},"geometry":{"type":"Point","coordinates":[34.1,0.11666999999999998]}},{"type":"feature","properties":{"country_en":"Kenya","name":"Nyangusu","name_adm0":"Kenya","name_adm1":"Nyanza","name_en":"Nyangusu"},"geometry":{"type":"Point","coordinates":[34.85081,-0.93018]}},{"type":"feature","properties":{"country_en":"Kenya","name":"Olololong'a","name_adm0":"Kenya","name_adm1":"Rift Valley","name_en":"Olololong'a"},"geometry":{"type":"Point","coordinates":[35.666669999999996,-1]}},{"type":"feature","properties":{"country_en":"Kenya","name":"Rabour","name_adm0":"Kenya","name_adm1":"Nyanza","name_en":"Rabour"},"geometry":{"type":"Point","coordinates":[34.8249,-0.14958]}},{"type":"feature","properties":{"country_en":"Kenya","name":"Rironi","name_adm0":"Kenya","name_adm1":"Central","name_en":"Rironi"},"geometry":{"type":"Point","coordinates":[36.63715,-1.15187]}},{"type":"feature","properties":{"country_en":"Kenya","name":"Thomsons Falls","name_adm0":"Kenya","name_adm1":"Rift Valley","name_en":"Thomsons Falls"},"geometry":{"type":"Point","coordinates":[36.369458,0.044358]}},{"type":"feature","properties":{"country_en":"Kenya","name":"Benane","name_adm0":"Kenya","name_adm1":"Eastern","name_en":"Benane"},"geometry":{"type":"Point","coordinates":[38.66667,0.5]}},{"type":"feature","properties":{"country_en":"Kenya","name":"Takaba","name_adm0":"Kenya","name_adm1":"North-Eastern","name_en":"Takaba"},"geometry":{"type":"Point","coordinates":[40.22278,3.35528]}},{"type":"feature","properties":{"country_en":"Kenya","name":"Oyugis","name_adm0":"Kenya","name_adm1":"Nyanza","name_en":"Oyugis"},"geometry":{"type":"Point","coordinates":[34.73583,-0.50898]}},{"type":"feature","properties":{"country_en":"Kenya","name":"Nandi Hills","name_adm0":"Kenya","name_adm1":"Rift Valley","name_en":"Nandi Hills"},"geometry":{"type":"Point","coordinates":[35.18377999999999,0.1066]}},{"type":"feature","properties":{"country_en":"Kenya","name":"Maua","name_adm0":"Kenya","name_adm1":"Eastern","name_en":"Maua"},"geometry":{"type":"Point","coordinates":[37.94052,0.23206]}},{"type":"feature","properties":{"country_en":"Kenya","name":"Luanda","name_adm0":"Kenya","name_adm1":"Western","name_en":"Luanda"},"geometry":{"type":"Point","coordinates":[34.06459,0.29668]}},{"type":"feature","properties":{"country_en":"Kenya","name":"Kiambu","name_adm0":"Kenya","name_adm1":"Central","name_en":"Kiambu"},"geometry":{"type":"Point","coordinates":[36.83333,-1.16667]}},{"type":"feature","properties":{"country_en":"Kenya","name":"Kangundo","name_adm0":"Kenya","name_adm1":"Eastern","name_en":"Kangundo"},"geometry":{"type":"Point","coordinates":[37.34705,-1.29792]}},{"type":"feature","properties":{"country_en":"Kenya","name":"Kangema","name_adm0":"Kenya","name_adm1":"Central","name_en":"Kangema"},"geometry":{"type":"Point","coordinates":[36.96667,-0.68333]}},{"type":"feature","properties":{"country_en":"Kenya","name":"Chepareria","name_adm0":"Kenya","name_adm1":"Rift Valley","name_en":"Chepareria"},"geometry":{"type":"Point","coordinates":[35.2039,1.30774]}},{"type":"feature","properties":{"country_en":"Kenya","name":"Port Victoria","name_adm0":"Kenya","name_adm1":"Western","name_en":"Port Victoria"},"geometry":{"type":"Point","coordinates":[33.97559,0.09387999999999999]}},{"type":"feature","properties":{"country_en":"Kenya","name":"Maralal","name_adm0":"Kenya","name_adm1":"Rift Valley","name_en":"Maralal"},"geometry":{"type":"Point","coordinates":[36.69799,1.09679]}},{"type":"feature","properties":{"country_en":"Kenya","name":"Sirisia","name_adm0":"Kenya","name_adm1":"Western","name_en":"Sirisia"},"geometry":{"type":"Point","coordinates":[34,0.11666999999999998]}},{"type":"feature","properties":{"country_en":"Kenya","name":"Gatunga","name_adm0":"Kenya","name_adm1":"Eastern","name_en":"Gatunga"},"geometry":{"type":"Point","coordinates":[38.01080999999999,-0.10095]}},{"type":"feature","properties":{"country_en":"Kenya","name":"Otiende","name_adm0":"Kenya","name_adm1":"Nairobi Area","name_en":"Otiende"},"geometry":{"type":"Point","coordinates":[36.78346,-1.31645]}},{"type":"feature","properties":{"country_en":"Kenya","name":"Wamagana","name_adm0":"Kenya","name_adm1":"Central","name_en":"Wamagana"},"geometry":{"type":"Point","coordinates":[36.93057,-0.47612]}},{"type":"feature","properties":{"country_en":"Kenya","name":"Wamwangi","name_adm0":"Kenya","name_adm1":"Central","name_en":"Wamwangi"},"geometry":{"type":"Point","coordinates":[36.91667,-1]}},{"type":"feature","properties":{"country_en":"Kenya","name":"Gituamba","name_adm0":"Kenya","name_adm1":"Central","name_en":"Gituamba"},"geometry":{"type":"Point","coordinates":[36.98333,-0.9333299999999999]}},{"type":"feature","properties":{"country_en":"Kenya","name":"Nunguni","name_adm0":"Kenya","name_adm1":"Eastern","name_en":"Nunguni"},"geometry":{"type":"Point","coordinates":[37.36666999999999,-1.8]}},{"type":"feature","properties":{"country_en":"Kenya","name":"Moyale","name_adm0":"Kenya","name_adm1":"Eastern","name_en":"Moyale"},"geometry":{"type":"Point","coordinates":[39.05472,3.5216]}},{"type":"feature","properties":{"country_en":"Kenya","name":"Mandera","name_adm0":"Kenya","name_adm1":"North-Eastern","name_en":"Mandera"},"geometry":{"type":"Point","coordinates":[41.86700999999999,3.9366299999999996]}},{"type":"feature","properties":{"country_en":"Kenya","name":"Bokoli","name_adm0":"Kenya","name_adm1":"Western","name_en":"Bokoli"},"geometry":{"type":"Point","coordinates":[34.5525,1.58778]}},{"type":"feature","properties":{"country_en":"Kenya","name":"Kabiyet","name_adm0":"Kenya","name_adm1":"Rift Valley","name_en":"Kabiyet"},"geometry":{"type":"Point","coordinates":[35.086169999999996,0.40224]}},{"type":"feature","properties":{"country_en":"Kenya","name":"Ndhiwa","name_adm0":"Kenya","name_adm1":"Nyanza","name_en":"Ndhiwa"},"geometry":{"type":"Point","coordinates":[34.36483,-0.7286299999999999]}},{"type":"feature","properties":{"country_en":"Kenya","name":"Karungu","name_adm0":"Kenya","name_adm1":"Nyanza","name_en":"Karungu"},"geometry":{"type":"Point","coordinates":[34.15478999999999,-0.8464099999999999]}},{"type":"feature","properties":{"country_en":"Kenya","name":"Ilbisil","name_adm0":"Kenya","name_adm1":"Rift Valley","name_en":"Ilbisil"},"geometry":{"type":"Point","coordinates":[36.79511,-2.08844]}},{"type":"feature","properties":{"country_en":"Kenya","name":"Mtembur","name_adm0":"Kenya","name_adm1":"Rift Valley","name_en":"Mtembur"},"geometry":{"type":"Point","coordinates":[35.04847,1.3529799999999998]}},{"type":"feature","properties":{"country_en":"Kenya","name":"Kiamariga","name_adm0":"Kenya","name_adm1":"Central","name_en":"Kiamariga"},"geometry":{"type":"Point","coordinates":[37.07928,-0.38588]}},{"type":"feature","properties":{"country_en":"Kenya","name":"Kagumo","name_adm0":"Kenya","name_adm1":"Central","name_en":"Kagumo"},"geometry":{"type":"Point","coordinates":[36.99068,-0.53444]}},{"type":"feature","properties":{"country_en":"Kenya","name":"Bartolimo","name_adm0":"Kenya","name_adm1":"Rift Valley","name_en":"Bartolimo"},"geometry":{"type":"Point","coordinates":[35.82102,0.6842]}},{"type":"feature","properties":{"country_en":"Kenya","name":"Nairobi South","name_adm0":"Kenya","name_adm1":"Nairobi Area","name_en":"Nairobi South"},"geometry":{"type":"Point","coordinates":[36.83333,-1.31667]}},{"type":"feature","properties":{"country_en":"Kenya","name":"Malaba","name_adm0":"Kenya","name_adm1":"Western","name_en":"Malaba"},"geometry":{"type":"Point","coordinates":[34.2756,0.63457]}},{"type":"feature","properties":{"country_en":"Kenya","name":"Westlands","name_adm0":"Kenya","name_adm1":"Nairobi Area","name_en":"Westlands"},"geometry":{"type":"Point","coordinates":[36.8,-1.26667]}},{"type":"feature","properties":{"country_en":"Kenya","name":"Spring Valley","name_adm0":"Kenya","name_adm1":"Nairobi Area","name_en":"Spring Valley"},"geometry":{"type":"Point","coordinates":[36.78333,-1.2499999999999998]}},{"type":"feature","properties":{"country_en":"Kenya","name":"Western","name_adm0":"Kenya","name_adm1":"Western","name_en":"Western"},"geometry":{"type":"Point","coordinates":[34.58333,0.5]}},{"type":"feature","properties":{"country_en":"Kenya","name":"Pumwani","name_adm0":"Kenya","name_adm1":"Nairobi Area","name_en":"Pumwani"},"geometry":{"type":"Point","coordinates":[36.85,-1.28333]}},{"type":"feature","properties":{"country_en":"Kenya","name":"Kairi","name_adm0":"Kenya","name_adm1":"Central","name_en":"Kairi"},"geometry":{"type":"Point","coordinates":[36.83333,-1.08333]}},{"type":"feature","properties":{"country_en":"Kenya","name":"Kairo","name_adm0":"Kenya","name_adm1":"Central","name_en":"Kairo"},"geometry":{"type":"Point","coordinates":[36.86667,-0.6]}},{"type":"feature","properties":{"country_en":"Kenya","name":"Kamberua","name_adm0":"Kenya","name_adm1":"Central","name_en":"Kamberua"},"geometry":{"type":"Point","coordinates":[37.199999999999996,-0.73333]}},{"type":"feature","properties":{"country_en":"Kenya","name":"Eastern","name_adm0":"Kenya","name_adm1":"Eastern","name_en":"Eastern"},"geometry":{"type":"Point","coordinates":[38,0]}},{"type":"feature","properties":{"country_en":"Kenya","name":"Amakura","name_adm0":"Kenya","name_adm1":"Western","name_en":"Amakura"},"geometry":{"type":"Point","coordinates":[34.27365,0.56842]}},{"type":"feature","properties":{"country_en":"Kenya","name":"Boro","name_adm0":"Kenya","name_adm1":"Nyanza","name_en":"Boro"},"geometry":{"type":"Point","coordinates":[34.23638,0.08307]}},{"type":"feature","properties":{"country_en":"Kenya","name":"Kilaguni","name_adm0":"Kenya","name_adm1":"Coast","name_en":"Kilaguni"},"geometry":{"type":"Point","coordinates":[38.058928,-2.91021]}},{"type":"feature","properties":{"country_en":"Kenya","name":"Lake View Estate","name_adm0":"Kenya","name_adm1":"Rift Valley","name_en":"Lake View Estate"},"geometry":{"type":"Point","coordinates":[36.08333,-0.3]}},{"type":"feature","properties":{"country_en":"Kenya","name":"Koru","name_adm0":"Kenya","name_adm1":"Nyanza","name_en":"Koru"},"geometry":{"type":"Point","coordinates":[35.26635999999999,-0.18089]}},{"type":"feature","properties":{"country_en":"Kenya","name":"Broderick Falls","name_adm0":"Kenya","name_adm1":"Western","name_en":"Broderick Falls"},"geometry":{"type":"Point","coordinates":[34.76966,0.60751]}},{"type":"feature","properties":{"country_en":"Kenya","name":"Dadaab","name_adm0":"Kenya","name_adm1":"North-Eastern","name_en":"Dadaab"},"geometry":{"type":"Point","coordinates":[40.313987,0.08171]}},{"type":"feature","properties":{"country_en":"Kenya","name":"Oljoro Orok","name_adm0":"Kenya","name_adm1":"Central","name_en":"Oljoro Orok"},"geometry":{"type":"Point","coordinates":[36.36541,-0.07582]}},{"type":"feature","properties":{"country_en":"Kenya","name":"Embakasi","name_adm0":"Kenya","name_adm1":"Nairobi Area","name_en":"Embakasi"},"geometry":{"type":"Point","coordinates":[36.91667,-1.2999999999999998]}},{"type":"feature","properties":{"country_en":"Kenya","name":"Maragoli","name_adm0":"Kenya","name_adm1":"Western","name_en":"Maragoli"},"geometry":{"type":"Point","coordinates":[34.72085,0.10703]}},{"type":"feature","properties":{"country_en":"Kenya","name":"Marigat","name_adm0":"Kenya","name_adm1":"Rift Valley","name_en":"Marigat"},"geometry":{"type":"Point","coordinates":[35.987829999999995,0.47245]}},{"type":"feature","properties":{"country_en":"Kenya","name":"Benhard Estate","name_adm0":"Kenya","name_adm1":"Nairobi Area","name_en":"Benhard Estate"},"geometry":{"type":"Point","coordinates":[36.76667,-1.26667]}},{"type":"feature","properties":{"country_en":"Kenya","name":"Biretwo","name_adm0":"Kenya","name_adm1":"Rift Valley","name_en":"Biretwo"},"geometry":{"type":"Point","coordinates":[35.54404,0.5410999999999999]}},{"type":"feature","properties":{"country_en":"Kenya","name":"City Estate","name_adm0":"Kenya","name_adm1":"Nairobi Area","name_en":"City Estate"},"geometry":{"type":"Point","coordinates":[36.76667,-1.28333]}},{"type":"feature","properties":{"country_en":"Kenya","name":"Enangiperi","name_adm0":"Kenya","name_adm1":"Rift Valley","name_en":"Enangiperi"},"geometry":{"type":"Point","coordinates":[35.91098,-0.68116]}},{"type":"feature","properties":{"country_en":"Kenya","name":"Endarasha","name_adm0":"Kenya","name_adm1":"Rift Valley","name_en":"Endarasha"},"geometry":{"type":"Point","coordinates":[35.78333,-0.28333]}},{"type":"feature","properties":{"country_en":"Kenya","name":"Fort Ternan","name_adm0":"Kenya","name_adm1":"Rift Valley","name_en":"Fort Ternan"},"geometry":{"type":"Point","coordinates":[35.34255,-0.20014]}},{"type":"feature","properties":{"country_en":"Kenya","name":"Gacharageini","name_adm0":"Kenya","name_adm1":"Central","name_en":"Gacharageini"},"geometry":{"type":"Point","coordinates":[36.88333,-0.63333]}},{"type":"feature","properties":{"country_en":"Kenya","name":"Gituge","name_adm0":"Kenya","name_adm1":"Central","name_en":"Gituge"},"geometry":{"type":"Point","coordinates":[37.02238,-0.65131]}},{"type":"feature","properties":{"country_en":"Kenya","name":"Harambee","name_adm0":"Kenya","name_adm1":"Nairobi Area","name_en":"Harambee"},"geometry":{"type":"Point","coordinates":[36.86667,-1.28333]}},{"type":"feature","properties":{"country_en":"Kenya","name":"Ichichi","name_adm0":"Kenya","name_adm1":"Central","name_en":"Ichichi"},"geometry":{"type":"Point","coordinates":[36.84454,-0.70353]}},{"type":"feature","properties":{"country_en":"Kenya","name":"Ihithe","name_adm0":"Kenya","name_adm1":"Central","name_en":"Ihithe"},"geometry":{"type":"Point","coordinates":[36.86667,-0.48333]}},{"type":"feature","properties":{"country_en":"Kenya","name":"Ikalaasa","name_adm0":"Kenya","name_adm1":"Eastern","name_en":"Ikalaasa"},"geometry":{"type":"Point","coordinates":[37.66667,-1.53333]}},{"type":"feature","properties":{"country_en":"Kenya","name":"Kagio","name_adm0":"Kenya","name_adm1":"Central","name_en":"Kagio"},"geometry":{"type":"Point","coordinates":[37.25521,-0.62289]}},{"type":"feature","properties":{"country_en":"Kenya","name":"Kagunduini","name_adm0":"Kenya","name_adm1":"Central","name_en":"Kagunduini"},"geometry":{"type":"Point","coordinates":[37.05,-0.9]}},{"type":"feature","properties":{"country_en":"Kenya","name":"Kahuhia","name_adm0":"Kenya","name_adm1":"Central","name_en":"Kahuhia"},"geometry":{"type":"Point","coordinates":[37.05,-0.71667]}},{"type":"feature","properties":{"country_en":"Kenya","name":"Kamwaura","name_adm0":"Kenya","name_adm1":"Rift Valley","name_en":"Kamwaura"},"geometry":{"type":"Point","coordinates":[35.58333,-0.43332999999999994]}},{"type":"feature","properties":{"country_en":"Kenya","name":"Kangeta","name_adm0":"Kenya","name_adm1":"Eastern","name_en":"Kangeta"},"geometry":{"type":"Point","coordinates":[37.88509,0.27546999999999994]}},{"type":"feature","properties":{"country_en":"Kenya","name":"Kanjuku","name_adm0":"Kenya","name_adm1":"Central","name_en":"Kanjuku"},"geometry":{"type":"Point","coordinates":[36.88333,-0.95]}},{"type":"feature","properties":{"country_en":"Kenya","name":"Kanyenyeini","name_adm0":"Kenya","name_adm1":"Central","name_en":"Kanyenyeini"},"geometry":{"type":"Point","coordinates":[36.88333,-0.68333]}},{"type":"feature","properties":{"country_en":"Kenya","name":"Kanywambora","name_adm0":"Kenya","name_adm1":"Eastern","name_en":"Kanywambora"},"geometry":{"type":"Point","coordinates":[37.7195,-0.46292999999999995]}},{"type":"feature","properties":{"country_en":"Kenya","name":"Kasikeu","name_adm0":"Kenya","name_adm1":"Eastern","name_en":"Kasikeu"},"geometry":{"type":"Point","coordinates":[37.38576,-1.94943]}},{"type":"feature","properties":{"country_en":"Kenya","name":"Kaweru","name_adm0":"Kenya","name_adm1":"Central","name_en":"Kaweru"},"geometry":{"type":"Point","coordinates":[37.1,-0.6499999999999999]}},{"type":"feature","properties":{"country_en":"Kenya","name":"Kedowa","name_adm0":"Kenya","name_adm1":"Rift Valley","name_en":"Kedowa"},"geometry":{"type":"Point","coordinates":[35.55621,-0.23299]}},{"type":"feature","properties":{"country_en":"Kenya","name":"Kerie","name_adm0":"Kenya","name_adm1":"Eastern","name_en":"Kerie"},"geometry":{"type":"Point","coordinates":[37.77766,-0.57805]}},{"type":"feature","properties":{"country_en":"Kenya","name":"Kevote","name_adm0":"Kenya","name_adm1":"Eastern","name_en":"Kevote"},"geometry":{"type":"Point","coordinates":[37.53488,-0.43694]}},{"type":"feature","properties":{"country_en":"Kenya","name":"Kiambere","name_adm0":"Kenya","name_adm1":"Eastern","name_en":"Kiambere"},"geometry":{"type":"Point","coordinates":[37.7916,-0.6922]}},{"type":"feature","properties":{"country_en":"Kenya","name":"Kiamuringa","name_adm0":"Kenya","name_adm1":"Eastern","name_en":"Kiamuringa"},"geometry":{"type":"Point","coordinates":[37.53179,-0.56976]}},{"type":"feature","properties":{"country_en":"Kenya","name":"Kiamuturi","name_adm0":"Kenya","name_adm1":"Central","name_en":"Kiamuturi"},"geometry":{"type":"Point","coordinates":[36.84395,-0.61295]}},{"type":"feature","properties":{"country_en":"Kenya","name":"Kianyaga","name_adm0":"Kenya","name_adm1":"Central","name_en":"Kianyaga"},"geometry":{"type":"Point","coordinates":[37.35645,-0.49271]}},{"type":"feature","properties":{"country_en":"Kenya","name":"Kiatineni","name_adm0":"Kenya","name_adm1":"Eastern","name_en":"Kiatineni"},"geometry":{"type":"Point","coordinates":[37.36666999999999,-1.55]}},{"type":"feature","properties":{"country_en":"Kenya","name":"Kibugu","name_adm0":"Kenya","name_adm1":"Eastern","name_en":"Kibugu"},"geometry":{"type":"Point","coordinates":[37.43706,-0.4448599999999999]}},{"type":"feature","properties":{"country_en":"Kenya","name":"Kihoya","name_adm0":"Kenya","name_adm1":"Central","name_en":"Kihoya"},"geometry":{"type":"Point","coordinates":[36.9,-0.6499999999999999]}},{"type":"feature","properties":{"country_en":"Kenya","name":"Kiptagich","name_adm0":"Kenya","name_adm1":"Rift Valley","name_en":"Kiptagich"},"geometry":{"type":"Point","coordinates":[35.8,0.38333]}},{"type":"feature","properties":{"country_en":"Kenya","name":"Kiptere","name_adm0":"Kenya","name_adm1":"Rift Valley","name_en":"Kiptere"},"geometry":{"type":"Point","coordinates":[35.1,-0.4]}},{"type":"feature","properties":{"country_en":"Kenya","name":"Kiritiri","name_adm0":"Kenya","name_adm1":"Eastern","name_en":"Kiritiri"},"geometry":{"type":"Point","coordinates":[37.64721,-0.68654]}},{"type":"feature","properties":{"country_en":"Kenya","name":"Kitandi","name_adm0":"Kenya","name_adm1":"Eastern","name_en":"Kitandi"},"geometry":{"type":"Point","coordinates":[37.33607,-1.74973]}},{"type":"feature","properties":{"country_en":"Kenya","name":"Magado","name_adm0":"Kenya","name_adm1":"Eastern","name_en":"Magado"},"geometry":{"type":"Point","coordinates":[38.05174,0.61484]}},{"type":"feature","properties":{"country_en":"Kenya","name":"Marua","name_adm0":"Kenya","name_adm1":"Central","name_en":"Marua"},"geometry":{"type":"Point","coordinates":[37.045199999999994,-0.4545]}},{"type":"feature","properties":{"country_en":"Kenya","name":"Mataara","name_adm0":"Kenya","name_adm1":"Central","name_en":"Mataara"},"geometry":{"type":"Point","coordinates":[36.8,-0.86667]}},{"type":"feature","properties":{"country_en":"Kenya","name":"Miu","name_adm0":"Kenya","name_adm1":"Eastern","name_en":"Miu"},"geometry":{"type":"Point","coordinates":[37.57521,-1.52159]}},{"type":"feature","properties":{"country_en":"Kenya","name":"Ndonga","name_adm0":"Kenya","name_adm1":"Central","name_en":"Ndonga"},"geometry":{"type":"Point","coordinates":[37.06667,-0.86667]}},{"type":"feature","properties":{"country_en":"Kenya","name":"Ngecha","name_adm0":"Kenya","name_adm1":"Central","name_en":"Ngecha"},"geometry":{"type":"Point","coordinates":[36.66907,-1.16897]}},{"type":"feature","properties":{"country_en":"Kenya","name":"Nginyang","name_adm0":"Kenya","name_adm1":"Rift Valley","name_en":"Nginyang"},"geometry":{"type":"Point","coordinates":[36.01499,0.9450699999999999]}},{"type":"feature","properties":{"country_en":"Kenya","name":"Nguni","name_adm0":"Kenya","name_adm1":"Eastern","name_en":"Nguni"},"geometry":{"type":"Point","coordinates":[37.96089,-1.50751]}},{"type":"feature","properties":{"country_en":"Kenya","name":"Okia","name_adm0":"Kenya","name_adm1":"Eastern","name_en":"Okia"},"geometry":{"type":"Point","coordinates":[37.50401,-1.76555]}},{"type":"feature","properties":{"country_en":"Kenya","name":"Olngarua","name_adm0":"Kenya","name_adm1":"Rift Valley","name_en":"Olngarua"},"geometry":{"type":"Point","coordinates":[36.31748,0.27763]}},{"type":"feature","properties":{"country_en":"Kenya","name":"Rangala","name_adm0":"Kenya","name_adm1":"Nyanza","name_en":"Rangala"},"geometry":{"type":"Point","coordinates":[34.33187,0.15036]}},{"type":"feature","properties":{"country_en":"Kenya","name":"Riakiania","name_adm0":"Kenya","name_adm1":"Central","name_en":"Riakiania"},"geometry":{"type":"Point","coordinates":[37.21314,-0.51994]}},{"type":"feature","properties":{"country_en":"Kenya","name":"Ribe","name_adm0":"Kenya","name_adm1":"Coast","name_en":"Ribe"},"geometry":{"type":"Point","coordinates":[39.63298,-3.88536]}},{"type":"feature","properties":{"country_en":"Kenya","name":"Rurii","name_adm0":"Kenya","name_adm1":"Central","name_en":"Rurii"},"geometry":{"type":"Point","coordinates":[37.18333,-0.7]}},{"type":"feature","properties":{"country_en":"Kenya","name":"South Horr","name_adm0":"Kenya","name_adm1":"Rift Valley","name_en":"South Horr"},"geometry":{"type":"Point","coordinates":[36.91548,2.10129]}},{"type":"feature","properties":{"country_en":"Kenya","name":"Ulu","name_adm0":"Kenya","name_adm1":"Eastern","name_en":"Ulu"},"geometry":{"type":"Point","coordinates":[37.14575,-1.8143100000000003]}},{"type":"feature","properties":{"country_en":"Kenya","name":"Upete","name_adm0":"Kenya","name_adm1":"Eastern","name_en":"Upete"},"geometry":{"type":"Point","coordinates":[37.35369,-1.85577]}},{"type":"feature","properties":{"country_en":"Kenya","name":"Voo","name_adm0":"Kenya","name_adm1":"Eastern","name_en":"Voo"},"geometry":{"type":"Point","coordinates":[38.32148,-1.6673]}},{"type":"feature","properties":{"country_en":"Kenya","name":"Gakurwe","name_adm0":"Kenya","name_adm1":"Central","name_en":"Gakurwe"},"geometry":{"type":"Point","coordinates":[37.02247,-0.62892]}},{"type":"feature","properties":{"country_en":"Kenya","name":"Kilala","name_adm0":"Kenya","name_adm1":"Eastern","name_en":"Kilala"},"geometry":{"type":"Point","coordinates":[37.55392,-1.77003]}},{"type":"feature","properties":{"country_en":"Kenya","name":"Kinunga","name_adm0":"Kenya","name_adm1":"Central","name_en":"Kinunga"},"geometry":{"type":"Point","coordinates":[36.83333,-1.08333]}},{"type":"feature","properties":{"country_en":"Kenya","name":"Kiriaini","name_adm0":"Kenya","name_adm1":"Central","name_en":"Kiriaini"},"geometry":{"type":"Point","coordinates":[36.91667,-0.88333]}},{"type":"feature","properties":{"country_en":"Kenya","name":"Kyangala","name_adm0":"Kenya","name_adm1":"Eastern","name_en":"Kyangala"},"geometry":{"type":"Point","coordinates":[37.316669999999995,-1.81667]}},{"type":"feature","properties":{"country_en":"Kenya","name":"Busonga","name_adm0":"Kenya","name_adm1":"Nyanza","name_en":"Busonga"},"geometry":{"type":"Point","coordinates":[34.104,0.10868]}},{"type":"feature","properties":{"country_en":"Kenya","name":"Chebara","name_adm0":"Kenya","name_adm1":"Rift Valley","name_en":"Chebara"},"geometry":{"type":"Point","coordinates":[35.50784999999999,0.8840499999999999]}},{"type":"feature","properties":{"country_en":"Kenya","name":"Chemaner","name_adm0":"Kenya","name_adm1":"Rift Valley","name_en":"Chemaner"},"geometry":{"type":"Point","coordinates":[35.48598,-0.8037499999999999]}},{"type":"feature","properties":{"country_en":"Kenya","name":"Dundori","name_adm0":"Kenya","name_adm1":"Central","name_en":"Dundori"},"geometry":{"type":"Point","coordinates":[36.26666999999999,-0.2]}},{"type":"feature","properties":{"country_en":"Kenya","name":"Githumu","name_adm0":"Kenya","name_adm1":"Central","name_en":"Githumu"},"geometry":{"type":"Point","coordinates":[36.89098,-0.83211]}},{"type":"feature","properties":{"country_en":"Kenya","name":"Ikinu","name_adm0":"Kenya","name_adm1":"Central","name_en":"Ikinu"},"geometry":{"type":"Point","coordinates":[36.790369999999996,-1.10993]}},{"type":"feature","properties":{"country_en":"Kenya","name":"Ikutha","name_adm0":"Kenya","name_adm1":"Eastern","name_en":"Ikutha"},"geometry":{"type":"Point","coordinates":[38.17885,-2.06634]}},{"type":"feature","properties":{"country_en":"Kenya","name":"Jila","name_adm0":"Kenya","name_adm1":"Coast","name_en":"Jila"},"geometry":{"type":"Point","coordinates":[39.53472,-3.4217099999999996]}},{"type":"feature","properties":{"country_en":"Kenya","name":"Kabartonjo","name_adm0":"Kenya","name_adm1":"Rift Valley","name_en":"Kabartonjo"},"geometry":{"type":"Point","coordinates":[35.8,0.63333]}},{"type":"feature","properties":{"country_en":"Kenya","name":"Kabati","name_adm0":"Kenya","name_adm1":"Rift Valley","name_en":"Kabati"},"geometry":{"type":"Point","coordinates":[36.30368,0.2008]}},{"type":"feature","properties":{"country_en":"Kenya","name":"Kabimoi","name_adm0":"Kenya","name_adm1":"Rift Valley","name_en":"Kabimoi"},"geometry":{"type":"Point","coordinates":[35.78546,0.01979]}},{"type":"feature","properties":{"country_en":"Kenya","name":"Manyata","name_adm0":"Kenya","name_adm1":"Eastern","name_en":"Manyata"},"geometry":{"type":"Point","coordinates":[37.48031,-0.43071]}},{"type":"feature","properties":{"country_en":"Kenya","name":"Kivani","name_adm0":"Kenya","name_adm1":"Eastern","name_en":"Kivani"},"geometry":{"type":"Point","coordinates":[37.37522,-1.72489]}},{"type":"feature","properties":{"country_en":"Kenya","name":"Koito","name_adm0":"Kenya","name_adm1":"Coast","name_en":"Koito"},"geometry":{"type":"Point","coordinates":[39.11667,-3.0166699999999995]}},{"type":"feature","properties":{"country_en":"Kenya","name":"Kolbio","name_adm0":"Kenya","name_adm1":"North-Eastern","name_en":"Kolbio"},"geometry":{"type":"Point","coordinates":[41.196479999999994,-1.1452299999999997]}},{"type":"feature","properties":{"country_en":"Kenya","name":"Kolowa","name_adm0":"Kenya","name_adm1":"Rift Valley","name_en":"Kolowa"},"geometry":{"type":"Point","coordinates":[35.75448,1.2185]}},{"type":"feature","properties":{"country_en":"Kenya","name":"Moi","name_adm0":"Kenya","name_adm1":"Nairobi Area","name_en":"Moi"},"geometry":{"type":"Point","coordinates":[36.78308,-1.31654]}},{"type":"feature","properties":{"country_en":"Kenya","name":"Cheptiret","name_adm0":"Kenya","name_adm1":"Rift Valley","name_en":"Cheptiret"},"geometry":{"type":"Point","coordinates":[35.3634,0.33626]}},{"type":"feature","properties":{"country_en":"Kenya","name":"Quarry Road","name_adm0":"Kenya","name_adm1":"Nairobi Area","name_en":"Quarry Road"},"geometry":{"type":"Point","coordinates":[36.874065,-1.266671]}},{"type":"feature","properties":{"country_en":"Kenya","name":"Longonot","name_adm0":"Kenya","name_adm1":"Rift Valley","name_en":"Longonot"},"geometry":{"type":"Point","coordinates":[36.46842899999999,-0.8709754999999999]}},{"type":"feature","properties":{"country_en":"Kenya","name":"Uplands","name_adm0":"Kenya","name_adm1":"Central","name_en":"Uplands"},"geometry":{"type":"Point","coordinates":[36.60256,-1.024841]}},{"type":"feature","properties":{"country_en":"Kenya","name":"Keroka","name_adm0":"Kenya","name_adm1":"Nyanza","name_en":"Keroka"},"geometry":{"type":"Point","coordinates":[34.94531,-0.77584]}},{"type":"feature","properties":{"country_en":"Kenya","name":"Ahero","name_adm0":"Kenya","name_adm1":"Nyanza","name_en":"Ahero"},"geometry":{"type":"Point","coordinates":[34.91629999999999,-0.17462]}},{"type":"feature","properties":{"country_en":"Kenya","name":"Kathageri","name_adm0":"Kenya","name_adm1":"Eastern","name_en":"Kathageri"},"geometry":{"type":"Point","coordinates":[37.60155,-0.39433]}},{"type":"feature","properties":{"country_en":"Kenya","name":"Lamu","name_adm0":"Kenya","name_adm1":"Coast","name_en":"Lamu"},"geometry":{"type":"Point","coordinates":[40.90200999999999,-2.27169]}},{"type":"feature","properties":{"country_en":"Kenya","name":"Kabete","name_adm0":"Kenya","name_adm1":"Nairobi Area","name_en":"Kabete"},"geometry":{"type":"Point","coordinates":[36.72778,-1.25891]}},{"type":"feature","properties":{"country_en":"Kenya","name":"Mweiga","name_adm0":"Kenya","name_adm1":"Central","name_en":"Mweiga"},"geometry":{"type":"Point","coordinates":[36.90645,-0.3255]}},{"type":"feature","properties":{"country_en":"Kenya","name":"Mwabungu","name_adm0":"Kenya","name_adm1":"Coast","name_en":"Mwabungu"},"geometry":{"type":"Point","coordinates":[39.53737999999999,-4.3455]}},{"type":"feature","properties":{"country_en":"Kenya","name":"Shauri Moyo","name_adm0":"Kenya","name_adm1":"Nairobi Area","name_en":"Shauri Moyo"},"geometry":{"type":"Point","coordinates":[36.85,-1.28333]}},{"type":"feature","properties":{"country_en":"Kenya","name":"Kenya","name_adm0":"Kenya","name_en":"Kenya"},"geometry":{"type":"Point","coordinates":[36.0643495,-1.7585589999999998]}},{"type":"feature","properties":{"country_en":"Kenya","name":"Sagana","name_adm0":"Kenya","name_adm1":"Central","name_en":"Sagana"},"geometry":{"type":"Point","coordinates":[37.199999999999996,-0.66667]}},{"type":"feature","properties":{"country_en":"Kenya","name":"Ogembo","name_adm0":"Kenya","name_adm1":"Nyanza","name_en":"Ogembo"},"geometry":{"type":"Point","coordinates":[34.72531,-0.7984]}},{"type":"feature","properties":{"country_en":"Kenya","name":"Nairobi","name_adm0":"Kenya","name_adm1":"Nairobi Area","name_en":"Nairobi"},"geometry":{"type":"Point","coordinates":[36.81667,-1.28333]}},{"type":"feature","properties":{"country_en":"Kenya","name":"Othaya","name_adm0":"Kenya","name_adm1":"Central","name_en":"Othaya"},"geometry":{"type":"Point","coordinates":[36.96091,-0.56516]}},{"type":"feature","properties":{"country_en":"Kenya","name":"Tawa","name_adm0":"Kenya","name_adm1":"Eastern","name_en":"Tawa"},"geometry":{"type":"Point","coordinates":[37.46134,-1.55542]}},{"type":"feature","properties":{"country_en":"Kenya","name":"Molo","name_adm0":"Kenya","name_adm1":"Rift Valley","name_en":"Molo"},"geometry":{"type":"Point","coordinates":[35.73743,-0.2479]}},{"type":"feature","properties":{"country_en":"Kenya","name":"Makueni","name_adm0":"Kenya","name_adm1":"Eastern","name_en":"Makueni"},"geometry":{"type":"Point","coordinates":[37.62034,-1.80409]}},{"type":"feature","properties":{"country_en":"Kenya","name":"Karuri","name_adm0":"Kenya","name_adm1":"Central","name_en":"Karuri"},"geometry":{"type":"Point","coordinates":[37.18333,-0.7]}},{"type":"feature","properties":{"country_en":"Kenya","name":"Kitui","name_adm0":"Kenya","name_adm1":"Eastern","name_en":"Kitui"},"geometry":{"type":"Point","coordinates":[38.01056,-1.36696]}},{"type":"feature","properties":{"country_en":"Kenya","name":"Lela","name_adm0":"Kenya","name_adm1":"Nyanza","name_en":"Lela"},"geometry":{"type":"Point","coordinates":[34.60406,-0.028199999999999996]}},{"type":"feature","properties":{"country_en":"Kenya","name":"Muthaiga","name_adm0":"Kenya","name_adm1":"Nairobi Area","name_en":"Muthaiga"},"geometry":{"type":"Point","coordinates":[36.83333,-1.2499999999999998]}},{"type":"feature","properties":{"country_en":"Kenya","name":"Parklands","name_adm0":"Kenya","name_adm1":"Nairobi Area","name_en":"Parklands"},"geometry":{"type":"Point","coordinates":[36.8,-1.2499999999999998]}},{"type":"feature","properties":{"country_en":"Kenya","name":"Doonholm","name_adm0":"Kenya","name_adm1":"Nairobi Area","name_en":"Doonholm"},"geometry":{"type":"Point","coordinates":[36.86667,-1.28333]}},{"type":"feature","properties":{"country_en":"Kenya","name":"Kaongo","name_adm0":"Kenya","name_adm1":"Eastern","name_en":"Kaongo"},"geometry":{"type":"Point","coordinates":[37.7231,-0.03645]}},{"type":"feature","properties":{"country_en":"Kenya","name":"Gatundu","name_adm0":"Kenya","name_adm1":"Central","name_en":"Gatundu"},"geometry":{"type":"Point","coordinates":[36.9,-1.05]}},{"type":"feature","properties":{"country_en":"Kenya","name":"Siaya","name_adm0":"Kenya","name_adm1":"Nyanza","name_en":"Siaya"},"geometry":{"type":"Point","coordinates":[34.28822999999999,0.061160000000000006]}},{"type":"feature","properties":{"country_en":"Kenya","name":"Chuka","name_adm0":"Kenya","name_adm1":"Eastern","name_en":"Chuka"},"geometry":{"type":"Point","coordinates":[37.64588,-0.33316]}},{"type":"feature","properties":{"country_en":"Kenya","name":"Batani","name_adm0":"Kenya","name_adm1":"Coast","name_en":"Batani"},"geometry":{"type":"Point","coordinates":[39.60131,-3.8911799999999994]}},{"type":"feature","properties":{"country_en":"Kenya","name":"Ihururu","name_adm0":"Kenya","name_adm1":"Central","name_en":"Ihururu"},"geometry":{"type":"Point","coordinates":[36.88333,-0.41667]}},{"type":"feature","properties":{"country_en":"Kenya","name":"Matondoni","name_adm0":"Kenya","name_adm1":"Coast","name_en":"Matondoni"},"geometry":{"type":"Point","coordinates":[40.83815,-2.26492]}},{"type":"feature","properties":{"country_en":"Kenya","name":"Kisimachande","name_adm0":"Kenya","name_adm1":"Coast","name_en":"Kisimachande"},"geometry":{"type":"Point","coordinates":[39.48212,-4.47807]}},{"type":"feature","properties":{"country_en":"Kenya","name":"Namanga","name_adm0":"Kenya","name_adm1":"Rift Valley","name_en":"Namanga"},"geometry":{"type":"Point","coordinates":[36.79053,-2.54327]}},{"type":"feature","properties":{"country_en":"Kenya","name":"Naro Moru","name_adm0":"Kenya","name_adm1":"Rift Valley","name_en":"Naro Moru"},"geometry":{"type":"Point","coordinates":[37.02128999999999,-0.16756]}},{"type":"feature","properties":{"country_en":"Kenya","name":"Tambach","name_adm0":"Kenya","name_adm1":"Rift Valley","name_en":"Tambach"},"geometry":{"type":"Point","coordinates":[35.5236,0.59169]}},{"type":"feature","properties":{"country_en":"Kenya","name":"Isiolo","name_adm0":"Kenya","name_adm1":"Eastern","name_en":"Isiolo"},"geometry":{"type":"Point","coordinates":[37.58218,0.35462]}},{"type":"feature","properties":{"country_en":"Kenya","name":"Kamatu","name_adm0":"Kenya","name_adm1":"Central","name_en":"Kamatu"},"geometry":{"type":"Point","coordinates":[37.1,-0.5]}},{"type":"feature","properties":{"country_en":"Kenya","name":"Kamune","name_adm0":"Kenya","name_adm1":"Central","name_en":"Kamune"},"geometry":{"type":"Point","coordinates":[37.01733,-0.60019]}},{"type":"feature","properties":{"country_en":"Kenya","name":"Kiamutugu","name_adm0":"Kenya","name_adm1":"Central","name_en":"Kiamutugu"},"geometry":{"type":"Point","coordinates":[37.39113,-0.4671699999999999]}},{"type":"feature","properties":{"country_en":"Kenya","name":"Kiamwangi","name_adm0":"Kenya","name_adm1":"Central","name_en":"Kiamwangi"},"geometry":{"type":"Point","coordinates":[36.86667,-1.01667]}},{"type":"feature","properties":{"country_en":"Kenya","name":"Kiandu","name_adm0":"Kenya","name_adm1":"Central","name_en":"Kiandu"},"geometry":{"type":"Point","coordinates":[36.96652999999999,-0.48871]}},{"type":"feature","properties":{"country_en":"Kenya","name":"Loruk","name_adm0":"Kenya","name_adm1":"Rift Valley","name_en":"Loruk"},"geometry":{"type":"Point","coordinates":[36.02733,0.71086]}},{"type":"feature","properties":{"country_en":"Kenya","name":"Gitiha","name_adm0":"Kenya","name_adm1":"Central","name_en":"Gitiha"},"geometry":{"type":"Point","coordinates":[36.7,-1.06667]}},{"type":"feature","properties":{"country_en":"Kenya","name":"Nambale","name_adm0":"Kenya","name_adm1":"Western","name_en":"Nambale"},"geometry":{"type":"Point","coordinates":[34.25194,0.44594]}},{"type":"feature","properties":{"country_en":"Kenya","name":"Eldama Ravine","name_adm0":"Kenya","name_adm1":"Rift Valley","name_en":"Eldama Ravine"},"geometry":{"type":"Point","coordinates":[35.73078,0.051579999999999994]}},{"type":"feature","properties":{"country_en":"Kenya","name":"Akala","name_adm0":"Kenya","name_adm1":"Nyanza","name_en":"Akala"},"geometry":{"type":"Point","coordinates":[34.42693,-0.06003]}},{"type":"feature","properties":{"country_en":"Kenya","name":"Bahati","name_adm0":"Kenya","name_adm1":"Nairobi Area","name_en":"Bahati"},"geometry":{"type":"Point","coordinates":[36.85,-1.28333]}},{"type":"feature","properties":{"country_en":"Kenya","name":"Banissa","name_adm0":"Kenya","name_adm1":"North-Eastern","name_en":"Banissa"},"geometry":{"type":"Point","coordinates":[40.33222,3.9038899999999996]}},{"type":"feature","properties":{"country_en":"Kenya","name":"Barisho","name_adm0":"Kenya","name_adm1":"Central","name_en":"Barisho"},"geometry":{"type":"Point","coordinates":[37.23992,-0.5535299999999999]}},{"type":"feature","properties":{"country_en":"Kenya","name":"Gachoka","name_adm0":"Kenya","name_adm1":"Eastern","name_en":"Gachoka"},"geometry":{"type":"Point","coordinates":[37.5335,-0.61924]}},{"type":"feature","properties":{"country_en":"Kenya","name":"Gathiruini","name_adm0":"Kenya","name_adm1":"Central","name_en":"Gathiruini"},"geometry":{"type":"Point","coordinates":[36.80548999999999,-1.02433]}},{"type":"feature","properties":{"country_en":"Kenya","name":"Gathuthi","name_adm0":"Kenya","name_adm1":"Central","name_en":"Gathuthi"},"geometry":{"type":"Point","coordinates":[36.88333,-0.48333]}},{"type":"feature","properties":{"country_en":"Kenya","name":"Gikoe","name_adm0":"Kenya","name_adm1":"Central","name_en":"Gikoe"},"geometry":{"type":"Point","coordinates":[36.93166,-0.635]}},{"type":"feature","properties":{"country_en":"Kenya","name":"Githega","name_adm0":"Kenya","name_adm1":"Central","name_en":"Githega"},"geometry":{"type":"Point","coordinates":[36.7,-1.06667]}},{"type":"feature","properties":{"country_en":"Kenya","name":"Kariobangi South","name_adm0":"Kenya","name_adm1":"Nairobi Area","name_en":"Kariobangi South"},"geometry":{"type":"Point","coordinates":[36.88333,-1.26667]}},{"type":"feature","properties":{"country_en":"Kenya","name":"Kariua","name_adm0":"Kenya","name_adm1":"Central","name_en":"Kariua"},"geometry":{"type":"Point","coordinates":[36.96667,-0.83333]}},{"type":"feature","properties":{"country_en":"Kenya","name":"Kikima","name_adm0":"Kenya","name_adm1":"Eastern","name_en":"Kikima"},"geometry":{"type":"Point","coordinates":[37.44522,-1.66322]}},{"type":"feature","properties":{"country_en":"Kenya","name":"Kikumini","name_adm0":"Kenya","name_adm1":"Eastern","name_en":"Kikumini"},"geometry":{"type":"Point","coordinates":[37.57694,-2.0451799999999998]}},{"type":"feature","properties":{"country_en":"Kenya","name":"Kilimani Estate","name_adm0":"Kenya","name_adm1":"Nairobi Area","name_en":"Kilimani Estate"},"geometry":{"type":"Point","coordinates":[36.78333,-1.28333]}},{"type":"feature","properties":{"country_en":"Kenya","name":"Kimwarer","name_adm0":"Kenya","name_adm1":"Rift Valley","name_en":"Kimwarer"},"geometry":{"type":"Point","coordinates":[35.63319,0.34368999999999994]}},{"type":"feature","properties":{"country_en":"Kenya","name":"Kithimani","name_adm0":"Kenya","name_adm1":"Eastern","name_en":"Kithimani"},"geometry":{"type":"Point","coordinates":[37.44612999999999,-1.18402]}},{"type":"feature","properties":{"country_en":"Kenya","name":"Kutu","name_adm0":"Kenya","name_adm1":"Central","name_en":"Kutu"},"geometry":{"type":"Point","coordinates":[37.32471,-0.5671899999999999]}},{"type":"feature","properties":{"country_en":"Kenya","name":"Lorugumu","name_adm0":"Kenya","name_adm1":"Rift Valley","name_en":"Lorugumu"},"geometry":{"type":"Point","coordinates":[35.24799,2.87356]}},{"type":"feature","properties":{"country_en":"Kenya","name":"Lotongot","name_adm0":"Kenya","name_adm1":"Rift Valley","name_en":"Lotongot"},"geometry":{"type":"Point","coordinates":[35.61935,1.74636]}},{"type":"feature","properties":{"country_en":"Kenya","name":"Lower Gatara","name_adm0":"Kenya","name_adm1":"Central","name_en":"Lower Gatara"},"geometry":{"type":"Point","coordinates":[36.9,-0.75]}},{"type":"feature","properties":{"country_en":"Kenya","name":"Marmanet","name_adm0":"Kenya","name_adm1":"Rift Valley","name_en":"Marmanet"},"geometry":{"type":"Point","coordinates":[36.31667,0.16667]}},{"type":"feature","properties":{"country_en":"Kenya","name":"Thaara","name_adm0":"Kenya","name_adm1":"Central","name_en":"Thaara"},"geometry":{"type":"Point","coordinates":[37.199999999999996,-0.8]}},{"type":"feature","properties":{"country_en":"Kenya","name":"Thangathe","name_adm0":"Kenya","name_adm1":"Central","name_en":"Thangathe"},"geometry":{"type":"Point","coordinates":[37.1298,-0.5665]}},{"type":"feature","properties":{"country_en":"Kenya","name":"Tharaka","name_adm0":"Kenya","name_adm1":"Eastern","name_en":"Tharaka"},"geometry":{"type":"Point","coordinates":[38.02691,-0.30861]}},{"type":"feature","properties":{"country_en":"Kenya","name":"Thomson Estate","name_adm0":"Kenya","name_adm1":"Nairobi Area","name_en":"Thomson Estate"},"geometry":{"type":"Point","coordinates":[36.76667,-1.28333]}},{"type":"feature","properties":{"country_en":"Kenya","name":"Timboroa","name_adm0":"Kenya","name_adm1":"Rift Valley","name_en":"Timboroa"},"geometry":{"type":"Point","coordinates":[35.53021,0.08549999999999999]}},{"type":"feature","properties":{"country_en":"Kenya","name":"Wanjengi","name_adm0":"Kenya","name_adm1":"Central","name_en":"Wanjengi"},"geometry":{"type":"Point","coordinates":[37,-0.71667]}},{"type":"feature","properties":{"country_en":"Kenya","name":"Wongonyi","name_adm0":"Kenya","name_adm1":"Coast","name_en":"Wongonyi"},"geometry":{"type":"Point","coordinates":[38.43333,-3.31667]}},{"type":"feature","properties":{"country_en":"Kenya","name":"Naivasha","name_adm0":"Kenya","name_adm1":"Rift Valley","name_en":"Naivasha"},"geometry":{"type":"Point","coordinates":[36.43591,-0.71667]}},{"type":"feature","properties":{"country_en":"Kenya","name":"Kaloleni","name_adm0":"Kenya","name_adm1":"Nairobi Area","name_en":"Kaloleni"},"geometry":{"type":"Point","coordinates":[36.85,-1.2999999999999998]}},{"type":"feature","properties":{"country_en":"Kenya","name":"Mariwa","name_adm0":"Kenya","name_adm1":"Nyanza","name_en":"Mariwa"},"geometry":{"type":"Point","coordinates":[34.55,-1.5]}},{"type":"feature","properties":{"country_en":"Kenya","name":"Makupa","name_adm0":"Kenya","name_adm1":"Coast","name_en":"Makupa"},"geometry":{"type":"Point","coordinates":[39.662704,-4.034138]}},{"type":"feature","properties":{"country_en":"Kenya","name":"Nyanza","name_adm0":"Kenya","name_adm1":"Nyanza","name_en":"Nyanza"},"geometry":{"type":"Point","coordinates":[34.5,-0.5]}},{"type":"feature","properties":{"country_en":"Kenya","name":"Yala","name_adm0":"Kenya","name_adm1":"Nyanza","name_en":"Yala"},"geometry":{"type":"Point","coordinates":[34.53757,0.09906]}},{"type":"feature","properties":{"country_en":"Kenya","name":"Chepkorio","name_adm0":"Kenya","name_adm1":"Rift Valley","name_en":"Chepkorio"},"geometry":{"type":"Point","coordinates":[35.53619,0.38208]}},{"type":"feature","properties":{"country_en":"Kenya","name":"Cheptonge","name_adm0":"Kenya","name_adm1":"Rift Valley","name_en":"Cheptonge"},"geometry":{"type":"Point","coordinates":[35.51576,0.94097]}},{"type":"feature","properties":{"country_en":"Kenya","name":"Kangare","name_adm0":"Kenya","name_adm1":"Central","name_en":"Kangare"},"geometry":{"type":"Point","coordinates":[36.86667,-0.78333]}},{"type":"feature","properties":{"country_en":"Kenya","name":"Kangaru","name_adm0":"Kenya","name_adm1":"Eastern","name_en":"Kangaru"},"geometry":{"type":"Point","coordinates":[37.46277,-0.50121]}},{"type":"feature","properties":{"country_en":"Kenya","name":"Kapsoit","name_adm0":"Kenya","name_adm1":"Rift Valley","name_en":"Kapsoit"},"geometry":{"type":"Point","coordinates":[35.218309999999995,-0.32027]}},{"type":"feature","properties":{"country_en":"Kenya","name":"Kapsowar","name_adm0":"Kenya","name_adm1":"Rift Valley","name_en":"Kapsowar"},"geometry":{"type":"Point","coordinates":[35.56145,0.98119]}},{"type":"feature","properties":{"country_en":"Kenya","name":"Kapsuser","name_adm0":"Kenya","name_adm1":"Rift Valley","name_en":"Kapsuser"},"geometry":{"type":"Point","coordinates":[35.22441,-0.40393999999999997]}},{"type":"feature","properties":{"country_en":"Kenya","name":"Kaptama","name_adm0":"Kenya","name_adm1":"Western","name_en":"Kaptama"},"geometry":{"type":"Point","coordinates":[34.76738,0.8852899999999999]}},{"type":"feature","properties":{"country_en":"Kenya","name":"Kaptarakwa","name_adm0":"Kenya","name_adm1":"Rift Valley","name_en":"Kaptarakwa"},"geometry":{"type":"Point","coordinates":[35.53333,0.4666699999999999]}},{"type":"feature","properties":{"country_en":"Kenya","name":"Kariko","name_adm0":"Kenya","name_adm1":"Central","name_en":"Kariko"},"geometry":{"type":"Point","coordinates":[36.88244,-0.5764]}},{"type":"feature","properties":{"country_en":"Kenya","name":"Karingare","name_adm0":"Kenya","name_adm1":"Eastern","name_en":"Karingare"},"geometry":{"type":"Point","coordinates":[37.50634999999999,-0.4713]}},{"type":"feature","properties":{"country_en":"Kenya","name":"Lugare","name_adm0":"Kenya","name_adm1":"Western","name_en":"Lugare"},"geometry":{"type":"Point","coordinates":[34,0.08333]}},{"type":"feature","properties":{"country_en":"Kenya","name":"Mangai","name_adm0":"Kenya","name_adm1":"Coast","name_en":"Mangai"},"geometry":{"type":"Point","coordinates":[38.45,-3.3]}},{"type":"feature","properties":{"country_en":"Kenya","name":"Marinde","name_adm0":"Kenya","name_adm1":"Nyanza","name_en":"Marinde"},"geometry":{"type":"Point","coordinates":[34.52087999999999,-0.64968]}},{"type":"feature","properties":{"country_en":"Kenya","name":"Mathareini","name_adm0":"Kenya","name_adm1":"Central","name_en":"Mathareini"},"geometry":{"type":"Point","coordinates":[36.96667,-0.8166699999999999]}},{"type":"feature","properties":{"country_en":"Kenya","name":"Mau Narok","name_adm0":"Kenya","name_adm1":"Rift Valley","name_en":"Mau Narok"},"geometry":{"type":"Point","coordinates":[36.00697,-0.59964]}},{"type":"feature","properties":{"country_en":"Kenya","name":"Mbumbuni","name_adm0":"Kenya","name_adm1":"Eastern","name_en":"Mbumbuni"},"geometry":{"type":"Point","coordinates":[37.56067,-1.6215599999999997]}},{"type":"feature","properties":{"country_en":"Kenya","name":"Mgambonyi","name_adm0":"Kenya","name_adm1":"Coast","name_en":"Mgambonyi"},"geometry":{"type":"Point","coordinates":[38.3498,-3.32924]}},{"type":"feature","properties":{"country_en":"Kenya","name":"Keringet","name_adm0":"Kenya","name_adm1":"Rift Valley","name_en":"Keringet"},"geometry":{"type":"Point","coordinates":[35.04956,1.21294]}},{"type":"feature","properties":{"country_en":"Kenya","name":"Murarandia One","name_adm0":"Kenya","name_adm1":"Central","name_en":"Murarandia One"},"geometry":{"type":"Point","coordinates":[36.93333,-0.73333]}},{"type":"feature","properties":{"country_en":"Kenya","name":"Mutha","name_adm0":"Kenya","name_adm1":"Eastern","name_en":"Mutha"},"geometry":{"type":"Point","coordinates":[38.42041,-1.79309]}},{"type":"feature","properties":{"country_en":"Kenya","name":"Muthithi","name_adm0":"Kenya","name_adm1":"Central","name_en":"Muthithi"},"geometry":{"type":"Point","coordinates":[37.03333,-0.8166699999999999]}},{"type":"feature","properties":{"country_en":"Kenya","name":"Mutitu","name_adm0":"Kenya","name_adm1":"Eastern","name_en":"Mutitu"},"geometry":{"type":"Point","coordinates":[38.19248,-1.22712]}},{"type":"feature","properties":{"country_en":"Kenya","name":"Mweru","name_adm0":"Kenya","name_adm1":"Central","name_en":"Mweru"},"geometry":{"type":"Point","coordinates":[37.08332999999999,-0.66667]}},{"type":"feature","properties":{"country_en":"Kenya","name":"Nyaru","name_adm0":"Kenya","name_adm1":"Rift Valley","name_en":"Nyaru"},"geometry":{"type":"Point","coordinates":[35.57675,0.33045]}},{"type":"feature","properties":{"country_en":"Kenya","name":"Nziu","name_adm0":"Kenya","name_adm1":"Eastern","name_en":"Nziu"},"geometry":{"type":"Point","coordinates":[37.53865,-1.81713]}},{"type":"feature","properties":{"country_en":"Kenya","name":"Seretunin","name_adm0":"Kenya","name_adm1":"Rift Valley","name_en":"Seretunin"},"geometry":{"type":"Point","coordinates":[35.78929,0.55363]}},{"type":"feature","properties":{"country_en":"Kenya","name":"Sibilo","name_adm0":"Kenya","name_adm1":"Rift Valley","name_en":"Sibilo"},"geometry":{"type":"Point","coordinates":[35.89851,0.7042499999999999]}},{"type":"feature","properties":{"country_en":"Kenya","name":"Sidindi","name_adm0":"Kenya","name_adm1":"Nyanza","name_en":"Sidindi"},"geometry":{"type":"Point","coordinates":[34.38944,0.15417]}},{"type":"feature","properties":{"country_en":"Kenya","name":"Singore","name_adm0":"Kenya","name_adm1":"Rift Valley","name_en":"Singore"},"geometry":{"type":"Point","coordinates":[35.5163,0.71584]}},{"type":"feature","properties":{"country_en":"Kenya","name":"Sio Port","name_adm0":"Kenya","name_adm1":"Western","name_en":"Sio Port"},"geometry":{"type":"Point","coordinates":[34.02263,0.22182]}},{"type":"feature","properties":{"country_en":"Kenya","name":"Kalamba","name_adm0":"Kenya","name_adm1":"Eastern","name_en":"Kalamba"},"geometry":{"type":"Point","coordinates":[37.5134,-1.86732]}},{"type":"feature","properties":{"country_en":"Kenya","name":"Kalawa","name_adm0":"Kenya","name_adm1":"Eastern","name_en":"Kalawa"},"geometry":{"type":"Point","coordinates":[38.01667,-1.36667]}},{"type":"feature","properties":{"country_en":"Kenya","name":"Kanja","name_adm0":"Kenya","name_adm1":"Eastern","name_en":"Kanja"},"geometry":{"type":"Point","coordinates":[37.52947,-0.37856]}},{"type":"feature","properties":{"country_en":"Kenya","name":"Karaba","name_adm0":"Kenya","name_adm1":"Central","name_en":"Karaba"},"geometry":{"type":"Point","coordinates":[37.41667,-0.75]}},{"type":"feature","properties":{"country_en":"Kenya","name":"Kathungure","name_adm0":"Kenya","name_adm1":"Eastern","name_en":"Kathungure"},"geometry":{"type":"Point","coordinates":[37.60928,-0.42572999999999994]}},{"type":"feature","properties":{"country_en":"Kenya","name":"Empakasi","name_adm0":"Kenya","name_adm1":"Nairobi Area","name_en":"Empakasi"},"geometry":{"type":"Point","coordinates":[36.91667,-1.2999999999999998]}},{"type":"feature","properties":{"country_en":"Kenya","name":"Gaikundo","name_adm0":"Kenya","name_adm1":"Central","name_en":"Gaikundo"},"geometry":{"type":"Point","coordinates":[37,-0.53333]}},{"type":"feature","properties":{"country_en":"Kenya","name":"Wajir","name_adm0":"Kenya","name_adm1":"North-Eastern","name_en":"Wajir"},"geometry":{"type":"Point","coordinates":[40.05732,1.7471]}},{"type":"feature","properties":{"country_en":"Kenya","name":"Miathene","name_adm0":"Kenya","name_adm1":"Eastern","name_en":"Miathene"},"geometry":{"type":"Point","coordinates":[36.98333,-0.5166699999999999]}},{"type":"feature","properties":{"country_en":"Kenya","name":"Mkomani","name_adm0":"Kenya","name_adm1":"Coast","name_en":"Mkomani"},"geometry":{"type":"Point","coordinates":[39.63296,-3.84578]}},{"type":"feature","properties":{"country_en":"Kenya","name":"Kabianga","name_adm0":"Kenya","name_adm1":"Rift Valley","name_en":"Kabianga"},"geometry":{"type":"Point","coordinates":[37.03333,-0.9166699999999999]}},{"type":"feature","properties":{"country_en":"Kenya","name":"Kapsabet","name_adm0":"Kenya","name_adm1":"Rift Valley","name_en":"Kapsabet"},"geometry":{"type":"Point","coordinates":[35.105,0.20386999999999997]}},{"type":"feature","properties":{"country_en":"Kenya","name":"Itumbe","name_adm0":"Kenya","name_adm1":"Nyanza","name_en":"Itumbe"},"geometry":{"type":"Point","coordinates":[34.806833,-0.704167]}},{"type":"feature","properties":{"country_en":"Kenya","name":"Kijabe","name_adm0":"Kenya","name_adm1":"Central","name_en":"Kijabe"},"geometry":{"type":"Point","coordinates":[36.57581,-0.93304]}},{"type":"feature","properties":{"country_en":"Kenya","name":"Dandora","name_adm0":"Kenya","name_adm1":"Nairobi Area","name_en":"Dandora"},"geometry":{"type":"Point","coordinates":[36.90357,-1.2574299999999998]}},{"type":"feature","properties":{"country_en":"Kenya","name":"Sagala","name_adm0":"Kenya","name_adm1":"Coast","name_en":"Sagala"},"geometry":{"type":"Point","coordinates":[38.57456,-3.51006]}},{"type":"feature","properties":{"country_en":"Kenya","name":"Thigio","name_adm0":"Kenya","name_adm1":"Central","name_en":"Thigio"},"geometry":{"type":"Point","coordinates":[36.59668,-1.2051999999999998]}},{"type":"feature","properties":{"country_en":"Kenya","name":"Darajani","name_adm0":"Kenya","name_adm1":"Eastern","name_en":"Darajani"},"geometry":{"type":"Point","coordinates":[38.11667,-2.58333]}},{"type":"feature","properties":{"country_en":"Kenya","name":"Kola","name_adm0":"Kenya","name_adm1":"Eastern","name_en":"Kola"},"geometry":{"type":"Point","coordinates":[37.34889,-1.70544]}},{"type":"feature","properties":{"country_en":"Kenya","name":"Highridge","name_adm0":"Kenya","name_adm1":"Nairobi Area","name_en":"Highridge"},"geometry":{"type":"Point","coordinates":[36.8,-1.2499999999999998]}},{"type":"feature","properties":{"country_en":"Kenya","name":"Ikonge","name_adm0":"Kenya","name_adm1":"Nyanza","name_en":"Ikonge"},"geometry":{"type":"Point","coordinates":[35.02677,-0.5317399999999999]}},{"type":"feature","properties":{"country_en":"Kenya","name":"Kagwe","name_adm0":"Kenya","name_adm1":"Central","name_en":"Kagwe"},"geometry":{"type":"Point","coordinates":[36.742799999999995,-1.0044]}},{"type":"feature","properties":{"country_en":"Kenya","name":"Kibos","name_adm0":"Kenya","name_adm1":"Nyanza","name_en":"Kibos"},"geometry":{"type":"Point","coordinates":[34.81092,-0.07]}},{"type":"feature","properties":{"country_en":"Kenya","name":"Kibwezi","name_adm0":"Kenya","name_adm1":"Eastern","name_en":"Kibwezi"},"geometry":{"type":"Point","coordinates":[37.96521,-2.41117]}},{"type":"feature","properties":{"country_en":"Kenya","name":"Kiunya","name_adm0":"Kenya","name_adm1":"Central","name_en":"Kiunya"},"geometry":{"type":"Point","coordinates":[37.01667,-0.95]}},{"type":"feature","properties":{"country_en":"Kenya","name":"Longopito","name_adm0":"Kenya","name_adm1":"Eastern","name_en":"Longopito"},"geometry":{"type":"Point","coordinates":[37.12224,0.70163]}},{"type":"feature","properties":{"country_en":"Kenya","name":"Miharati","name_adm0":"Kenya","name_adm1":"Central","name_en":"Miharati"},"geometry":{"type":"Point","coordinates":[36.49054,-0.3982]}},{"type":"feature","properties":{"country_en":"Kenya","name":"Mihuti","name_adm0":"Kenya","name_adm1":"Central","name_en":"Mihuti"},"geometry":{"type":"Point","coordinates":[36.96667,-0.6499999999999999]}},{"type":"feature","properties":{"country_en":"Kenya","name":"Msau","name_adm0":"Kenya","name_adm1":"Coast","name_en":"Msau"},"geometry":{"type":"Point","coordinates":[38.4,-3.41667]}},{"type":"feature","properties":{"country_en":"Kenya","name":"Muguga","name_adm0":"Kenya","name_adm1":"Central","name_en":"Muguga"},"geometry":{"type":"Point","coordinates":[36.65506,-1.1941699999999997]}},{"type":"feature","properties":{"country_en":"Kenya","name":"Mururiini","name_adm0":"Kenya","name_adm1":"Central","name_en":"Mururiini"},"geometry":{"type":"Point","coordinates":[37.1877,-0.5877]}},{"type":"feature","properties":{"country_en":"Kenya","name":"Myanga","name_adm0":"Kenya","name_adm1":"Western","name_en":"Myanga"},"geometry":{"type":"Point","coordinates":[34.391,0.5632]}},{"type":"feature","properties":{"country_en":"Kenya","name":"Nanga","name_adm0":"Kenya","name_adm1":"Nyanza","name_en":"Nanga"},"geometry":{"type":"Point","coordinates":[34.73582,-0.14286]}},{"type":"feature","properties":{"country_en":"Kenya","name":"Ndere","name_adm0":"Kenya","name_adm1":"Nyanza","name_en":"Ndere"},"geometry":{"type":"Point","coordinates":[34.283199999999994,0.10554]}},{"type":"feature","properties":{"country_en":"Kenya","name":"Weruga","name_adm0":"Kenya","name_adm1":"Coast","name_en":"Weruga"},"geometry":{"type":"Point","coordinates":[38.33333,-3.38333]}},{"type":"feature","properties":{"country_en":"Kenya","name":"Zombe","name_adm0":"Kenya","name_adm1":"Eastern","name_en":"Zombe"},"geometry":{"type":"Point","coordinates":[38.231069999999995,-1.45301]}},{"type":"feature","properties":{"country_en":"Kenya","name":"Bomani","name_adm0":"Kenya","name_adm1":"Coast","name_en":"Bomani"},"geometry":{"type":"Point","coordinates":[39.14780999999999,-4.24798]}},{"type":"feature","properties":{"country_en":"Kenya","name":"Laisamis","name_adm0":"Kenya","name_adm1":"Eastern","name_en":"Laisamis"},"geometry":{"type":"Point","coordinates":[37.80608,1.5961299999999998]}},{"type":"feature","properties":{"country_en":"Kenya","name":"Bahati Settlement","name_adm0":"Kenya","name_adm1":"Rift Valley","name_en":"Bahati Settlement"},"geometry":{"type":"Point","coordinates":[36.11667,-0.15]}},{"type":"feature","properties":{"country_en":"Kenya","name":"Bumala","name_adm0":"Kenya","name_adm1":"Western","name_en":"Bumala"},"geometry":{"type":"Point","coordinates":[34.20142,0.3036]}},{"type":"feature","properties":{"country_en":"Kenya","name":"Kalema","name_adm0":"Kenya","name_adm1":"Rift Valley","name_en":"Kalema"},"geometry":{"type":"Point","coordinates":[36.05898,-1.78969]}},{"type":"feature","properties":{"country_en":"Kenya","name":"Kiambaa","name_adm0":"Kenya","name_adm1":"Central","name_en":"Kiambaa"},"geometry":{"type":"Point","coordinates":[36.74431,-1.15755]}},{"type":"feature","properties":{"country_en":"Kenya","name":"Nosuguro","name_adm0":"Kenya","name_adm1":"Rift Valley","name_en":"Nosuguro"},"geometry":{"type":"Point","coordinates":[36.12919,0.58546]}},{"type":"feature","properties":{"country_en":"Kenya","name":"Sandai","name_adm0":"Kenya","name_adm1":"Rift Valley","name_en":"Sandai"},"geometry":{"type":"Point","coordinates":[36.07485,0.40343]}},{"type":"feature","properties":{"country_en":"Kenya","name":"Ndavaya","name_adm0":"Kenya","name_adm1":"Coast","name_en":"Ndavaya"},"geometry":{"type":"Point","coordinates":[39.16789,-4.25612]}},{"type":"feature","properties":{"country_en":"Kenya","name":"Narosura","name_adm0":"Kenya","name_adm1":"Rift Valley","name_en":"Narosura"},"geometry":{"type":"Point","coordinates":[35.86667,-1.53333]}},{"type":"feature","properties":{"country_en":"Kenya","name":"Nairagie Ngare","name_adm0":"Kenya","name_adm1":"Rift Valley","name_en":"Nairagie Ngare"},"geometry":{"type":"Point","coordinates":[36.16074,-1.0454299999999999]}},{"type":"feature","properties":{"country_en":"Kenya","name":"Ramu","name_adm0":"Kenya","name_adm1":"North-Eastern","name_en":"Ramu"},"geometry":{"type":"Point","coordinates":[41.21965999999999,3.93202]}},{"type":"feature","properties":{"country_en":"Kenya","name":"Sericho","name_adm0":"Kenya","name_adm1":"Eastern","name_en":"Sericho"},"geometry":{"type":"Point","coordinates":[39.08333,1.08333]}},{"type":"feature","properties":{"country_en":"Kenya","name":"Moi Avenue","name_adm0":"Kenya","name_adm1":"Nairobi Area","name_en":"Moi Avenue"},"geometry":{"type":"Point","coordinates":[36.842823,-1.283233]}},{"type":"feature","properties":{"country_en":"Kenya","name":"Kanyekine","name_adm0":"Kenya","name_adm1":"Eastern","name_en":"Kanyekine"},"geometry":{"type":"Point","coordinates":[37.67272,-0.12445]}},{"type":"feature","properties":{"country_en":"Kenya","name":"Kanyoni","name_adm0":"Kenya","name_adm1":"Central","name_en":"Kanyoni"},"geometry":{"type":"Point","coordinates":[36.83333,-0.9]}},{"type":"feature","properties":{"country_en":"Kenya","name":"Karumandi","name_adm0":"Kenya","name_adm1":"Central","name_en":"Karumandi"},"geometry":{"type":"Point","coordinates":[37.35,-0.45]}},{"type":"feature","properties":{"country_en":"Kenya","name":"Kiawarigi","name_adm0":"Kenya","name_adm1":"Central","name_en":"Kiawarigi"},"geometry":{"type":"Point","coordinates":[37.1,-0.43332999999999994]}},{"type":"feature","properties":{"country_en":"Kenya","name":"Sigomere","name_adm0":"Kenya","name_adm1":"Nyanza","name_en":"Sigomere"},"geometry":{"type":"Point","coordinates":[34.35865,0.20032]}},{"type":"feature","properties":{"country_en":"Kenya","name":"Sigor","name_adm0":"Kenya","name_adm1":"Rift Valley","name_en":"Sigor"},"geometry":{"type":"Point","coordinates":[35.471669999999996,1.48452]}},{"type":"feature","properties":{"country_en":"Kenya","name":"Sindo","name_adm0":"Kenya","name_adm1":"Nyanza","name_en":"Sindo"},"geometry":{"type":"Point","coordinates":[34.16456,-0.53801]}},{"type":"feature","properties":{"country_en":"Kenya","name":"Siongiroi","name_adm0":"Kenya","name_adm1":"Rift Valley","name_en":"Siongiroi"},"geometry":{"type":"Point","coordinates":[35.21667,-0.9166699999999999]}},{"type":"feature","properties":{"country_en":"Kenya","name":"Gatundu","name_adm0":"Kenya","name_adm1":"Central","name_en":"Gatundu"},"geometry":{"type":"Point","coordinates":[36.9,-1.05]}},{"type":"feature","properties":{"country_en":"Kenya","name":"Makutano (2)","name_adm0":"Kenya","name_adm1":"Rift Valley","name_en":"Makutano (2)"},"geometry":{"type":"Point","coordinates":[35.09269,1.2576899999999998]}},{"type":"feature","properties":{"country_en":"Kenya","name":"Eastleigh","name_adm0":"Kenya","name_adm1":"Nairobi Area","name_en":"Eastleigh"},"geometry":{"type":"Point","coordinates":[36.85,-1.26667]}},{"type":"feature","properties":{"country_en":"Kenya","name":"Busia","name_adm0":"Kenya","name_adm1":"Western","name_en":"Busia"},"geometry":{"type":"Point","coordinates":[34.11169,0.46005]}},{"type":"feature","properties":{"country_en":"Kenya","name":"Coast","name_adm0":"Kenya","name_adm1":"Coast","name_en":"Coast"},"geometry":{"type":"Point","coordinates":[38.806456999999995,-3.354405]}},{"type":"feature","properties":{"country_en":"Kenya","name":"Wundanyi","name_adm0":"Kenya","name_adm1":"Coast","name_en":"Wundanyi"},"geometry":{"type":"Point","coordinates":[38.36402,-3.4019299999999997]}},{"type":"feature","properties":{"country_en":"Kenya","name":"Rongai","name_adm0":"Kenya","name_adm1":"Rift Valley","name_en":"Rongai"},"geometry":{"type":"Point","coordinates":[35.86382,-0.17333]}},{"type":"feature","properties":{"country_en":"Kenya","name":"Wamba","name_adm0":"Kenya","name_adm1":"Rift Valley","name_en":"Wamba"},"geometry":{"type":"Point","coordinates":[37.316669999999995,0.9833299999999999]}},{"type":"feature","properties":{"country_en":"Kenya","name":"Rift Valley","name_adm0":"Kenya","name_adm1":"Rift Valley","name_en":"Rift Valley"},"geometry":{"type":"Point","coordinates":[36.078414,-0.820856]}},{"type":"feature","properties":{"country_en":"Kenya","name":"Sega","name_adm0":"Kenya","name_adm1":"Nyanza","name_en":"Sega"},"geometry":{"type":"Point","coordinates":[34.22583,0.25583]}},{"type":"feature","properties":{"country_en":"Kenya","name":"Siakago","name_adm0":"Kenya","name_adm1":"Eastern","name_en":"Siakago"},"geometry":{"type":"Point","coordinates":[37.633329999999994,-0.58333]}},{"type":"feature","properties":{"country_en":"Kenya","name":"Mutomo","name_adm0":"Kenya","name_adm1":"Eastern","name_en":"Mutomo"},"geometry":{"type":"Point","coordinates":[38.20641,-1.8478]}},{"type":"feature","properties":{"country_en":"Kenya","name":"Ngiya","name_adm0":"Kenya","name_adm1":"Nyanza","name_en":"Ngiya"},"geometry":{"type":"Point","coordinates":[34.37386,0.03795]}},{"type":"feature","properties":{"country_en":"Kenya","name":"Bunyore","name_adm0":"Kenya","name_adm1":"Western","name_en":"Bunyore"},"geometry":{"type":"Point","coordinates":[34.61666999999999,0.08333]}},{"type":"feature","properties":{"country_en":"Kenya","name":"Kampi Ya Samaki","name_adm0":"Kenya","name_adm1":"Rift Valley","name_en":"Kampi Ya Samaki"},"geometry":{"type":"Point","coordinates":[36.02204,0.61104]}},{"type":"feature","properties":{"country_en":"Kenya","name":"Baringo","name_adm0":"Kenya","name_adm1":"Rift Valley","name_en":"Baringo"},"geometry":{"type":"Point","coordinates":[35.96667,0.4666699999999999]}},{"type":"feature","properties":{"country_en":"Kenya","name":"Chiromo","name_adm0":"Kenya","name_adm1":"Nairobi Area","name_en":"Chiromo"},"geometry":{"type":"Point","coordinates":[36.8,-1.26667]}},{"type":"feature","properties":{"country_en":"Kenya","name":"Maseno","name_adm0":"Kenya","name_adm1":"Nyanza","name_en":"Maseno"},"geometry":{"type":"Point","coordinates":[34.60951,-0.00416]}},{"type":"feature","properties":{"country_en":"Kenya","name":"Kariobangi","name_adm0":"Kenya","name_adm1":"Nairobi Area","name_en":"Kariobangi"},"geometry":{"type":"Point","coordinates":[36.88333,-1.2499999999999998]}},{"type":"feature","properties":{"country_en":"Kenya","name":"Pangani","name_adm0":"Kenya","name_adm1":"Nairobi Area","name_en":"Pangani"},"geometry":{"type":"Point","coordinates":[36.83333,-1.26667]}},{"type":"feature","properties":{"country_en":"Kenya","name":"Riruta","name_adm0":"Kenya","name_adm1":"Nairobi Area","name_en":"Riruta"},"geometry":{"type":"Point","coordinates":[36.73333,-1.28333]}},{"type":"feature","properties":{"country_en":"Kenya","name":"Tiwi","name_adm0":"Kenya","name_adm1":"Coast","name_en":"Tiwi"},"geometry":{"type":"Point","coordinates":[39.57638,-4.23934]}},{"type":"feature","properties":{"country_en":"Kenya","name":"Gede","name_adm0":"Kenya","name_adm1":"Coast","name_en":"Gede"},"geometry":{"type":"Point","coordinates":[40.01602,-3.30341]}},{"type":"feature","properties":{"country_en":"Kenya","name":"Athi River","name_adm0":"Kenya","name_adm1":"Eastern","name_en":"Athi River"},"geometry":{"type":"Point","coordinates":[36.97826,-1.4562999999999997]}},{"type":"feature","properties":{"country_en":"Kenya","name":"Limuru","name_adm0":"Kenya","name_adm1":"Central","name_en":"Limuru"},"geometry":{"type":"Point","coordinates":[36.64999999999999,-1.1]}},{"type":"feature","properties":{"country_en":"Kenya","name":"Ngong","name_adm0":"Kenya","name_adm1":"Rift Valley","name_en":"Ngong"},"geometry":{"type":"Point","coordinates":[36.6566,-1.36175]}},{"type":"feature","properties":{"country_en":"Kenya","name":"Kakuma","name_adm0":"Kenya","name_adm1":"Rift Valley","name_en":"Kakuma"},"geometry":{"type":"Point","coordinates":[34.87328,3.7060299999999997]}},{"type":"feature","properties":{"country_en":"Kenya","name":"Kisauni","name_adm0":"Kenya","name_adm1":"Coast","name_en":"Kisauni"},"geometry":{"type":"Point","coordinates":[39.68574,-4.03287]}},{"type":"feature","properties":{"country_en":"Kenya","name":"Mandera","name_adm0":"Kenya","name_adm1":"North-Eastern","name_en":"Mandera"},"geometry":{"type":"Point","coordinates":[41.86700999999999,3.9366299999999996]}},{"type":"feature","properties":{"country_en":"Kenya","name":"Mkunguni","name_adm0":"Kenya","name_adm1":"Coast","name_en":"Mkunguni"},"geometry":{"type":"Point","coordinates":[39.62354,-4.06146]}},{"type":"feature","properties":{"country_en":"Kenya","name":"Kibigori","name_adm0":"Kenya","name_adm1":"Nyanza","name_en":"Kibigori"},"geometry":{"type":"Point","coordinates":[35.04694,-0.08056]}},{"type":"feature","properties":{"country_en":"Kenya","name":"South Kinangop","name_adm0":"Kenya","name_adm1":"Central","name_en":"South Kinangop"},"geometry":{"type":"Point","coordinates":[36.65905999999999,-0.73078]}},{"type":"feature","properties":{"country_en":"Kenya","name":"North-Eastern","name_adm0":"Kenya","name_adm1":"North-Eastern","name_en":"North-Eastern"},"geometry":{"type":"Point","coordinates":[40.25,1]}},{"type":"feature","properties":{"country_en":"Kenya","name":"Kilala","name_adm0":"Kenya","name_adm1":"Eastern","name_en":"Kilala"},"geometry":{"type":"Point","coordinates":[37.633329999999994,-1.56667]}},{"type":"feature","properties":{"country_en":"Kenya","name":"Ewaso Ngiro","name_adm0":"Kenya","name_adm1":"Rift Valley","name_en":"Ewaso Ngiro"},"geometry":{"type":"Point","coordinates":[35.7560325,-1.1480039999999998]}},{"type":"feature","properties":{"country_en":"Kenya","name":"Junda","name_adm0":"Kenya","name_adm1":"Coast","name_en":"Junda"},"geometry":{"type":"Point","coordinates":[39.707164,-4.016415]}},{"type":"feature","properties":{"country_en":"Kenya","name":"Kakamega","name_adm0":"Kenya","name_adm1":"Western","name_en":"Kakamega"},"geometry":{"type":"Point","coordinates":[34.75047,0.288819]}},{"type":"feature","properties":{"country_en":"Kenya","name":"Kipevu","name_adm0":"Kenya","name_adm1":"Coast","name_en":"Kipevu"},"geometry":{"type":"Point","coordinates":[39.625033,-4.029497]}},{"type":"feature","properties":{"country_en":"Kenya","name":"Lanet","name_adm0":"Kenya","name_adm1":"Rift Valley","name_en":"Lanet"},"geometry":{"type":"Point","coordinates":[36.097984,-0.32950199999999996]}},{"type":"feature","properties":{"country_en":"Kenya","name":"Loiyangalani","name_adm0":"Kenya","name_adm1":"Eastern","name_en":"Loiyangalani"},"geometry":{"type":"Point","coordinates":[36.707725,2.728041]}},{"type":"feature","properties":{"country_en":"Kenya","name":"Manyami","name_adm0":"Kenya","name_adm1":"Coast","name_en":"Manyami"},"geometry":{"type":"Point","coordinates":[38.496093,-3.1096629999999994]}},{"type":"feature","properties":{"country_en":"Kenya","name":"Makutano","name_adm0":"Kenya","name_adm1":"Rift Valley","name_en":"Makutano"},"geometry":{"type":"Point","coordinates":[35.09269,1.2576899999999998]}},{"type":"feature","properties":{"country_en":"Kenya","name":"Mugumoini","name_adm0":"Kenya","name_adm1":"Central","name_en":"Mugumoini"},"geometry":{"type":"Point","coordinates":[37.36666999999999,-0.63333]}},{"type":"feature","properties":{"country_en":"Kenya","name":"Oloitokitok","name_adm0":"Kenya","name_adm1":"Rift Valley","name_en":"Oloitokitok"},"geometry":{"type":"Point","coordinates":[37.499427,-2.915353]}},{"type":"feature","properties":{"country_en":"Kenya","name":"Ol Tukai","name_adm0":"Kenya","name_adm1":"Rift Valley","name_en":"Ol Tukai"},"geometry":{"type":"Point","coordinates":[37.26,-2.652879]}},{"type":"feature","properties":{"country_en":"Kenya","name":"Old Mombasa","name_adm0":"Kenya","name_adm1":"Coast","name_en":"Old Mombasa"},"geometry":{"type":"Point","coordinates":[39.66562199999999,-4.054686]}},{"type":"feature","properties":{"country_en":"Kenya","name":"Mbagathi","name_adm0":"Kenya","name_adm1":"Nairobi Area","name_en":"Mbagathi"},"geometry":{"type":"Point","coordinates":[36.77536,-1.3756899999999999]}},{"type":"feature","properties":{"country_en":"Kenya","name":"Sotik","name_adm0":"Kenya","name_adm1":"Rift Valley","name_en":"Sotik"},"geometry":{"type":"Point","coordinates":[35.34156,-0.78129]}},{"type":"feature","properties":{"country_en":"Kenya","name":"Kenyatta University","name_adm0":"Kenya","name_adm1":"Nairobi Area","name_en":"Kenyatta University"},"geometry":{"type":"Point","coordinates":[36.811752,-1.282031]}},{"type":"feature","properties":{"country_en":"Kenya","name":"Ngong Road","name_adm0":"Kenya","name_adm1":"Nairobi Area","name_en":"Ngong Road"},"geometry":{"type":"Point","coordinates":[36.804320999999995,-1.329403]}},{"type":"feature","properties":{"country_en":"Kenya","name":"Kianjai","name_adm0":"Kenya","name_adm1":"Eastern","name_en":"Kianjai"},"geometry":{"type":"Point","coordinates":[37.74611,0.16062]}},{"type":"feature","properties":{"country_en":"Kenya","name":"Kandara","name_adm0":"Kenya","name_adm1":"Central","name_en":"Kandara"},"geometry":{"type":"Point","coordinates":[37,-0.9]}},{"type":"feature","properties":{"country_en":"Kenya","name":"Selengai","name_adm0":"Kenya","name_adm1":"Rift Valley","name_en":"Selengai"},"geometry":{"type":"Point","coordinates":[37.16554,-2.18173]}},{"type":"feature","properties":{"country_en":"Kenya","name":"Nairobi Area","name_adm0":"Kenya","name_adm1":"Nairobi Area","name_en":"Nairobi Area"},"geometry":{"type":"Point","coordinates":[36.83333,-1.28333]}},{"type":"feature","properties":{"country_en":"Kenya","name":"Kahawa","name_adm0":"Kenya","name_adm1":"Nairobi Area","name_en":"Kahawa"},"geometry":{"type":"Point","coordinates":[36.91667,-1.18333]}},{"type":"feature","properties":{"country_en":"Kenya","name":"Sare","name_adm0":"Kenya","name_adm1":"Nyanza","name_en":"Sare"},"geometry":{"type":"Point","coordinates":[34.53367,-0.9059000000000001]}},{"type":"feature","properties":{"country_en":"Kenya","name":"Kibirigwi","name_adm0":"Kenya","name_adm1":"Central","name_en":"Kibirigwi"},"geometry":{"type":"Point","coordinates":[37.17829,-0.52863]}},{"type":"feature","properties":{"country_en":"Kenya","name":"Salabani","name_adm0":"Kenya","name_adm1":"Rift Valley","name_en":"Salabani"},"geometry":{"type":"Point","coordinates":[36.04941,0.55377]}},{"type":"feature","properties":{"country_en":"Kenya","name":"Ngerenyi","name_adm0":"Kenya","name_adm1":"Coast","name_en":"Ngerenyi"},"geometry":{"type":"Point","coordinates":[38.33333,-3.41667]}},{"type":"feature","properties":{"country_en":"Kenya","name":"Ngewa","name_adm0":"Kenya","name_adm1":"Central","name_en":"Ngewa"},"geometry":{"type":"Point","coordinates":[36.86667,-1.08333]}},{"type":"feature","properties":{"country_en":"Kenya","name":"Suna","name_adm0":"Kenya","name_adm1":"Nyanza","name_en":"Suna"},"geometry":{"type":"Point","coordinates":[34.43333,-1.08333]}},{"type":"feature","properties":{"country_en":"Kenya","name":"Bomet","name_adm0":"Kenya","name_adm1":"Rift Valley","name_en":"Bomet"},"geometry":{"type":"Point","coordinates":[35.34156,-0.78129]}},{"type":"feature","properties":{"country_en":"Kenya","name":"Mateka","name_adm0":"Kenya","name_adm1":"Western","name_en":"Mateka"},"geometry":{"type":"Point","coordinates":[34.501729999999995,0.53518]}},{"type":"feature","properties":{"country_en":"Kenya","name":"Ruring'u","name_adm0":"Kenya","name_adm1":"Central","name_en":"Ruring'u"},"geometry":{"type":"Point","coordinates":[36.96667,-0.43332999999999994]}},{"type":"feature","properties":{"country_en":"Kenya","name":"Njoro","name_adm0":"Kenya","name_adm1":"Rift Valley","name_en":"Njoro"},"geometry":{"type":"Point","coordinates":[35.944,-0.329]}},{"type":"feature","properties":{"country_en":"Kenya","name":"Mokowe","name_adm0":"Kenya","name_adm1":"Coast","name_en":"Mokowe"},"geometry":{"type":"Point","coordinates":[40.84656,-2.23428]}},{"type":"feature","properties":{"country_en":"Kenya","name":"Mohoru","name_adm0":"Kenya","name_adm1":"Nyanza","name_en":"Mohoru"},"geometry":{"type":"Point","coordinates":[34.09624,-0.99943]}},{"type":"feature","properties":{"country_en":"Kenya","name":"Makadara","name_adm0":"Kenya","name_adm1":"Nairobi Area","name_en":"Makadara"},"geometry":{"type":"Point","coordinates":[36.88333,-1.28333]}},{"type":"feature","properties":{"country_en":"Kenya","name":"Makuyu","name_adm0":"Kenya","name_adm1":"Central","name_en":"Makuyu"},"geometry":{"type":"Point","coordinates":[37.18333,-0.9]}},{"type":"feature","properties":{"country_en":"Kenya","name":"Loiminange","name_adm0":"Kenya","name_adm1":"Rift Valley","name_en":"Loiminange"},"geometry":{"type":"Point","coordinates":[36.10775,0.53456]}},{"type":"feature","properties":{"country_en":"Kenya","name":"Maji Ya Moto","name_adm0":"Kenya","name_adm1":"Rift Valley","name_en":"Maji Ya Moto"},"geometry":{"type":"Point","coordinates":[36.04842,0.26846]}},{"type":"feature","properties":{"country_en":"Kenya","name":"Bamburi","name_adm0":"Kenya","name_adm1":"Coast","name_en":"Bamburi"},"geometry":{"type":"Point","coordinates":[39.71667,-4]}},{"type":"feature","properties":{"country_en":"Kenya","name":"Msambweni","name_adm0":"Kenya","name_adm1":"Coast","name_en":"Msambweni"},"geometry":{"type":"Point","coordinates":[39.48265,-4.4619]}},{"type":"feature","properties":{"country_en":"Kenya","name":"Chakama","name_adm0":"Kenya","name_adm1":"Coast","name_en":"Chakama"},"geometry":{"type":"Point","coordinates":[39.657897,-3.081551]}},{"type":"feature","properties":{"country_en":"Kenya","name":"Murang'a","name_adm0":"Kenya","name_adm1":"Central","name_en":"Murang'a"},"geometry":{"type":"Point","coordinates":[37.15,-0.71667]}},{"type":"feature","properties":{"country_en":"Kenya","name":"Kiserian","name_adm0":"Kenya","name_adm1":"Rift Valley","name_en":"Kiserian"},"geometry":{"type":"Point","coordinates":[36.68872999999999,-1.42122]}},{"type":"feature","properties":{"country_en":"Kenya","name":"Uranga","name_adm0":"Kenya","name_adm1":"Nyanza","name_en":"Uranga"},"geometry":{"type":"Point","coordinates":[34.15,0.11666999999999998]}},{"type":"feature","properties":{"country_en":"Kenya","name":"Kiambururu","name_adm0":"Kenya","name_adm1":"Central","name_en":"Kiambururu"},"geometry":{"type":"Point","coordinates":[36.81667,-1.05]}},{"type":"feature","properties":{"country_en":"Kenya","name":"Awach Tende","name_adm0":"Kenya","name_adm1":"Nyanza","name_en":"Awach Tende"},"geometry":{"type":"Point","coordinates":[34.61666999999999,-0.48333]}},{"type":"feature","properties":{"country_en":"Kenya","name":"Sala","name_adm0":"Kenya","name_adm1":"Coast","name_en":"Sala"},"geometry":{"type":"Point","coordinates":[38.57456,-3.51006]}},{"type":"feature","properties":{"country_en":"Kenya","name":"Mombasa","name_adm0":"Kenya","name_adm1":"Coast","name_en":"Mombasa"},"geometry":{"type":"Point","coordinates":[39.675664,-4.05361]}},{"type":"feature","properties":{"country_en":"Kenya","name":"Kunyao","name_adm0":"Kenya","name_adm1":"Rift Valley","name_en":"Kunyao"},"geometry":{"type":"Point","coordinates":[35.05136,1.79163]}},{"type":"feature","properties":{"country_en":"Kenya","name":"Karurumo","name_adm0":"Kenya","name_adm1":"Eastern","name_en":"Karurumo"},"geometry":{"type":"Point","coordinates":[37.64729,-0.4646]}},{"type":"feature","properties":{"country_en":"Kenya","name":"Ekarakara","name_adm0":"Kenya","name_adm1":"Eastern","name_en":"Ekarakara"},"geometry":{"type":"Point","coordinates":[37.475539999999995,-0.97056]}},{"type":"feature","properties":{"country_en":"Kenya","name":"Gachika","name_adm0":"Kenya","name_adm1":"Central","name_en":"Gachika"},"geometry":{"type":"Point","coordinates":[36.77534,-0.9741]}},{"type":"feature","properties":{"country_en":"Kenya","name":"Kagicha","name_adm0":"Kenya","name_adm1":"Central","name_en":"Kagicha"},"geometry":{"type":"Point","coordinates":[36.89618,-0.60117]}},{"type":"feature","properties":{"country_en":"Kenya","name":"Kom","name_adm0":"Kenya","name_adm1":"Rift Valley","name_en":"Kom"},"geometry":{"type":"Point","coordinates":[38.03333,1.08333]}},{"type":"feature","properties":{"country_en":"Kenya","name":"Koyonzo","name_adm0":"Kenya","name_adm1":"Western","name_en":"Koyonzo"},"geometry":{"type":"Point","coordinates":[34.42443999999999,0.42027999999999993]}},{"type":"feature","properties":{"country_en":"Kenya","name":"Central","name_adm0":"Kenya","name_adm1":"Central","name_en":"Central"},"geometry":{"type":"Point","coordinates":[37,-0.75]}},{"type":"feature","properties":{"country_en":"Kenya","name":"Nuu","name_adm0":"Kenya","name_adm1":"Eastern","name_en":"Nuu"},"geometry":{"type":"Point","coordinates":[38.38333,-0.95]}},{"type":"feature","properties":{"country_en":"Kenya","name":"Nyangweso","name_adm0":"Kenya","name_adm1":"Nyanza","name_en":"Nyangweso"},"geometry":{"type":"Point","coordinates":[34.45694,0.07666999999999999]}},{"type":"feature","properties":{"country_en":"Kenya","name":"Nairobi West","name_adm0":"Kenya","name_adm1":"Nairobi Area","name_en":"Nairobi West"},"geometry":{"type":"Point","coordinates":[36.81667,-1.2999999999999998]}},{"type":"feature","properties":{"country_en":"Kenya","name":"Ntimaru","name_adm0":"Kenya","name_adm1":"Nyanza","name_en":"Ntimaru"},"geometry":{"type":"Point","coordinates":[34.681777,-1.3003939999999998]}},{"type":"feature","properties":{"country_en":"Kenya","name":"Ofafa","name_adm0":"Kenya","name_adm1":"Nairobi Area","name_en":"Ofafa"},"geometry":{"type":"Point","coordinates":[36.86667,-1.28333]}},{"type":"feature","properties":{"country_en":"Kenya","name":"Kileleshwa","name_adm0":"Kenya","name_adm1":"Nairobi Area","name_en":"Kileleshwa"},"geometry":{"type":"Point","coordinates":[36.78333,-1.28333]}},{"type":"feature","properties":{"country_en":"Kenya","name":"Garba Tula","name_adm0":"Kenya","name_adm1":"Eastern","name_en":"Garba Tula"},"geometry":{"type":"Point","coordinates":[38.51899,0.53598]}},{"type":"feature","properties":{"country_en":"Kenya","name":"Gilgil","name_adm0":"Kenya","name_adm1":"Rift Valley","name_en":"Gilgil"},"geometry":{"type":"Point","coordinates":[36.31201,-0.48972000000000004]}},{"type":"feature","properties":{"country_en":"Kenya","name":"Usueni","name_adm0":"Kenya","name_adm1":"Eastern","name_en":"Usueni"},"geometry":{"type":"Point","coordinates":[38.20186,-0.15576]}},{"type":"feature","properties":{"country_en":"Kenya","name":"Ukwala","name_adm0":"Kenya","name_adm1":"Nyanza","name_en":"Ukwala"},"geometry":{"type":"Point","coordinates":[34.18908,0.19039]}},{"type":"feature","properties":{"country_en":"Kenya","name":"Tulia","name_adm0":"Kenya","name_adm1":"Eastern","name_en":"Tulia"},"geometry":{"type":"Point","coordinates":[37.97801,-1.18496]}},{"type":"feature","properties":{"country_en":"Kenya","name":"Tarbaj","name_adm0":"Kenya","name_adm1":"North-Eastern","name_en":"Tarbaj"},"geometry":{"type":"Point","coordinates":[40.12025,2.21645]}},{"type":"feature","properties":{"country_en":"Kenya","name":"Tangulbei","name_adm0":"Kenya","name_adm1":"Rift Valley","name_en":"Tangulbei"},"geometry":{"type":"Point","coordinates":[36.28714,0.8018999999999998]}},{"type":"feature","properties":{"country_en":"Kenya","name":"Soy","name_adm0":"Kenya","name_adm1":"Rift Valley","name_en":"Soy"},"geometry":{"type":"Point","coordinates":[35.153929999999995,0.66789]}},{"type":"feature","properties":{"country_en":"Kenya","name":"Sololo","name_adm0":"Kenya","name_adm1":"Eastern","name_en":"Sololo"},"geometry":{"type":"Point","coordinates":[38.643209999999996,3.56392]}},{"type":"feature","properties":{"country_en":"Kenya","name":"Olmesutye","name_adm0":"Kenya","name_adm1":"Rift Valley","name_en":"Olmesutye"},"geometry":{"type":"Point","coordinates":[35.73481,-1.9081199999999998]}},{"type":"feature","properties":{"country_en":"Kenya","name":"Ntulelei","name_adm0":"Kenya","name_adm1":"Rift Valley","name_en":"Ntulelei"},"geometry":{"type":"Point","coordinates":[36.08567,-1.09588]}},{"type":"feature","properties":{"country_en":"Kenya","name":"Mwatate","name_adm0":"Kenya","name_adm1":"Coast","name_en":"Mwatate"},"geometry":{"type":"Point","coordinates":[38.37624,-3.49947]}},{"type":"feature","properties":{"country_en":"Kenya","name":"Masongaleni","name_adm0":"Kenya","name_adm1":"Eastern","name_en":"Masongaleni"},"geometry":{"type":"Point","coordinates":[38.05021,-2.49031]}},