{"type":"FeatureCollection","features":[{"type":"feature","properties":{"country_en":"Cambodia","name":"Peam Kay","name_adm0":"Cambodia","name_adm1":"Kaoh Kong","name_adm2":"Botum Sakor","name_en":"Peam Kay"},"geometry":{"type":"Point","coordinates":[103.17502,10.8773]}},{"type":"feature","properties":{"country_en":"Cambodia","name":"Moung Roessei","name_adm0":"Cambodia","name_adm1":"Batdambang","name_adm2":"Moung Ruessei","name_en":"Moung Roessei"},"geometry":{"type":"Point","coordinates":[103.44896,12.77316]}},{"type":"feature","properties":{"country_en":"Cambodia","name":"Phumi Krakaoh","name_adm0":"Cambodia","name_adm1":"Batdambang","name_adm2":"Moung Ruessei","name_en":"Phumi Krakaoh"},"geometry":{"type":"Point","coordinates":[103.39926,12.841249999999999]}},{"type":"feature","properties":{"country_en":"Cambodia","name":"Phumi Kouk Kduoch","name_adm0":"Cambodia","name_adm1":"Batdambang","name_adm2":"Bat Dambang","name_en":"Phumi Kouk Kduoch"},"geometry":{"type":"Point","coordinates":[103.0934,13.27241]}},{"type":"feature","properties":{"country_en":"Cambodia","name":"Phumi Phsar","name_adm0":"Cambodia","name_adm1":"Kampong Chhnang","name_adm2":"Baribour","name_en":"Phumi Phsar"},"geometry":{"type":"Point","coordinates":[104.48621,12.38196]}},{"type":"feature","properties":{"country_en":"Cambodia","name":"Phumi o Pou","name_adm0":"Cambodia","name_adm1":"Preah Vihear","name_adm2":"Rovieng","name_en":"Phumi o Pou"},"geometry":{"type":"Point","coordinates":[105.00867999999998,13.14316]}},{"type":"feature","properties":{"country_en":"Cambodia","name":"Phumi Kroch Saeuch","name_adm0":"Cambodia","name_adm1":"Kandal","name_adm2":"Khsach Kandal","name_en":"Phumi Kroch Saeuch"},"geometry":{"type":"Point","coordinates":[104.97813,11.71378]}},{"type":"feature","properties":{"country_en":"Cambodia","name":"Phumi Treng","name_adm0":"Cambodia","name_adm1":"Batdambang","name_adm2":"Rotanak Mondol","name_en":"Phumi Treng"},"geometry":{"type":"Point","coordinates":[103.72596,12.72931]}},{"type":"feature","properties":{"country_en":"Cambodia","name":"Phumi Smach","name_adm0":"Cambodia","name_adm1":"Banteay Mean Cheay","name_adm2":"Malai","name_en":"Phumi Smach"},"geometry":{"type":"Point","coordinates":[103.08214,13.65787]}},{"type":"feature","properties":{"country_en":"Cambodia","name":"Baray","name_adm0":"Cambodia","name_adm1":"Kampong Thum","name_adm2":"Baray","name_en":"Baray"},"geometry":{"type":"Point","coordinates":[105.06,12.419999999999998]}},{"type":"feature","properties":{"country_en":"Cambodia","name":"Rolea B'ier","name_adm0":"Cambodia","name_adm1":"Kampong Chhnang","name_adm2":"Rolea B'ier","name_en":"Rolea B'ier"},"geometry":{"type":"Point","coordinates":[104.61,12.21]}},{"type":"feature","properties":{"country_en":"Cambodia","name":"Banteai Chhmar","name_adm0":"Cambodia","name_adm1":"Banteay Mean Cheay","name_adm2":"Thma Puok","name_en":"Banteai Chhmar"},"geometry":{"type":"Point","coordinates":[103.099801,14.071812]}},{"type":"feature","properties":{"country_en":"Cambodia","name":"Phumi Sandan","name_adm0":"Cambodia","name_adm1":"Krachen","name_adm2":"Sambour","name_en":"Phumi Sandan"},"geometry":{"type":"Point","coordinates":[106.021269,12.666968999999998]}},{"type":"feature","properties":{"country_en":"Cambodia","name":"Ph.Prey Svay","name_adm0":"Cambodia","name_adm1":"Prey Veng","name_adm2":"Kanhchriech","name_en":"Ph.Prey Svay"},"geometry":{"type":"Point","coordinates":[105.42387,11.68284]}},{"type":"feature","properties":{"country_en":"Cambodia","name":"Angkor Chey","name_adm0":"Cambodia","name_adm1":"Kampot","name_adm2":"Angkor Chey","name_en":"Angkor Chey"},"geometry":{"type":"Point","coordinates":[104.65071,10.82508]}},{"type":"feature","properties":{"country_en":"Cambodia","name":"Stoung","name_adm0":"Cambodia","name_adm1":"Kampong Thum","name_adm2":"Stoung","name_en":"Stoung"},"geometry":{"type":"Point","coordinates":[104.48777,12.899219999999998]}},{"type":"feature","properties":{"country_en":"Cambodia","name":"Khum de Speu","name_adm0":"Cambodia","name_adm1":"Kampong Cham","name_adm2":"Chamkar Leu","name_en":"Khum de Speu"},"geometry":{"type":"Point","coordinates":[105.33485,12.329929999999997]}},{"type":"feature","properties":{"country_en":"Cambodia","name":"Phumi Chambak","name_adm0":"Cambodia","name_adm1":"Prey Veng","name_adm2":"Kanhchriech","name_en":"Phumi Chambak"},"geometry":{"type":"Point","coordinates":[105.42496,11.67244]}},{"type":"feature","properties":{"country_en":"Cambodia","name":"Chbar","name_adm0":"Cambodia","name_adm1":"Mondol Kiri","name_adm2":"Pechr Chenda","name_en":"Chbar"},"geometry":{"type":"Point","coordinates":[107.15348999999999,12.77166]}},{"type":"feature","properties":{"country_en":"Cambodia","name":"Phumi Kantuot Samraong","name_adm0":"Cambodia","name_adm1":"Preah Vihear","name_adm2":"Choam Khsant","name_en":"Phumi Kantuot Samraong"},"geometry":{"type":"Point","coordinates":[104.62627,14.20472]}},{"type":"feature","properties":{"country_en":"Cambodia","name":"Banteay Mean Cheay","name_adm0":"Cambodia","name_adm1":"Banteay Mean Cheay","name_en":"Banteay Mean Cheay"},"geometry":{"type":"Point","coordinates":[102.99999999999999,13.75]}},{"type":"feature","properties":{"country_en":"Cambodia","name":"Batdambang","name_adm0":"Cambodia","name_adm1":"Batdambang","name_en":"Batdambang"},"geometry":{"type":"Point","coordinates":[103.08333,12.91667]}},{"type":"feature","properties":{"country_en":"Cambodia","name":"Svay Leu","name_adm0":"Cambodia","name_adm1":"Siem Reap Province","name_adm2":"Svay Leu","name_en":"Svay Leu"},"geometry":{"type":"Point","coordinates":[104.1138295,13.5642395]}},{"type":"feature","properties":{"country_en":"Cambodia","name":"Varin","name_adm0":"Cambodia","name_adm1":"Siem Reap Province","name_adm2":"Varin","name_en":"Varin"},"geometry":{"type":"Point","coordinates":[104.014434,13.689188]}},{"type":"feature","properties":{"country_en":"Cambodia","name":"Stueng Traeng","name_adm0":"Cambodia","name_adm1":"Stoeng Treng","name_adm2":"Stueng Traeng","name_en":"Stueng Traeng"},"geometry":{"type":"Point","coordinates":[105.985107,13.525848999999997]}},{"type":"feature","properties":{"country_en":"Cambodia","name":"Mondol Seima","name_adm0":"Cambodia","name_adm1":"Kaoh Kong","name_adm2":"Mondol Seima","name_en":"Mondol Seima"},"geometry":{"type":"Point","coordinates":[103.1279745,11.673082]}},{"type":"feature","properties":{"country_en":"Cambodia","name":"Svay Rieng","name_adm0":"Cambodia","name_adm1":"Svay Rieng","name_en":"Svay Rieng"},"geometry":{"type":"Point","coordinates":[105.83333,11.16667]}},{"type":"feature","properties":{"country_en":"Cambodia","name":"Kampong Cham","name_adm0":"Cambodia","name_adm1":"Kampong Cham","name_adm2":"Kampong Cham","name_en":"Kampong Cham"},"geometry":{"type":"Point","coordinates":[105.445,11.979999999999999]}},{"type":"feature","properties":{"country_en":"Cambodia","name":"Baribour","name_adm0":"Cambodia","name_adm1":"Kampong Chhnang","name_adm2":"Baribour","name_en":"Baribour"},"geometry":{"type":"Point","coordinates":[104.46999999999998,12.43]}},{"type":"feature","properties":{"country_en":"Cambodia","name":"Sangkae","name_adm0":"Cambodia","name_adm1":"Batdambang","name_adm2":"Sangkae","name_en":"Sangkae"},"geometry":{"type":"Point","coordinates":[103.317152,13.007568]}},{"type":"feature","properties":{"country_en":"Cambodia","name":"Kampong Trabaek","name_adm0":"Cambodia","name_adm1":"Prey Veng","name_adm2":"Kampong Trabaek","name_en":"Kampong Trabaek"},"geometry":{"type":"Point","coordinates":[105.51626999999999,11.20683]}},{"type":"feature","properties":{"country_en":"Cambodia","name":"Phumi Phum Thipdei","name_adm0":"Cambodia","name_adm1":"Batdambang","name_adm2":"Banan","name_en":"Phumi Phum Thipdei"},"geometry":{"type":"Point","coordinates":[103.27727999999999,12.8713]}},{"type":"feature","properties":{"country_en":"Cambodia","name":"Botum Sakor","name_adm0":"Cambodia","name_adm1":"Kaoh Kong","name_adm2":"Botum Sakor","name_en":"Botum Sakor"},"geometry":{"type":"Point","coordinates":[103.38994,11.11465]}},{"type":"feature","properties":{"country_en":"Cambodia","name":"Kampong Chhnang","name_adm0":"Cambodia","name_adm1":"Kampong Chhnang","name_adm2":"Kampong Chhnang","name_en":"Kampong Chhnang"},"geometry":{"type":"Point","coordinates":[104.67,12.26]}},{"type":"feature","properties":{"country_en":"Cambodia","name":"Phnom Penh","name_adm0":"Cambodia","name_adm1":"Phnum Penh","name_adm2":"Phnom Penh","name_en":"Phnom Penh"},"geometry":{"type":"Point","coordinates":[104.91769999999998,11.5591]}},{"type":"feature","properties":{"country_en":"Cambodia","name":"Cambodia","name_adm0":"Cambodia","name_en":"Cambodia"},"geometry":{"type":"Point","coordinates":[104.983856,12.547729999999998]}},{"type":"feature","properties":{"country_en":"Cambodia","name":"Trapeang Veng","name_adm0":"Cambodia","name_adm1":"Kampong Thum","name_adm2":"Stueng Saen","name_en":"Trapeang Veng"},"geometry":{"type":"Point","coordinates":[104.90666,12.668149999999999]}},{"type":"feature","properties":{"country_en":"Cambodia","name":"Kaoh Nheaek","name_adm0":"Cambodia","name_adm1":"Mondol Kiri","name_adm2":"Kaoh Nheaek","name_en":"Kaoh Nheaek"},"geometry":{"type":"Point","coordinates":[107.0806785,12.540343499999999]}},{"type":"feature","properties":{"country_en":"Cambodia","name":"Chhuk","name_adm0":"Cambodia","name_adm1":"Kampot","name_adm2":"Chhuk","name_en":"Chhuk"},"geometry":{"type":"Point","coordinates":[104.320678,10.701767]}},{"type":"feature","properties":{"country_en":"Cambodia","name":"Krakor","name_adm0":"Cambodia","name_adm1":"Pouthisat","name_adm2":"Krakor","name_en":"Krakor"},"geometry":{"type":"Point","coordinates":[104.19,12.48]}},{"type":"feature","properties":{"country_en":"Cambodia","name":"Phumi Preah Angkoal","name_adm0":"Cambodia","name_adm1":"Stoeng Treng","name_adm2":"Thala Barivat","name_en":"Phumi Preah Angkoal"},"geometry":{"type":"Point","coordinates":[105.950174,13.934733]}},{"type":"feature","properties":{"country_en":"Cambodia","name":"Thma Puok","name_adm0":"Cambodia","name_adm1":"Banteay Mean Cheay","name_adm2":"Thma Puok","name_en":"Thma Puok"},"geometry":{"type":"Point","coordinates":[102.989959,14.064652]}},{"type":"feature","properties":{"country_en":"Cambodia","name":"Phumi Sre Noy","name_adm0":"Cambodia","name_adm1":"Siem Reap Province","name_adm2":"Varin","name_en":"Phumi Sre Noy"},"geometry":{"type":"Point","coordinates":[104.025421,13.820411]}},{"type":"feature","properties":{"country_en":"Cambodia","name":"Soutr Nikom","name_adm0":"Cambodia","name_adm1":"Siem Reap Province","name_adm2":"Soutr Nikom","name_en":"Soutr Nikom"},"geometry":{"type":"Point","coordinates":[104.1180205,13.105373]}},{"type":"feature","properties":{"country_en":"Cambodia","name":"Pousat","name_adm0":"Cambodia","name_adm1":"Pouthisat","name_adm2":"Sampov Meas","name_en":"Pousat"},"geometry":{"type":"Point","coordinates":[103.924083,12.528785999999998]}},{"type":"feature","properties":{"country_en":"Cambodia","name":"Chhloung","name_adm0":"Cambodia","name_adm1":"Krachen","name_adm2":"Chhloung","name_en":"Chhloung"},"geometry":{"type":"Point","coordinates":[105.972747,12.284990999999998]}},{"type":"feature","properties":{"country_en":"Cambodia","name":"Toul Tapeung","name_adm0":"Cambodia","name_adm1":"Phnum Penh","name_adm2":"Phnom Penh","name_en":"Toul Tapeung"},"geometry":{"type":"Point","coordinates":[104.90628,11.55118]}},{"type":"feature","properties":{"country_en":"Cambodia","name":"Chhlong","name_adm0":"Cambodia","name_adm1":"Krachen","name_adm2":"Chhloung","name_en":"Chhlong"},"geometry":{"type":"Point","coordinates":[105.97579,12.25304]}},{"type":"feature","properties":{"country_en":"Cambodia","name":"Toul Kork","name_adm0":"Cambodia","name_adm1":"Phnum Penh","name_adm2":"Phnom Penh","name_en":"Toul Kork"},"geometry":{"type":"Point","coordinates":[104.89786999999998,11.57912]}},{"type":"feature","properties":{"country_en":"Cambodia","name":"Kampong Thum","name_adm0":"Cambodia","name_adm1":"Kampong Thum","name_adm2":"Stueng Saen","name_en":"Kampong Thum"},"geometry":{"type":"Point","coordinates":[104.889822,12.718904999999998]}},{"type":"feature","properties":{"country_en":"Cambodia","name":"Siem Reab","name_adm0":"Cambodia","name_adm1":"Siem Reap Province","name_adm2":"Siem Reab","name_en":"Siem Reab"},"geometry":{"type":"Point","coordinates":[103.859252,13.434935]}},{"type":"feature","properties":{"country_en":"Cambodia","name":"Sampov Meas","name_adm0":"Cambodia","name_adm1":"Pouthisat","name_adm2":"Sampov Meas","name_en":"Sampov Meas"},"geometry":{"type":"Point","coordinates":[103.92,12.48]}},{"type":"feature","properties":{"country_en":"Cambodia","name":"Phnum Penh","name_adm0":"Cambodia","name_adm1":"Phnum Penh","name_en":"Phnum Penh"},"geometry":{"type":"Point","coordinates":[104.86666999999998,11.55]}},{"type":"feature","properties":{"country_en":"Cambodia","name":"Kampong Seila","name_adm0":"Cambodia","name_adm1":"Kaoh Kong","name_adm2":"Kampong Seila","name_en":"Kampong Seila"},"geometry":{"type":"Point","coordinates":[104.000701,11.171802]}},{"type":"feature","properties":{"country_en":"Cambodia","name":"Kamchay Mear","name_adm0":"Cambodia","name_adm1":"Prey Veng","name_adm2":"Kamchay Mear","name_en":"Kamchay Mear"},"geometry":{"type":"Point","coordinates":[105.467453,11.179075]}},{"type":"feature","properties":{"country_en":"Cambodia","name":"Phumi Chring","name_adm0":"Cambodia","name_adm1":"Otdar Mean Cheay","name_adm2":"Anlong Veaeng","name_en":"Phumi Chring"},"geometry":{"type":"Point","coordinates":[103.79822,14.29472]}},{"type":"feature","properties":{"country_en":"Cambodia","name":"Phumi Rovieng","name_adm0":"Cambodia","name_adm1":"Pouthisat","name_adm2":"Phnum Kravanh","name_en":"Phumi Rovieng"},"geometry":{"type":"Point","coordinates":[103.54174,12.30724]}},{"type":"feature","properties":{"country_en":"Cambodia","name":"Phumi Rohal","name_adm0":"Cambodia","name_adm1":"Banteay Mean Cheay","name_adm2":"Preah Netr Preah","name_en":"Phumi Rohal"},"geometry":{"type":"Point","coordinates":[103.23259,13.619949999999998]}},{"type":"feature","properties":{"country_en":"Cambodia","name":"Phumi Prey Chruk","name_adm0":"Cambodia","name_adm1":"Siem Reap Province","name_adm2":"Puok","name_en":"Phumi Prey Chruk"},"geometry":{"type":"Point","coordinates":[103.55166,13.53296]}},{"type":"feature","properties":{"country_en":"Cambodia","name":"Phumi Khcheay","name_adm0":"Cambodia","name_adm1":"Kampong Cham","name_adm2":"Memot","name_en":"Phumi Khcheay"},"geometry":{"type":"Point","coordinates":[106.27660999999999,11.82383]}},{"type":"feature","properties":{"country_en":"Cambodia","name":"Kampong Trach","name_adm0":"Cambodia","name_adm1":"Kampot","name_adm2":"Kampong Trach","name_en":"Kampong Trach"},"geometry":{"type":"Point","coordinates":[104.320678,10.701767]}},{"type":"feature","properties":{"country_en":"Cambodia","name":"Phnum Kravanh","name_adm0":"Cambodia","name_adm1":"Pouthisat","name_adm2":"Phnum Kravanh","name_en":"Phnum Kravanh"},"geometry":{"type":"Point","coordinates":[103.794021,12.381440999999999]}},{"type":"feature","properties":{"country_en":"Cambodia","name":"Ta Khmau","name_adm0":"Cambodia","name_adm1":"Kandal","name_adm2":"Ta Khmau","name_en":"Ta Khmau"},"geometry":{"type":"Point","coordinates":[104.901861,11.484375]}},{"type":"feature","properties":{"country_en":"Cambodia","name":"Kampong Svay","name_adm0":"Cambodia","name_adm1":"Kampong Thum","name_adm2":"Kampong Svay","name_en":"Kampong Svay"},"geometry":{"type":"Point","coordinates":[104.71999,12.742449999999998]}},{"type":"feature","properties":{"country_en":"Cambodia","name":"Phumi Chiphoch","name_adm0":"Cambodia","name_adm1":"Prey Veng","name_adm2":"Me Sang","name_en":"Phumi Chiphoch"},"geometry":{"type":"Point","coordinates":[105.55507,11.32273]}},{"type":"feature","properties":{"country_en":"Cambodia","name":"Phumi Chhak Rokar","name_adm0":"Cambodia","name_adm1":"Batdambang","name_adm2":"Samlout","name_en":"Phumi Chhak Rokar"},"geometry":{"type":"Point","coordinates":[102.76381,12.65498]}},{"type":"feature","properties":{"country_en":"Cambodia","name":"Phumi Ta Krei","name_adm0":"Cambodia","name_adm1":"Batdambang","name_adm2":"Rotanak Mondol","name_en":"Phumi Ta Krei"},"geometry":{"type":"Point","coordinates":[102.70611,13.099169999999999]}},{"type":"feature","properties":{"country_en":"Cambodia","name":"Smach Mean Chey","name_adm0":"Cambodia","name_adm1":"Kaoh Kong","name_adm2":"Smach Mean Chey","name_en":"Smach Mean Chey"},"geometry":{"type":"Point","coordinates":[102.9461,11.579565999999998]}},{"type":"feature","properties":{"country_en":"Cambodia","name":"Pailin","name_adm0":"Cambodia","name_adm1":"Pailin","name_adm2":"Pailin","name_en":"Pailin"},"geometry":{"type":"Point","coordinates":[102.520294,12.839919999999998]}},{"type":"feature","properties":{"country_en":"Cambodia","name":"Kong Pisei","name_adm0":"Cambodia","name_adm1":"Kampong Spoe","name_adm2":"Kong Pisei","name_en":"Kong Pisei"},"geometry":{"type":"Point","coordinates":[104.01855399999998,11.802834]}},{"type":"feature","properties":{"country_en":"Cambodia","name":"Phnum Sruoch","name_adm0":"Cambodia","name_adm1":"Kampong Spoe","name_adm2":"Phnum Sruoch","name_en":"Phnum Sruoch"},"geometry":{"type":"Point","coordinates":[104.01855399999998,11.802834]}},{"type":"feature","properties":{"country_en":"Cambodia","name":"Samraong Tong","name_adm0":"Cambodia","name_adm1":"Kampong Spoe","name_adm2":"Samraong Tong","name_en":"Samraong Tong"},"geometry":{"type":"Point","coordinates":[104.01855399999998,11.802834]}},{"type":"feature","properties":{"country_en":"Cambodia","name":"Kaoh Kong","name_adm0":"Cambodia","name_adm1":"Kaoh Kong","name_adm2":"Kaoh Kong","name_en":"Kaoh Kong"},"geometry":{"type":"Point","coordinates":[103.183593,11.566143]}},{"type":"feature","properties":{"country_en":"Cambodia","name":"Compong Bai","name_adm0":"Cambodia","name_adm1":"Kampot","name_adm2":"Kampong Bay","name_en":"Compong Bai"},"geometry":{"type":"Point","coordinates":[104.1794655,10.610969]}},{"type":"feature","properties":{"country_en":"Cambodia","name":"Serei Saophoan","name_adm0":"Cambodia","name_adm1":"Banteay Mean Cheay","name_adm2":"Serei Saophoan","name_en":"Serei Saophoan"},"geometry":{"type":"Point","coordinates":[102.9458245,13.606897999999997]}},{"type":"feature","properties":{"country_en":"Cambodia","name":"Kampong Cham","name_adm0":"Cambodia","name_adm1":"Kampong Cham","name_en":"Kampong Cham"},"geometry":{"type":"Point","coordinates":[105.58332999999999,12.08333]}},{"type":"feature","properties":{"country_en":"Cambodia","name":"Phumi Samraong","name_adm0":"Cambodia","name_adm1":"Krachen","name_adm2":"Snuol","name_en":"Phumi Samraong"},"geometry":{"type":"Point","coordinates":[106.42789999999998,12.25666]}},{"type":"feature","properties":{"country_en":"Cambodia","name":"Kanhchriech","name_adm0":"Cambodia","name_adm1":"Prey Veng","name_adm2":"Kanhchriech","name_en":"Kanhchriech"},"geometry":{"type":"Point","coordinates":[105.467453,11.179075]}},{"type":"feature","properties":{"country_en":"Cambodia","name":"Malai","name_adm0":"Cambodia","name_adm1":"Banteay Mean Cheay","name_adm2":"Malai","name_en":"Malai"},"geometry":{"type":"Point","coordinates":[103.216381,13.630305]}},{"type":"feature","properties":{"country_en":"Cambodia","name":"Chambak","name_adm0":"Cambodia","name_adm1":"Kampong Cham","name_adm2":"Krouch Chhmar","name_en":"Chambak"},"geometry":{"type":"Point","coordinates":[105.80471,12.2766]}},{"type":"feature","properties":{"country_en":"Cambodia","name":"Prasat Bakong","name_adm0":"Cambodia","name_adm1":"Siem Reap Province","name_adm2":"Prasat Bakong","name_en":"Prasat Bakong"},"geometry":{"type":"Point","coordinates":[103.97323599999999,13.210802]}},{"type":"feature","properties":{"country_en":"Cambodia","name":"Batdambang","name_adm0":"Cambodia","name_adm1":"Batdambang","name_adm2":"Batdambang","name_en":"Batdambang"},"geometry":{"type":"Point","coordinates":[103.172607,13.126291999999998]}},{"type":"feature","properties":{"country_en":"Cambodia","name":"Phumi Tnaot","name_adm0":"Cambodia","name_adm1":"Banteay Mean Cheay","name_adm2":"Ou Chrov","name_en":"Phumi Tnaot"},"geometry":{"type":"Point","coordinates":[102.84449,13.71625]}},{"type":"feature","properties":{"country_en":"Cambodia","name":"Phumi Ampil","name_adm0":"Cambodia","name_adm1":"Otdar Mean Cheay","name_adm2":"Banteay Ampil","name_en":"Phumi Ampil"},"geometry":{"type":"Point","coordinates":[103.76666999999999,14.31667]}},{"type":"feature","properties":{"country_en":"Cambodia","name":"Phumi Char","name_adm0":"Cambodia","name_adm1":"Siem Reap Province","name_adm2":"Varin","name_en":"Phumi Char"},"geometry":{"type":"Point","coordinates":[103.73895,13.80989]}},{"type":"feature","properties":{"country_en":"Cambodia","name":"Phumi Chhuk","name_adm0":"Cambodia","name_adm1":"Batdambang","name_adm2":"Moung Ruessei","name_en":"Phumi Chhuk"},"geometry":{"type":"Point","coordinates":[103.71008999999998,13.573689999999997]}},{"type":"feature","properties":{"country_en":"Cambodia","name":"Phumi Khnach Romeas","name_adm0":"Cambodia","name_adm1":"Batdambang","name_adm2":"Bavel","name_en":"Phumi Khnach Romeas"},"geometry":{"type":"Point","coordinates":[102.95723,13.26096]}},{"type":"feature","properties":{"country_en":"Cambodia","name":"Phumi Kralaom Phluk","name_adm0":"Cambodia","name_adm1":"Batdambang","name_adm2":"Moung Ruessei","name_en":"Phumi Kralaom Phluk"},"geometry":{"type":"Point","coordinates":[103.54743,12.71346]}},{"type":"feature","properties":{"country_en":"Cambodia","name":"Phumi Pring","name_adm0":"Cambodia","name_adm1":"Preah Vihear","name_adm2":"Rovieng","name_en":"Phumi Pring"},"geometry":{"type":"Point","coordinates":[105.07816,13.58105]}},{"type":"feature","properties":{"country_en":"Cambodia","name":"Phumi Samraong","name_adm0":"Cambodia","name_adm1":"Batdambang","name_adm2":"Moung Ruessei","name_en":"Phumi Samraong"},"geometry":{"type":"Point","coordinates":[103.6223,12.74019]}},{"type":"feature","properties":{"country_en":"Cambodia","name":"Phumi Svay","name_adm0":"Cambodia","name_adm1":"Kampong Thum","name_adm2":"Prasat Sambour","name_en":"Phumi Svay"},"geometry":{"type":"Point","coordinates":[105.26042,12.78489]}},{"type":"feature","properties":{"country_en":"Cambodia","name":"Phumi Samraong","name_adm0":"Cambodia","name_adm1":"Kampong Cham","name_adm2":"Stueng Trang","name_en":"Phumi Samraong"},"geometry":{"type":"Point","coordinates":[105.12643999999999,12.03178]}},{"type":"feature","properties":{"country_en":"Cambodia","name":"Thala Barivat","name_adm0":"Cambodia","name_adm1":"Stoeng Treng","name_adm2":"Thala Barivat","name_en":"Thala Barivat"},"geometry":{"type":"Point","coordinates":[105.92674849999999,13.972714]}},{"type":"feature","properties":{"country_en":"Cambodia","name":"Chantrea","name_adm0":"Cambodia","name_adm1":"Svay Rieng","name_adm2":"Chantrea","name_en":"Chantrea"},"geometry":{"type":"Point","coordinates":[106.210327,11.095017999999998]}},{"type":"feature","properties":{"country_en":"Cambodia","name":"Aek Phnum","name_adm0":"Cambodia","name_adm1":"Batdambang","name_adm2":"Aek Phnum","name_en":"Aek Phnum"},"geometry":{"type":"Point","coordinates":[103.485374,13.215213]}},{"type":"feature","properties":{"country_en":"Cambodia","name":"Sameakki Mean Chey","name_adm0":"Cambodia","name_adm1":"Kampong Chhnang","name_adm2":"Sameakki Mean Chey","name_en":"Sameakki Mean Chey"},"geometry":{"type":"Point","coordinates":[104.55549,11.86788]}},{"type":"feature","properties":{"country_en":"Cambodia","name":"Prasat Balangk","name_adm0":"Cambodia","name_adm1":"Kampong Thum","name_adm2":"Prasat Balangk","name_en":"Prasat Balangk"},"geometry":{"type":"Point","coordinates":[104.84491,13.07137]}},{"type":"feature","properties":{"country_en":"Cambodia","name":"Chol Kiri","name_adm0":"Cambodia","name_adm1":"Kampong Chhnang","name_adm2":"Chol Kiri","name_en":"Chol Kiri"},"geometry":{"type":"Point","coordinates":[104.82287,12.15861]}},{"type":"feature","properties":{"country_en":"Cambodia","name":"Kampong Thum","name_adm0":"Cambodia","name_adm1":"Kampong Thum","name_en":"Kampong Thum"},"geometry":{"type":"Point","coordinates":[105,12.83333]}},{"type":"feature","properties":{"country_en":"Cambodia","name":"Kampot","name_adm0":"Cambodia","name_adm1":"Kampot","name_en":"Kampot"},"geometry":{"type":"Point","coordinates":[104.33333,10.83333]}},{"type":"feature","properties":{"country_en":"Cambodia","name":"Otdar Mean Cheay","name_adm0":"Cambodia","name_adm1":"Otdar Mean Cheay","name_en":"Otdar Mean Cheay"},"geometry":{"type":"Point","coordinates":[103.842773,14.149892]}},{"type":"feature","properties":{"country_en":"Cambodia","name":"Prey Veng","name_adm0":"Cambodia","name_adm1":"Prey Veng","name_adm2":"Kampong Leav","name_en":"Prey Veng"},"geometry":{"type":"Point","coordinates":[105.32043399999999,11.496173]}},{"type":"feature","properties":{"country_en":"Cambodia","name":"Phumi Trapeang Chong","name_adm0":"Cambodia","name_adm1":"Pouthisat","name_adm2":"Bakan","name_en":"Phumi Trapeang Chong"},"geometry":{"type":"Point","coordinates":[103.79236,12.59852]}},{"type":"feature","properties":{"country_en":"Cambodia","name":"Svay Don Kev","name_adm0":"Cambodia","name_adm1":"Pouthisat","name_adm2":"Bakan","name_en":"Svay Don Kev"},"geometry":{"type":"Point","coordinates":[103.63562,12.66574]}},{"type":"feature","properties":{"country_en":"Cambodia","name":"Phumi Veal Renh","name_adm0":"Cambodia","name_adm1":"Preah Seihanu","name_adm2":"Prey Nob","name_en":"Phumi Veal Renh"},"geometry":{"type":"Point","coordinates":[103.81974,10.7089]}},{"type":"feature","properties":{"country_en":"Cambodia","name":"Chiphu","name_adm0":"Cambodia","name_adm1":"Svay Rieng","name_adm2":"Chantrea","name_en":"Chiphu"},"geometry":{"type":"Point","coordinates":[106.01036,11.03791]}},{"type":"feature","properties":{"country_en":"Cambodia","name":"Prey Totoeng","name_adm0":"Cambodia","name_adm1":"Kampong Cham","name_adm2":"Prey Chhor","name_en":"Prey Totoeng"},"geometry":{"type":"Point","coordinates":[105.25744,12.058339999999998]}},{"type":"feature","properties":{"country_en":"Cambodia","name":"Ratanah Kiri","name_adm0":"Cambodia","name_adm1":"Ratanah Kiri","name_en":"Ratanah Kiri"},"geometry":{"type":"Point","coordinates":[106.943492,13.949060999999999]}},{"type":"feature","properties":{"country_en":"Cambodia","name":"Stoeng Treng","name_adm0":"Cambodia","name_adm1":"Stoeng Treng","name_en":"Stoeng Treng"},"geometry":{"type":"Point","coordinates":[105.95970099999998,13.963555]}},{"type":"feature","properties":{"country_en":"Cambodia","name":"Preah Seihanu","name_adm0":"Cambodia","name_adm1":"Preah Seihanu","name_en":"Preah Seihanu"},"geometry":{"type":"Point","coordinates":[103.75,10.66667]}},{"type":"feature","properties":{"country_en":"Cambodia","name":"Kampong Bay","name_adm0":"Cambodia","name_adm1":"Kampot","name_adm2":"Kampong Bay","name_en":"Kampong Bay"},"geometry":{"type":"Point","coordinates":[104.0679995,10.6228625]}},{"type":"feature","properties":{"country_en":"Cambodia","name":"Ou Reang","name_adm0":"Cambodia","name_adm1":"Mondol Kiri","name_adm2":"Ou Reang","name_en":"Ou Reang"},"geometry":{"type":"Point","coordinates":[107.288116,12.4985]}},{"type":"feature","properties":{"country_en":"Cambodia","name":"Odongk","name_adm0":"Cambodia","name_adm1":"Kampong Spoe","name_adm2":"Odongk","name_en":"Odongk"},"geometry":{"type":"Point","coordinates":[104.752142,11.651594]}},{"type":"feature","properties":{"country_en":"Cambodia","name":"Phumi Chimeal","name_adm0":"Cambodia","name_adm1":"Kaoh Kong","name_adm2":"Botum Sakor","name_en":"Phumi Chimeal"},"geometry":{"type":"Point","coordinates":[103.473401,11.188221]}},{"type":"feature","properties":{"country_en":"Cambodia","name":"Phumi Prey Khmer","name_adm0":"Cambodia","name_adm1":"Kampong Chhnang","name_adm2":"Rolea B'ier","name_en":"Phumi Prey Khmer"},"geometry":{"type":"Point","coordinates":[104.76557,13.02843]}},{"type":"feature","properties":{"country_en":"Cambodia","name":"Dambae","name_adm0":"Cambodia","name_adm1":"Kampong Cham","name_adm2":"Dambae","name_en":"Dambae"},"geometry":{"type":"Point","coordinates":[105.413818,11.984825]}},{"type":"feature","properties":{"country_en":"Cambodia","name":"Krouch Chhmar","name_adm0":"Cambodia","name_adm1":"Kampong Cham","name_adm2":"Krouch Chhmar","name_en":"Krouch Chhmar"},"geometry":{"type":"Point","coordinates":[105.413818,11.984825]}},{"type":"feature","properties":{"country_en":"Cambodia","name":"Memot","name_adm0":"Cambodia","name_adm1":"Kampong Cham","name_adm2":"Memot","name_en":"Memot"},"geometry":{"type":"Point","coordinates":[105.413818,11.984825]}},{"type":"feature","properties":{"country_en":"Cambodia","name":"Prey Chhor","name_adm0":"Cambodia","name_adm1":"Kampong Cham","name_adm2":"Prey Chhor","name_en":"Prey Chhor"},"geometry":{"type":"Point","coordinates":[105.413818,11.984825]}},{"type":"feature","properties":{"country_en":"Cambodia","name":"Stueng Trang","name_adm0":"Cambodia","name_adm1":"Kampong Cham","name_adm2":"Stueng Trang","name_en":"Stueng Trang"},"geometry":{"type":"Point","coordinates":[105.413818,11.984825]}},{"type":"feature","properties":{"country_en":"Cambodia","name":"Kampong Leaeng","name_adm0":"Cambodia","name_adm1":"Kampong Chhnang","name_adm2":"Kampong Leaeng","name_en":"Kampong Leaeng"},"geometry":{"type":"Point","coordinates":[104.589843,12.275598]}},{"type":"feature","properties":{"country_en":"Cambodia","name":"Pouthisat","name_adm0":"Cambodia","name_adm1":"Pouthisat","name_en":"Pouthisat"},"geometry":{"type":"Point","coordinates":[103.66667,12.333329999999998]}},{"type":"feature","properties":{"country_en":"Cambodia","name":"Stueng Saen","name_adm0":"Cambodia","name_adm1":"Kampong Thum","name_adm2":"Stueng Saen","name_en":"Stueng Saen"},"geometry":{"type":"Point","coordinates":[104.87,12.63]}},{"type":"feature","properties":{"country_en":"Cambodia","name":"Phumi Ta Seng","name_adm0":"Cambodia","name_adm1":"Preah Vihear","name_adm2":"Sangkom Thmei","name_en":"Phumi Ta Seng"},"geometry":{"type":"Point","coordinates":[104.76510999999999,13.412747]}},{"type":"feature","properties":{"country_en":"Cambodia","name":"Phumi Reang Kesei","name_adm0":"Cambodia","name_adm1":"Batdambang","name_adm2":"Sangkae","name_en":"Phumi Reang Kesei"},"geometry":{"type":"Point","coordinates":[103.252612,12.969294999999999]}},{"type":"feature","properties":{"country_en":"Cambodia","name":"Tuŏl Tumpung","name_adm0":"Cambodia","name_adm1":"Phnum Penh","name_adm2":"Phnom Penh","name_en":"Tuŏl Tumpung"},"geometry":{"type":"Point","coordinates":[104.916,11.5625]}},{"type":"feature","properties":{"country_en":"Cambodia","name":"Phumi Leach","name_adm0":"Cambodia","name_adm1":"Pouthisat","name_adm2":"Phnum Kravanh","name_en":"Phumi Leach"},"geometry":{"type":"Point","coordinates":[103.794021,12.381440999999999]}},{"type":"feature","properties":{"country_en":"Cambodia","name":"Kaeb","name_adm0":"Cambodia","name_adm1":"Keb","name_adm2":"Kaeb","name_en":"Kaeb"},"geometry":{"type":"Point","coordinates":[104.2889815,10.434384]}},{"type":"feature","properties":{"country_en":"Cambodia","name":"Svay Chek","name_adm0":"Cambodia","name_adm1":"Banteay Mean Cheay","name_adm2":"Svay Chek","name_en":"Svay Chek"},"geometry":{"type":"Point","coordinates":[102.987213,13.915406]}},{"type":"feature","properties":{"country_en":"Cambodia","name":"Santuk","name_adm0":"Cambodia","name_adm1":"Kampong Thum","name_adm2":"Santuk","name_en":"Santuk"},"geometry":{"type":"Point","coordinates":[105.32,12.639999999999999]}},{"type":"feature","properties":{"country_en":"Cambodia","name":"Dambe","name_adm0":"Cambodia","name_adm1":"Kampong Cham","name_adm2":"Dambae","name_en":"Dambe"},"geometry":{"type":"Point","coordinates":[105.88044,12.019349999999998]}},{"type":"feature","properties":{"country_en":"Cambodia","name":"Ph. Âmpil","name_adm0":"Cambodia","name_adm1":"Prey Veng","name_adm2":"Kamchay Mear","name_en":"Ph. Âmpil"},"geometry":{"type":"Point","coordinates":[106.21667,11.71667]}},{"type":"feature","properties":{"country_en":"Cambodia","name":"Tủy Đức","name_adm0":"Cambodia","name_adm1":"Mondol Kiri","name_adm2":"Ou Reang","name_en":"Tủy Đức"},"geometry":{"type":"Point","coordinates":[107.44999999999999,12.25]}},{"type":"feature","properties":{"country_en":"Cambodia","name":"Ba Phnum","name_adm0":"Cambodia","name_adm1":"Prey Veng","name_adm2":"Ba Phnum","name_en":"Ba Phnum"},"geometry":{"type":"Point","coordinates":[105.467453,11.179075]}},{"type":"feature","properties":{"country_en":"Cambodia","name":"Srei Snam","name_adm0":"Cambodia","name_adm1":"Siem Reap Province","name_adm2":"Srei Snam","name_en":"Srei Snam"},"geometry":{"type":"Point","coordinates":[103.8717625,13.435001]}},{"type":"feature","properties":{"country_en":"Cambodia","name":"Phumi Chrouy Svay","name_adm0":"Cambodia","name_adm1":"Kaoh Kong","name_adm2":"Srae Ambel","name_en":"Phumi Chrouy Svay"},"geometry":{"type":"Point","coordinates":[103.6701,10.99237]}},{"type":"feature","properties":{"country_en":"Cambodia","name":"Prasat Sambour","name_adm0":"Cambodia","name_adm1":"Kampong Thum","name_adm2":"Prasat Sambour","name_en":"Prasat Sambour"},"geometry":{"type":"Point","coordinates":[105.042243,12.8708205]}},{"type":"feature","properties":{"country_en":"Cambodia","name":"Moung Ruessei","name_adm0":"Cambodia","name_adm1":"Batdambang","name_adm2":"Moung Ruessei","name_en":"Moung Ruessei"},"geometry":{"type":"Point","coordinates":[103.645019,13.08948]}},{"type":"feature","properties":{"country_en":"Cambodia","name":"Phumi Spong","name_adm0":"Cambodia","name_adm1":"Stoeng Treng","name_adm2":"Thala Barivat","name_en":"Phumi Spong"},"geometry":{"type":"Point","coordinates":[106.06075999999999,13.543339999999999]}},{"type":"feature","properties":{"country_en":"Cambodia","name":"Aoral","name_adm0":"Cambodia","name_adm1":"Kampong Spoe","name_adm2":"Aoral","name_en":"Aoral"},"geometry":{"type":"Point","coordinates":[104.01855399999998,11.802834]}},{"type":"feature","properties":{"country_en":"Cambodia","name":"Pechr Chenda","name_adm0":"Cambodia","name_adm1":"Mondol Kiri","name_adm2":"Pechr Chenda","name_en":"Pechr Chenda"},"geometry":{"type":"Point","coordinates":[107.0948,12.7278]}},{"type":"feature","properties":{"country_en":"Cambodia","name":"Bakan","name_adm0":"Cambodia","name_adm1":"Pouthisat","name_adm2":"Bakan","name_en":"Bakan"},"geometry":{"type":"Point","coordinates":[103.79,12.78]}},{"type":"feature","properties":{"country_en":"Cambodia","name":"Rovieng","name_adm0":"Cambodia","name_adm1":"Preah Vihear","name_adm2":"Rovieng","name_en":"Rovieng"},"geometry":{"type":"Point","coordinates":[105.09956,13.35105]}},{"type":"feature","properties":{"country_en":"Cambodia","name":"Srae Ambel","name_adm0":"Cambodia","name_adm1":"Kaoh Kong","name_adm2":"Srae Ambel","name_en":"Srae Ambel"},"geometry":{"type":"Point","coordinates":[103.691711,11.005705499999998]}},{"type":"feature","properties":{"country_en":"Cambodia","name":"Phumi Kdol","name_adm0":"Cambodia","name_adm1":"Batdambang","name_adm2":"Bavel","name_en":"Phumi Kdol"},"geometry":{"type":"Point","coordinates":[103.41147,13.6354]}},{"type":"feature","properties":{"country_en":"Cambodia","name":"Tuol Kork","name_adm0":"Cambodia","name_adm1":"Phnum Penh","name_adm2":"Phnom Penh","name_en":"Tuol Kork"},"geometry":{"type":"Point","coordinates":[104.919776,11.565975]}},{"type":"feature","properties":{"country_en":"Cambodia","name":"Phumi Bat Dai","name_adm0":"Cambodia","name_adm1":"Kampong Thum","name_adm2":"Stoung","name_en":"Phumi Bat Dai"},"geometry":{"type":"Point","coordinates":[104.37638,12.88758]}},{"type":"feature","properties":{"country_en":"Cambodia","name":"Phumi Banlich Sdei","name_adm0":"Cambodia","name_adm1":"Pouthisat","name_adm2":"Krakor","name_en":"Phumi Banlich Sdei"},"geometry":{"type":"Point","coordinates":[104.12612,12.67345]}},{"type":"feature","properties":{"country_en":"Cambodia","name":"Snuol","name_adm0":"Cambodia","name_adm1":"Krachen","name_adm2":"Snuol","name_en":"Snuol"},"geometry":{"type":"Point","coordinates":[106.421333,12.07035]}},{"type":"feature","properties":{"country_en":"Cambodia","name":"Choam Khsant","name_adm0":"Cambodia","name_adm1":"Preah Vihear","name_adm2":"Choam Khsant","name_en":"Choam Khsant"},"geometry":{"type":"Point","coordinates":[104.941406,13.819994]}},{"type":"feature","properties":{"country_en":"Cambodia","name":"Ponhea Kraek","name_adm0":"Cambodia","name_adm1":"Kampong Cham","name_adm2":"Ponhea Kraek","name_en":"Ponhea Kraek"},"geometry":{"type":"Point","coordinates":[105.87,11.77]}},{"type":"feature","properties":{"country_en":"Cambodia","name":"Tboung Khmum","name_adm0":"Cambodia","name_adm1":"Kampong Cham","name_adm2":"Tboung Khmum","name_en":"Tboung Khmum"},"geometry":{"type":"Point","coordinates":[105.65,11.979999999999999]}},{"type":"feature","properties":{"country_en":"Cambodia","name":"Preah Netr Preah","name_adm0":"Cambodia","name_adm1":"Banteay Mean Cheay","name_adm2":"Preah Netr Preah","name_en":"Preah Netr Preah"},"geometry":{"type":"Point","coordinates":[103.33949999999999,13.601]}},{"type":"feature","properties":{"country_en":"Cambodia","name":"Stoeng Treng","name_adm0":"Cambodia","name_adm1":"Stoeng Treng","name_adm2":"Stueng Traeng","name_en":"Stoeng Treng"},"geometry":{"type":"Point","coordinates":[105.968284,13.529891]}},{"type":"feature","properties":{"country_en":"Cambodia","name":"Tbaeng Mean chey","name_adm0":"Cambodia","name_adm1":"Preah Vihear","name_adm2":"Tbaeng Mean chey","name_en":"Tbaeng Mean chey"},"geometry":{"type":"Point","coordinates":[104.97848499999999,13.814076]}},{"type":"feature","properties":{"country_en":"Cambodia","name":"Me Sang","name_adm0":"Cambodia","name_adm1":"Prey Veng","name_adm2":"Me Sang","name_en":"Me Sang"},"geometry":{"type":"Point","coordinates":[105.467453,11.179075]}},{"type":"feature","properties":{"country_en":"Cambodia","name":"Pea Reang","name_adm0":"Cambodia","name_adm1":"Prey Veng","name_adm2":"Pea Reang","name_en":"Pea Reang"},"geometry":{"type":"Point","coordinates":[105.467453,11.179075]}},{"type":"feature","properties":{"country_en":"Cambodia","name":"Andoung Meas","name_adm0":"Cambodia","name_adm1":"Ratanah Kiri","name_adm2":"Andoung Meas","name_en":"Andoung Meas"},"geometry":{"type":"Point","coordinates":[106.943492,13.949060999999999]}},{"type":"feature","properties":{"country_en":"Cambodia","name":"Ou Chum","name_adm0":"Cambodia","name_adm1":"Ratanah Kiri","name_adm2":"Ou Chum","name_en":"Ou Chum"},"geometry":{"type":"Point","coordinates":[106.943492,13.949060999999999]}},{"type":"feature","properties":{"country_en":"Cambodia","name":"Chi Kraeng","name_adm0":"Cambodia","name_adm1":"Siem Reap Province","name_adm2":"Chi Kraeng","name_en":"Chi Kraeng"},"geometry":{"type":"Point","coordinates":[104.372863,13.079478]}},{"type":"feature","properties":{"country_en":"Cambodia","name":"Sesan","name_adm0":"Cambodia","name_adm1":"Stoeng Treng","name_adm2":"Sesan","name_en":"Sesan"},"geometry":{"type":"Point","coordinates":[105.95970099999998,13.963555]}},{"type":"feature","properties":{"country_en":"Cambodia","name":"Siem Pang","name_adm0":"Cambodia","name_adm1":"Stoeng Treng","name_adm2":"Siem Pang","name_en":"Siem Pang"},"geometry":{"type":"Point","coordinates":[105.95970099999998,13.963555]}},{"type":"feature","properties":{"country_en":"Cambodia","name":"Romeas Haek","name_adm0":"Cambodia","name_adm1":"Svay Rieng","name_adm2":"Romeas Haek","name_en":"Romeas Haek"},"geometry":{"type":"Point","coordinates":[105.82031199999999,11.189179]}},{"type":"feature","properties":{"country_en":"Cambodia","name":"Svay Rieng","name_adm0":"Cambodia","name_adm1":"Svay Rieng","name_adm2":"Svay Rieng","name_en":"Svay Rieng"},"geometry":{"type":"Point","coordinates":[105.799026,11.083405999999998]}},{"type":"feature","properties":{"country_en":"Cambodia","name":"Tram Kak","name_adm0":"Cambodia","name_adm1":"Takev","name_adm2":"Tram Kak","name_en":"Tram Kak"},"geometry":{"type":"Point","coordinates":[105.05126899999999,10.858258]}},{"type":"feature","properties":{"country_en":"Cambodia","name":"Treang","name_adm0":"Cambodia","name_adm1":"Takev","name_adm2":"Treang","name_en":"Treang"},"geometry":{"type":"Point","coordinates":[105.05126899999999,10.858258]}},{"type":"feature","properties":{"country_en":"Cambodia","name":"Anlong Veaeng","name_adm0":"Cambodia","name_adm1":"Otdar Mean Cheay","name_adm2":"Anlong Veaeng","name_en":"Anlong Veaeng"},"geometry":{"type":"Point","coordinates":[103.842773,14.149892]}},{"type":"feature","properties":{"country_en":"Cambodia","name":"Banteay Ampil","name_adm0":"Cambodia","name_adm1":"Otdar Mean Cheay","name_adm2":"Banteay Ampil","name_en":"Banteay Ampil"},"geometry":{"type":"Point","coordinates":[103.842773,14.149892]}},{"type":"feature","properties":{"country_en":"Cambodia","name":"Mongkol Borei","name_adm0":"Cambodia","name_adm1":"Banteay Mean Cheay","name_adm2":"Mongkol Borei","name_en":"Mongkol Borei"},"geometry":{"type":"Point","coordinates":[103.216381,13.630305]}},{"type":"feature","properties":{"country_en":"Cambodia","name":"Phumi Kampong Trabek","name_adm0":"Cambodia","name_adm1":"Prey Veng","name_adm2":"Kampong Trabaek","name_en":"Phumi Kampong Trabek"},"geometry":{"type":"Point","coordinates":[105.514598,11.178716]}},{"type":"feature","properties":{"country_en":"Cambodia","name":"Ban Lung","name_adm0":"Cambodia","name_adm1":"Ratanah Kiri","name_adm2":"Ban Lung","name_en":"Ban Lung"},"geometry":{"type":"Point","coordinates":[107.107086,13.724377]}},{"type":"feature","properties":{"country_en":"Cambodia","name":"Krong Khemoreah Phumint","name_adm0":"Cambodia","name_adm1":"Kaoh Kong","name_adm2":"Smach Mean Chey","name_en":"Krong Khemoreah Phumint"},"geometry":{"type":"Point","coordinates":[103.00309099999998,11.603392]}},{"type":"feature","properties":{"country_en":"Cambodia","name":"Puok","name_adm0":"Cambodia","name_adm1":"Siem Reap Province","name_adm2":"Puok","name_en":"Puok"},"geometry":{"type":"Point","coordinates":[103.798828,13.52251]}},{"type":"feature","properties":{"country_en":"Cambodia","name":"Siem Reap Province","name_adm0":"Cambodia","name_adm1":"Siem Reap Province","name_en":"Siem Reap Province"},"geometry":{"type":"Point","coordinates":[103.8717625,13.435001]}},{"type":"feature","properties":{"country_en":"Cambodia","name":"Phumi Phsar Ream","name_adm0":"Cambodia","name_adm1":"Preah Seihanu","name_adm2":"Prey Nob","name_en":"Phumi Phsar Ream"},"geometry":{"type":"Point","coordinates":[103.588371,10.4977165]}},{"type":"feature","properties":{"country_en":"Cambodia","name":"Tuk Laak","name_adm0":"Cambodia","name_adm1":"Phnum Penh","name_adm2":"Phnom Penh","name_en":"Tuk Laak"},"geometry":{"type":"Point","coordinates":[104.90472,11.56717]}},{"type":"feature","properties":{"country_en":"Cambodia","name":"Kaoh Kong","name_adm0":"Cambodia","name_adm1":"Kaoh Kong","name_en":"Kaoh Kong"},"geometry":{"type":"Point","coordinates":[103.5,11.499999999999998]}},{"type":"feature","properties":{"country_en":"Cambodia","name":"Mondol Kiri","name_adm0":"Cambodia","name_adm1":"Mondol Kiri","name_en":"Mondol Kiri"},"geometry":{"type":"Point","coordinates":[107,12.749999999999998]}},{"type":"feature","properties":{"country_en":"Cambodia","name":"Preah Vihear","name_adm0":"Cambodia","name_adm1":"Preah Vihear","name_en":"Preah Vihear"},"geometry":{"type":"Point","coordinates":[105,13.75]}},{"type":"feature","properties":{"country_en":"Cambodia","name":"Lumphat","name_adm0":"Cambodia","name_adm1":"Ratanah Kiri","name_adm2":"Lumphat","name_en":"Lumphat"},"geometry":{"type":"Point","coordinates":[106.98157999999998,13.48784]}},{"type":"feature","properties":{"country_en":"Cambodia","name":"Phumi Tuol Koki","name_adm0":"Cambodia","name_adm1":"Kaoh Kong","name_adm2":"Mondol Seima","name_en":"Phumi Tuol Koki"},"geometry":{"type":"Point","coordinates":[103.04868,11.57238]}},{"type":"feature","properties":{"country_en":"Cambodia","name":"Chhaeb","name_adm0":"Cambodia","name_adm1":"Preah Vihear","name_adm2":"Chhaeb","name_en":"Chhaeb"},"geometry":{"type":"Point","coordinates":[105.4618,13.91077]}},{"type":"feature","properties":{"country_en":"Cambodia","name":"Doun Kaev","name_adm0":"Cambodia","name_adm1":"Takev","name_adm2":"Doun Kaev","name_en":"Doun Kaev"},"geometry":{"type":"Point","coordinates":[104.7955,10.99459]}},{"type":"feature","properties":{"country_en":"Cambodia","name":"Angkor Chey","name_adm0":"Cambodia","name_adm1":"Kampot","name_adm2":"Angkor Chey","name_en":"Angkor Chey"},"geometry":{"type":"Point","coordinates":[104.320678,10.701767]}},{"type":"feature","properties":{"country_en":"Cambodia","name":"Sandan","name_adm0":"Cambodia","name_adm1":"Kampong Thum","name_adm2":"Sandan","name_en":"Sandan"},"geometry":{"type":"Point","coordinates":[105.516541,12.90668]}},{"type":"feature","properties":{"country_en":"Cambodia","name":"Kracheh","name_adm0":"Cambodia","name_adm1":"Krachen","name_adm2":"Kracheh","name_en":"Kracheh"},"geometry":{"type":"Point","coordinates":[106.018066,12.511665]}},{"type":"feature","properties":{"country_en":"Cambodia","name":"Sambour","name_adm0":"Cambodia","name_adm1":"Krachen","name_adm2":"Sambour","name_en":"Sambour"},"geometry":{"type":"Point","coordinates":[105.9720115,12.886779]}},{"type":"feature","properties":{"country_en":"Cambodia","name":"Veal Veaeng","name_adm0":"Cambodia","name_adm1":"Pouthisat","name_adm2":"Veal Veaeng","name_en":"Veal Veaeng"},"geometry":{"type":"Point","coordinates":[103.175451,12.098941]}},{"type":"feature","properties":{"country_en":"Cambodia","name":"Saen Monourom","name_adm0":"Cambodia","name_adm1":"Mondol Kiri","name_adm2":"Saen Monourom","name_en":"Saen Monourom"},"geometry":{"type":"Point","coordinates":[107.25457699999998,12.481375]}},{"type":"feature","properties":{"country_en":"Cambodia","name":"Ponhea Lueu","name_adm0":"Cambodia","name_adm1":"Kandal","name_adm2":"Ponhea Lueu","name_en":"Ponhea Lueu"},"geometry":{"type":"Point","coordinates":[104.843044,11.757125]}},{"type":"feature","properties":{"country_en":"Cambodia","name":"Kampong Leav","name_adm0":"Cambodia","name_adm1":"Prey Veng","name_adm2":"Kampong Leav","name_en":"Kampong Leav"},"geometry":{"type":"Point","coordinates":[105.206451,11.448396]}},{"type":"feature","properties":{"country_en":"Cambodia","name":"Mittakpheap","name_adm0":"Cambodia","name_adm1":"Preah Seihanu","name_adm2":"Mittakpheap","name_en":"Mittakpheap"},"geometry":{"type":"Point","coordinates":[103.54528399999998,10.590277]}},{"type":"feature","properties":{"country_en":"Cambodia","name":"Prey Nob","name_adm0":"Cambodia","name_adm1":"Preah Seihanu","name_adm2":"Prey Nob","name_en":"Prey Nob"},"geometry":{"type":"Point","coordinates":[103.647079,10.584008999999998]}},{"type":"feature","properties":{"country_en":"Cambodia","name":"Batheay","name_adm0":"Cambodia","name_adm1":"Kampong Cham","name_adm2":"Batheay","name_en":"Batheay"},"geometry":{"type":"Point","coordinates":[104.939611,11.940736]}},{"type":"feature","properties":{"country_en":"Cambodia","name":"Khsach Kandal","name_adm0":"Cambodia","name_adm1":"Kandal","name_adm2":"Khsach Kandal","name_en":"Khsach Kandal"},"geometry":{"type":"Point","coordinates":[105.029983,11.774771]}},{"type":"feature","properties":{"country_en":"Cambodia","name":"Odong","name_adm0":"Cambodia","name_adm1":"Kandal","name_adm2":"Ponhea Lueu","name_en":"Odong"},"geometry":{"type":"Point","coordinates":[104.743309,11.825601]}},{"type":"feature","properties":{"country_en":"Cambodia","name":"Krong Preah Seihanu","name_adm0":"Cambodia","name_adm1":"Preah Seihanu","name_adm2":"Mittakpheap","name_en":"Krong Preah Seihanu"},"geometry":{"type":"Point","coordinates":[103.52005,10.612693]}},{"type":"feature","properties":{"country_en":"Cambodia","name":"Prasat","name_adm0":"Cambodia","name_adm1":"Takev","name_adm2":"Doun Kaev","name_en":"Prasat"},"geometry":{"type":"Point","coordinates":[104.751548,10.99335]}},{"type":"feature","properties":{"country_en":"Cambodia","name":"Phumi Tnaot","name_adm0":"Cambodia","name_adm1":"Banteay Mean Cheay","name_adm2":"Mongkol Borei","name_en":"Phumi Tnaot"},"geometry":{"type":"Point","coordinates":[102.84449,13.71625]}},{"type":"feature","properties":{"country_en":"Cambodia","name":"Vat Tuk Laâk","name_adm0":"Cambodia","name_adm1":"Phnum Penh","name_adm2":"Phnom Penh","name_en":"Vat Tuk Laâk"},"geometry":{"type":"Point","coordinates":[104.919776,11.565975]}},{"type":"feature","properties":{"country_en":"Cambodia","name":"Phumi Bak Prea","name_adm0":"Cambodia","name_adm1":"Batdambang","name_adm2":"Aek Phnum","name_en":"Phumi Bak Prea"},"geometry":{"type":"Point","coordinates":[103.402,13.312704999999998]}},{"type":"feature","properties":{"country_en":"Cambodia","name":"Phumi Kompong Sralau","name_adm0":"Cambodia","name_adm1":"Preah Vihear","name_adm2":"Chhaeb","name_en":"Phumi Kompong Sralau"},"geometry":{"type":"Point","coordinates":[105.814048,14.071312]}},{"type":"feature","properties":{"country_en":"Cambodia","name":"Phumi Snuol","name_adm0":"Cambodia","name_adm1":"Krachen","name_adm2":"Snuol","name_en":"Phumi Snuol"},"geometry":{"type":"Point","coordinates":[106.421333,12.07035]}},{"type":"feature","properties":{"country_en":"Cambodia","name":"Phumi Ronean","name_adm0":"Cambodia","name_adm1":"Kampong Thum","name_adm2":"Sandan","name_en":"Phumi Ronean"},"geometry":{"type":"Point","coordinates":[105.221178,12.999898]}},{"type":"feature","properties":{"country_en":"Cambodia","name":"Siem Reap","name_adm0":"Cambodia","name_adm1":"Siem Reap Province","name_adm2":"Siem Reab","name_en":"Siem Reap"},"geometry":{"type":"Point","coordinates":[103.86440999999999,13.370581]}},{"type":"feature","properties":{"country_en":"Cambodia","name":"Virocheay","name_adm0":"Cambodia","name_adm1":"Ratanah Kiri","name_adm2":"Veun Sai","name_en":"Virocheay"},"geometry":{"type":"Point","coordinates":[106.781272,13.990374]}},{"type":"feature","properties":{"country_en":"Cambodia","name":"Phnum Srok","name_adm0":"Cambodia","name_adm1":"Banteay Mean Cheay","name_adm2":"Phnum Srok","name_en":"Phnum Srok"},"geometry":{"type":"Point","coordinates":[103.216381,13.630305]}},{"type":"feature","properties":{"country_en":"Cambodia","name":"Keb","name_adm0":"Cambodia","name_adm1":"Keb","name_en":"Keb"},"geometry":{"type":"Point","coordinates":[104.31667,10.5125]}},{"type":"feature","properties":{"country_en":"Cambodia","name":"Bavel","name_adm0":"Cambodia","name_adm1":"Batdambang","name_adm2":"Bavel","name_en":"Bavel"},"geometry":{"type":"Point","coordinates":[103.645019,13.08948]}},{"type":"feature","properties":{"country_en":"Cambodia","name":"Krachen","name_adm0":"Cambodia","name_adm1":"Krachen","name_en":"Krachen"},"geometry":{"type":"Point","coordinates":[106.02081199999999,12.506972499999998]}},{"type":"feature","properties":{"country_en":"Cambodia","name":"Kampong Spoe","name_adm0":"Cambodia","name_adm1":"Kampong Spoe","name_en":"Kampong Spoe"},"geometry":{"type":"Point","coordinates":[104.01855399999998,11.802834]}},{"type":"feature","properties":{"country_en":"Cambodia","name":"Peam Ro","name_adm0":"Cambodia","name_adm1":"Prey Veng","name_adm2":"Peam Ro","name_en":"Peam Ro"},"geometry":{"type":"Point","coordinates":[105.2251885,11.1440675]}},{"type":"feature","properties":{"country_en":"Cambodia","name":"Banan","name_adm0":"Cambodia","name_adm1":"Batdambang","name_adm2":"Banan","name_en":"Banan"},"geometry":{"type":"Point","coordinates":[103.645019,13.08948]}},{"type":"feature","properties":{"country_en":"Cambodia","name":"Bat Dambang","name_adm0":"Cambodia","name_adm1":"Batdambang","name_adm2":"Bat Dambang","name_en":"Bat Dambang"},"geometry":{"type":"Point","coordinates":[103.645019,13.08948]}},{"type":"feature","properties":{"country_en":"Cambodia","name":"Sangkom Thmei","name_adm0":"Cambodia","name_adm1":"Preah Vihear","name_adm2":"Sangkom Thmei","name_en":"Sangkom Thmei"},"geometry":{"type":"Point","coordinates":[104.77051,13.47395]}},{"type":"feature","properties":{"country_en":"Cambodia","name":"Svay Chrum","name_adm0":"Cambodia","name_adm1":"Svay Rieng","name_adm2":"Svay Chrum","name_en":"Svay Chrum"},"geometry":{"type":"Point","coordinates":[105.69814,11.111599999999997]}},{"type":"feature","properties":{"country_en":"Cambodia","name":"Phumi Sambor","name_adm0":"Cambodia","name_adm1":"Krachen","name_adm2":"Sambour","name_en":"Phumi Sambor"},"geometry":{"type":"Point","coordinates":[106.20848,12.47841]}},{"type":"feature","properties":{"country_en":"Cambodia","name":"Rotanak Mondol","name_adm0":"Cambodia","name_adm1":"Batdambang","name_adm2":"Rotanak Mondol","name_en":"Rotanak Mondol"},"geometry":{"type":"Point","coordinates":[102.887,12.84048]}},{"type":"feature","properties":{"country_en":"Cambodia","name":"Takev","name_adm0":"Cambodia","name_adm1":"Takev","name_en":"Takev"},"geometry":{"type":"Point","coordinates":[104.83333,10.91667]}},{"type":"feature","properties":{"country_en":"Cambodia","name":"Kaev Seima","name_adm0":"Cambodia","name_adm1":"Mondol Kiri","name_adm2":"Kaev Seima","name_en":"Kaev Seima"},"geometry":{"type":"Point","coordinates":[106.77024999999999,12.41722]}},{"type":"feature","properties":{"country_en":"Cambodia","name":"Pailin","name_adm0":"Cambodia","name_adm1":"Pailin","name_en":"Pailin"},"geometry":{"type":"Point","coordinates":[102.6,12.86667]}},{"type":"feature","properties":{"country_en":"Cambodia","name":"Kracheh","name_adm0":"Cambodia","name_adm1":"Krachen","name_adm2":"Kracheh","name_en":"Kracheh"},"geometry":{"type":"Point","coordinates":[106.024246,12.481749]}},{"type":"feature","properties":{"country_en":"Cambodia","name":"Veun Sai","name_adm0":"Cambodia","name_adm1":"Ratanah Kiri","name_adm2":"Veun Sai","name_en":"Veun Sai"},"geometry":{"type":"Point","coordinates":[106.96512199999998,14.150058]}},{"type":"feature","properties":{"country_en":"Cambodia","name":"Kralanh","name_adm0":"Cambodia","name_adm1":"Siem Reap Province","name_adm2":"Kralanh","name_en":"Kralanh"},"geometry":{"type":"Point","coordinates":[103.68145699999998,13.642605999999999]}},{"type":"feature","properties":{"country_en":"Cambodia","name":"Chbar Mon","name_adm0":"Cambodia","name_adm1":"Kampong Spoe","name_adm2":"Chbar Mon","name_en":"Chbar Mon"},"geometry":{"type":"Point","coordinates":[104.52538449999999,11.410145]}},{"type":"feature","properties":{"country_en":"Cambodia","name":"Thma Bang","name_adm0":"Cambodia","name_adm1":"Kaoh Kong","name_adm2":"Thma Bang","name_en":"Thma Bang"},"geometry":{"type":"Point","coordinates":[103.389215,11.828434]}},{"type":"feature","properties":{"country_en":"Cambodia","name":"Kuleaen","name_adm0":"Cambodia","name_adm1":"Preah Vihear","name_adm2":"Kuleaen","name_en":"Kuleaen"},"geometry":{"type":"Point","coordinates":[104.540339,13.783622]}},{"type":"feature","properties":{"country_en":"Cambodia","name":"Phumi Sala Vichey (1)","name_adm0":"Cambodia","name_adm1":"Kampong Thum","name_adm2":"Prasat Balangk","name_en":"Phumi Sala Vichey (1)"},"geometry":{"type":"Point","coordinates":[104.94169999999998,12.95237]}},{"type":"feature","properties":{"country_en":"Cambodia","name":"Phumi Roessei","name_adm0":"Cambodia","name_adm1":"Otdar Mean Cheay","name_adm2":"Anlong Veaeng","name_en":"Phumi Roessei"},"geometry":{"type":"Point","coordinates":[104.22379,14.29954]}},{"type":"feature","properties":{"country_en":"Cambodia","name":"Phumi Phnum Krang","name_adm0":"Cambodia","name_adm1":"Mondol Kiri","name_adm2":"Kaev Seima","name_en":"Phumi Phnum Krang"},"geometry":{"type":"Point","coordinates":[106.95202999999998,12.229849999999999]}},{"type":"feature","properties":{"country_en":"Cambodia","name":"Phumi Don Tuot","name_adm0":"Cambodia","name_adm1":"Takev","name_adm2":"Tram Kak","name_en":"Phumi Don Tuot"},"geometry":{"type":"Point","coordinates":[104.65232,10.94981]}},{"type":"feature","properties":{"country_en":"Cambodia","name":"Phumi Dak Dam","name_adm0":"Cambodia","name_adm1":"Mondol Kiri","name_adm2":"Ou Reang","name_en":"Phumi Dak Dam"},"geometry":{"type":"Point","coordinates":[107.34631,12.343619999999998]}},{"type":"feature","properties":{"country_en":"Cambodia","name":"Tani","name_adm0":"Cambodia","name_adm1":"Kampot","name_adm2":"Angkor Chey","name_en":"Tani"},"geometry":{"type":"Point","coordinates":[104.66239,10.77398]}},{"type":"feature","properties":{"country_en":"Cambodia","name":"Svay Chek","name_adm0":"Cambodia","name_adm1":"Banteay Mean Cheay","name_adm2":"Svay Chek","name_en":"Svay Chek"},"geometry":{"type":"Point","coordinates":[102.96232,13.80208]}},{"type":"feature","properties":{"country_en":"Cambodia","name":"Phumi Srah Chhuk","name_adm0":"Cambodia","name_adm1":"Banteay Mean Cheay","name_adm2":"Phnum Srok","name_en":"Phumi Srah Chhuk"},"geometry":{"type":"Point","coordinates":[103.33957999999998,13.74449]}},{"type":"feature","properties":{"country_en":"Cambodia","name":"Phumi Skov","name_adm0":"Cambodia","name_adm1":"Siem Reap Province","name_adm2":"Svay Leu","name_en":"Phumi Skov"},"geometry":{"type":"Point","coordinates":[104.39959,13.96172]}},{"type":"feature","properties":{"country_en":"Cambodia","name":"Phumi Molu Prey","name_adm0":"Cambodia","name_adm1":"Preah Vihear","name_adm2":"Chhaeb","name_en":"Phumi Molu Prey"},"geometry":{"type":"Point","coordinates":[105.27506,13.80719]}},{"type":"feature","properties":{"country_en":"Cambodia","name":"Phumi Kreul","name_adm0":"Cambodia","name_adm1":"Kampong Thum","name_adm2":"Baray","name_en":"Phumi Kreul"},"geometry":{"type":"Point","coordinates":[105.12238,12.28189]}},{"type":"feature","properties":{"country_en":"Cambodia","name":"Phumi Krek","name_adm0":"Cambodia","name_adm1":"Kampong Cham","name_adm2":"Ponhea Kraek","name_en":"Phumi Krek"},"geometry":{"type":"Point","coordinates":[105.92468,11.769899999999998]}},{"type":"feature","properties":{"country_en":"Cambodia","name":"Phumi Krang Trachak","name_adm0":"Cambodia","name_adm1":"Kampong Spoe","name_adm2":"Aoral","name_en":"Phumi Krang Trachak"},"geometry":{"type":"Point","coordinates":[104.12164,11.93488]}},{"type":"feature","properties":{"country_en":"Cambodia","name":"Phumi Khsach Thme","name_adm0":"Cambodia","name_adm1":"Stoeng Treng","name_adm2":"Sesan","name_en":"Phumi Khsach Thme"},"geometry":{"type":"Point","coordinates":[106.49785,13.669499999999998]}},{"type":"feature","properties":{"country_en":"Cambodia","name":"Phumi Kaoh Sla","name_adm0":"Cambodia","name_adm1":"Kampot","name_adm2":"Chhuk","name_en":"Phumi Kaoh Sla"},"geometry":{"type":"Point","coordinates":[104.24888,10.91074]}},{"type":"feature","properties":{"country_en":"Cambodia","name":"Phumi Kampong Chrey","name_adm0":"Cambodia","name_adm1":"Takev","name_adm2":"Treang","name_en":"Phumi Kampong Chrey"},"geometry":{"type":"Point","coordinates":[104.81827,10.79426]}},{"type":"feature","properties":{"country_en":"Cambodia","name":"Phumi Chrang Khpos","name_adm0":"Cambodia","name_adm1":"Kaoh Kong","name_adm2":"Kaoh Kong","name_en":"Phumi Chrang Khpos"},"geometry":{"type":"Point","coordinates":[103.2589,11.37886]}},{"type":"feature","properties":{"country_en":"Cambodia","name":"Phumi Choam","name_adm0":"Cambodia","name_adm1":"Kampong Spoe","name_adm2":"Aoral","name_en":"Phumi Choam"},"geometry":{"type":"Point","coordinates":[103.91631999999998,11.710749999999999]}},{"type":"feature","properties":{"country_en":"Cambodia","name":"Phumi Chhuk","name_adm0":"Cambodia","name_adm1":"Kampot","name_adm2":"Chhuk","name_en":"Phumi Chhuk"},"geometry":{"type":"Point","coordinates":[104.45655,10.83626]}},{"type":"feature","properties":{"country_en":"Cambodia","name":"Phum Choeu Khmau","name_adm0":"Cambodia","name_adm1":"Batdambang","name_adm2":"Aek Phnum","name_en":"Phum Choeu Khmau"},"geometry":{"type":"Point","coordinates":[103.51349,13.34962]}},{"type":"feature","properties":{"country_en":"Cambodia","name":"Phumi Cham","name_adm0":"Cambodia","name_adm1":"Svay Rieng","name_adm2":"Svay Chrum","name_en":"Phumi Cham"},"geometry":{"type":"Point","coordinates":[105.72439,11.22561]}},{"type":"feature","properties":{"country_en":"Cambodia","name":"Phumi Boeng","name_adm0":"Cambodia","name_adm1":"Preah Vihear","name_adm2":"Sangkom Thmei","name_en":"Phumi Boeng"},"geometry":{"type":"Point","coordinates":[104.86873,13.627009999999999]}},{"type":"feature","properties":{"country_en":"Cambodia","name":"Sankor","name_adm0":"Cambodia","name_adm1":"Kampong Thum","name_adm2":"Kampong Svay","name_en":"Sankor"},"geometry":{"type":"Point","coordinates":[104.73694,12.80799]}},{"type":"feature","properties":{"country_en":"Cambodia","name":"Roessei Thum","name_adm0":"Cambodia","name_adm1":"Siem Reap Province","name_adm2":"Varin","name_en":"Roessei Thum"},"geometry":{"type":"Point","coordinates":[103.7506,13.79468]}},{"type":"feature","properties":{"country_en":"Cambodia","name":"Cheung Prey","name_adm0":"Cambodia","name_adm1":"Kampong Cham","name_adm2":"Cheung Prey","name_en":"Cheung Prey"},"geometry":{"type":"Point","coordinates":[105.07,12.1]}},{"type":"feature","properties":{"country_en":"Cambodia","name":"Phumi Tnaot Chum","name_adm0":"Cambodia","name_adm1":"Kampong Thum","name_adm2":"Baray","name_en":"Phumi Tnaot Chum"},"geometry":{"type":"Point","coordinates":[105.06288,12.52314]}},{"type":"feature","properties":{"country_en":"Cambodia","name":"Phumi Sre Kantang","name_adm0":"Cambodia","name_adm1":"Krachen","name_adm2":"Sambour","name_en":"Phumi Sre Kantang"},"geometry":{"type":"Point","coordinates":[106.26478,13.03094]}},{"type":"feature","properties":{"country_en":"Cambodia","name":"Phumi Kantuot","name_adm0":"Cambodia","name_adm1":"Krachen","name_adm2":"Kracheh","name_en":"Phumi Kantuot"},"geometry":{"type":"Point","coordinates":[106.17043,12.46573]}},{"type":"feature","properties":{"country_en":"Cambodia","name":"Phumi Kandaol Chrum","name_adm0":"Cambodia","name_adm1":"Kampong Cham","name_adm2":"Ponhea Kraek","name_en":"Phumi Kandaol Chrum"},"geometry":{"type":"Point","coordinates":[105.7826,11.8234]}},{"type":"feature","properties":{"country_en":"Cambodia","name":"Phumi Kalai Thom","name_adm0":"Cambodia","name_adm1":"Ratanah Kiri","name_adm2":"Ou Chum","name_en":"Phumi Kalai Thom"},"geometry":{"type":"Point","coordinates":[106.95175,13.839579999999998]}},{"type":"feature","properties":{"country_en":"Cambodia","name":"Phumi Kampong Trach","name_adm0":"Cambodia","name_adm1":"Svay Rieng","name_adm2":"Romeas Haek","name_en":"Phumi Kampong Trach"},"geometry":{"type":"Point","coordinates":[105.79077999999998,11.41178]}},{"type":"feature","properties":{"country_en":"Cambodia","name":"Phumi Kampong Trabek","name_adm0":"Cambodia","name_adm1":"Kampong Thum","name_adm2":"Sandan","name_en":"Phumi Kampong Trabek"},"geometry":{"type":"Point","coordinates":[105.24353,13.10227]}},{"type":"feature","properties":{"country_en":"Cambodia","name":"Phumi Kamang Chong","name_adm0":"Cambodia","name_adm1":"Ratanah Kiri","name_adm2":"Lumphat","name_en":"Phumi Kamang Chong"},"geometry":{"type":"Point","coordinates":[107.213,13.53308]}},{"type":"feature","properties":{"country_en":"Cambodia","name":"Phumi Yuon Dong","name_adm0":"Cambodia","name_adm1":"Mondol Kiri","name_adm2":"Saen Monourom","name_en":"Phumi Yuon Dong"},"geometry":{"type":"Point","coordinates":[107.04906,12.56746]}},{"type":"feature","properties":{"country_en":"Cambodia","name":"Phumi Treas","name_adm0":"Cambodia","name_adm1":"Banteay Mean Cheay","name_adm2":"Svay Chek","name_en":"Phumi Treas"},"geometry":{"type":"Point","coordinates":[102.99764,13.85698]}},{"type":"feature","properties":{"country_en":"Cambodia","name":"Tuol Kruos","name_adm0":"Cambodia","name_adm1":"Pouthisat","name_adm2":"Veal Veaeng","name_en":"Tuol Kruos"},"geometry":{"type":"Point","coordinates":[103.34668999999998,12.37571]}},{"type":"feature","properties":{"country_en":"Cambodia","name":"Phumi Bang Yay","name_adm0":"Cambodia","name_adm1":"Mondol Kiri","name_adm2":"Kaev Seima","name_en":"Phumi Bang Yay"},"geometry":{"type":"Point","coordinates":[106.95935,12.41652]}},{"type":"feature","properties":{"country_en":"Cambodia","name":"Phumi Prek Preah","name_adm0":"Cambodia","name_adm1":"Krachen","name_adm2":"Sambour","name_en":"Phumi Prek Preah"},"geometry":{"type":"Point","coordinates":[106.14609,13.15094]}},{"type":"feature","properties":{"country_en":"Cambodia","name":"Phumi Pheas Tbong","name_adm0":"Cambodia","name_adm1":"Banteay Mean Cheay","name_adm2":"Svay Chek","name_en":"Phumi Pheas Tbong"},"geometry":{"type":"Point","coordinates":[103.11571,13.75139]}},{"type":"feature","properties":{"country_en":"Cambodia","name":"Phumi Moung","name_adm0":"Cambodia","name_adm1":"Siem Reap Province","name_adm2":"Srei Snam","name_en":"Phumi Moung"},"geometry":{"type":"Point","coordinates":[103.54717,13.74967]}},{"type":"feature","properties":{"country_en":"Cambodia","name":"Phumi Mongri","name_adm0":"Cambodia","name_adm1":"Pouthisat","name_adm2":"Veal Veaeng","name_en":"Phumi Mongri"},"geometry":{"type":"Point","coordinates":[103.51674,12.20373]}},{"type":"feature","properties":{"country_en":"Cambodia","name":"Phumi Thnung Khang Cheung","name_adm0":"Cambodia","name_adm1":"Banteay Mean Cheay","name_adm2":"Phnum Srok","name_en":"Phumi Thnung Khang Cheung"},"geometry":{"type":"Point","coordinates":[103.43188,13.91431]}},{"type":"feature","properties":{"country_en":"Cambodia","name":"Phumi Sre Krasang","name_adm0":"Cambodia","name_adm1":"Kampong Spoe","name_adm2":"Phnum Sruoch","name_en":"Phumi Sre Krasang"},"geometry":{"type":"Point","coordinates":[104.16100999999999,11.173379999999998]}},{"type":"feature","properties":{"country_en":"Cambodia","name":"Siempang","name_adm0":"Cambodia","name_adm1":"Stoeng Treng","name_adm2":"Siem Pang","name_en":"Siempang"},"geometry":{"type":"Point","coordinates":[106.3867,14.11337]}},{"type":"feature","properties":{"country_en":"Cambodia","name":"Samlout","name_adm0":"Cambodia","name_adm1":"Batdambang","name_adm2":"Samlout","name_en":"Samlout"},"geometry":{"type":"Point","coordinates":[102.853653,12.563889]}},{"type":"feature","properties":{"country_en":"Cambodia","name":"Kampong Chhnang","name_adm0":"Cambodia","name_adm1":"Kampong Chhnang","name_en":"Kampong Chhnang"},"geometry":{"type":"Point","coordinates":[104.55,12.16667]}},{"type":"feature","properties":{"country_en":"Cambodia","name":"Kandal","name_adm0":"Cambodia","name_adm1":"Kandal","name_en":"Kandal"},"geometry":{"type":"Point","coordinates":[105,11.41667]}},{"type":"feature","properties":{"country_en":"Cambodia","name":"Prey Veng","name_adm0":"Cambodia","name_adm1":"Prey Veng","name_en":"Prey Veng"},"geometry":{"type":"Point","coordinates":[105.46667,11.36667]}},{"type":"feature","properties":{"country_en":"Cambodia","name":"Srei Santhor","name_adm0":"Cambodia","name_adm1":"Kampong Cham","name_adm2":"Srei Santhor","name_en":"Srei Santhor"},"geometry":{"type":"Point","coordinates":[105.413818,11.984825]}},{"type":"feature","properties":{"country_en":"Cambodia","name":"Phumi Snoeng","name_adm0":"Cambodia","name_adm1":"Batdambang","name_adm2":"Banan","name_en":"Phumi Snoeng"},"geometry":{"type":"Point","coordinates":[103.05094,12.96835]}},{"type":"feature","properties":{"country_en":"Cambodia","name":"Ou Chrov","name_adm0":"Cambodia","name_adm1":"Banteay Mean Cheay","name_adm2":"Ou Chrov","name_en":"Ou Chrov"},"geometry":{"type":"Point","coordinates":[102.74997699999999,13.62213]}},{"type":"feature","properties":{"country_en":"Cambodia","name":"Lumphat","name_adm0":"Cambodia","name_adm1":"Ratanah Kiri","name_adm2":"Lumphat","name_en":"Lumphat"},"geometry":{"type":"Point","coordinates":[106.943492,13.949060999999999]}}]}