{"type":"FeatureCollection","features":[{"type":"feature","properties":{"country_en":"Latvia","name":"Druviena","name_adm0":"Latvija","name_adm1":"Gulbene Novads","name_adm2":"Druvienas Pagasts","name_en":"Myza Druviena"},"geometry":{"type":"Point","coordinates":[26.299999999999997,57.11667]}},{"type":"feature","properties":{"country_en":"Latvia","name":"Dunte","name_adm0":"Latvija","name_adm1":"Salacgrļvas Novads","name_adm2":"Liepupes Pagasts","name_en":"Myza Dunte"},"geometry":{"type":"Point","coordinates":[24.42389,57.407500000000006]}},{"type":"feature","properties":{"country_en":"Latvia","name":"Drusti","name_adm0":"Latvija","name_adm1":"Raunas Novads","name_adm2":"Drustu Pagasts","name_en":"Drusti"},"geometry":{"type":"Point","coordinates":[25.86667,57.23333]}},{"type":"feature","properties":{"country_en":"Latvia","name":"Kaiberis","name_adm0":"Latvija","name_adm1":"Smiltene Novads","name_adm2":"Smiltenes Pagasts","name_en":"Kayberis"},"geometry":{"type":"Point","coordinates":[25.81667,57.46667]}},{"type":"feature","properties":{"country_en":"Latvia","name":"Ogresgals","name_adm0":"Latvija","name_adm1":"Ogres Novads","name_adm2":"Ogresgala Pagasts","name_en":"Ogresgala"},"geometry":{"type":"Point","coordinates":[24.73944,56.80722]}},{"type":"feature","properties":{"country_en":"Latvia","name":"Paupi","name_adm0":"Latvija","name_adm1":"Jaunpiebalgas Novads","name_adm2":"Jaunpiebalgas Pagasts","name_en":"Paupji"},"geometry":{"type":"Point","coordinates":[25.43333,57.25]}},{"type":"feature","properties":{"country_en":"Latvia","name":"Pēternieki","name_adm0":"Latvija","name_adm1":"Olaines Novads","name_adm2":"Olaines Pagasts","name_en":"Pēternieki"},"geometry":{"type":"Point","coordinates":[23.93569,56.76169]}},{"type":"feature","properties":{"country_en":"Latvia","name":"Radopole","name_adm0":"Latvija","name_adm1":"Viaąnu Novads","name_adm2":"Viaąnu Pagasts","name_en":"Radopole"},"geometry":{"type":"Point","coordinates":[26.86947,56.52295]}},{"type":"feature","properties":{"country_en":"Latvia","name":"Ragana","name_adm0":"Latvija","name_adm1":"Krimuldas Novads","name_adm2":"Krimuldas Pagasts","name_en":"Raganas"},"geometry":{"type":"Point","coordinates":[24.70731,57.18074]}},{"type":"feature","properties":{"country_en":"Latvia","name":"Robežnieki","name_adm0":"Latvija","name_adm1":"Krąslava Novads","name_adm2":"Robznieku Pagasts","name_en":"Robezhniyeki"},"geometry":{"type":"Point","coordinates":[27.60263,55.97476]}},{"type":"feature","properties":{"country_en":"Latvia","name":"Valdemārpils","name_adm0":"Latvija","name_adm1":"Talsi Novads","name_adm2":"Valdemąrpils","name_en":"Valdemarpils"},"geometry":{"type":"Point","coordinates":[22.59188,57.37067999999999]}},{"type":"feature","properties":{"country_en":"Latvia","name":"Vecsaule","name_adm0":"Latvija","name_adm1":"Bauskas Novads","name_adm2":"Vecsaules Pagasts","name_en":"Vetssaule"},"geometry":{"type":"Point","coordinates":[24.33583,56.43249999999999]}},{"type":"feature","properties":{"country_en":"Latvia","name":"Vecsinepes","name_adm0":"Latvija","name_adm1":"Ventspils Novads","name_adm2":"Ugąles Pagasts","name_en":"Vecsinepes"},"geometry":{"type":"Point","coordinates":[22.05,57.21666999999999]}},{"type":"feature","properties":{"country_en":"Latvia","name":"Vecsvirlauka","name_adm0":"Latvija","name_adm1":"Ozolnieku Novads","name_adm2":"Jaunsvirlaukas Pagasts","name_en":"Vecsvirlauka"},"geometry":{"type":"Point","coordinates":[23.786939999999998,56.63971999999999]}},{"type":"feature","properties":{"country_en":"Latvia","name":"Dzeguzēni","name_adm0":"Latvija","name_adm1":"Tŗrvetes Novads","name_adm2":"Augstkalnes Pagasts","name_en":"Dzeguzēni"},"geometry":{"type":"Point","coordinates":[23.41139,56.41333]}},{"type":"feature","properties":{"country_en":"Latvia","name":"Dzelda","name_adm0":"Latvija","name_adm1":"Skrundas Novads","name_adm2":"Nļkrąces Pagasts","name_en":"Dzelda"},"geometry":{"type":"Point","coordinates":[21.90086,56.56873]}},{"type":"feature","properties":{"country_en":"Latvia","name":"Dzeņi","name_adm0":"Latvija","name_adm1":"Madona Novads","name_adm2":"Liezŗres Pagasts","name_en":"Dzenyumuizha"},"geometry":{"type":"Point","coordinates":[26.13333,57.03333]}},{"type":"feature","properties":{"country_en":"Latvia","name":"Galāti","name_adm0":"Latvija","name_adm1":"Auces Novads","name_adm2":"Vļtińu Pagasts","name_en":"Galati"},"geometry":{"type":"Point","coordinates":[22.84667,56.42690999999999]}},{"type":"feature","properties":{"country_en":"Latvia","name":"Galtene","name_adm0":"Latvija","name_adm1":"Talsi Novads","name_adm2":"Balgales Pagasts","name_en":"Galtene"},"geometry":{"type":"Point","coordinates":[22.85,57.166669999999996]}},{"type":"feature","properties":{"country_en":"Latvia","name":"Galvari","name_adm0":"Latvija","name_adm1":"Balvi Novads","name_adm2":"Bŗrzpils Pagasts","name_en":"Golvari"},"geometry":{"type":"Point","coordinates":[27.23333,56.86667]}},{"type":"feature","properties":{"country_en":"Latvia","name":"Galzemji","name_adm0":"Latvija","name_adm1":"Rundąles Novads","name_adm2":"Viesturu Pagasts","name_en":"Galzemji"},"geometry":{"type":"Point","coordinates":[23.95333,56.43833]}},{"type":"feature","properties":{"country_en":"Latvia","name":"Garanči","name_adm0":"Latvija","name_adm1":"Viaąnu Novads","name_adm2":"Dekąres Pagasts","name_en":"Garanči"},"geometry":{"type":"Point","coordinates":[26.83333,56.65]}},{"type":"feature","properties":{"country_en":"Latvia","name":"Garauši","name_adm0":"Latvija","name_adm1":"Tukums Novads","name_adm2":"Degoles Pagasts","name_en":"Garauši"},"geometry":{"type":"Point","coordinates":[23.13667,56.91167]}},{"type":"feature","properties":{"country_en":"Latvia","name":"Gariejuri","name_adm0":"Latvija","name_adm1":"Alžksne Novads","name_adm2":"Jaunalžksnes Pagasts","name_en":"Gariyuri"},"geometry":{"type":"Point","coordinates":[27.16667,57.43333]}},{"type":"feature","properties":{"country_en":"Latvia","name":"Grīvaiši","name_adm0":"Latvija","name_adm1":"Saldus Novads","name_adm2":"Rubas Pagasts","name_en":"Celmenieki"},"geometry":{"type":"Point","coordinates":[22.333329999999997,56.66667]}},{"type":"feature","properties":{"country_en":"Latvia","name":"Gropiņi","name_adm0":"Latvija","name_adm1":"Vecpiebalgas Novads","name_adm2":"Ineu Pagasts","name_en":"Gropiņi"},"geometry":{"type":"Point","coordinates":[25.71667,57.01667]}},{"type":"feature","properties":{"country_en":"Latvia","name":"Grotuži","name_adm0":"Latvija","name_adm1":"Madona Novads","name_adm2":"Liezŗres Pagasts","name_en":"Velki Pagasta Valde"},"geometry":{"type":"Point","coordinates":[25.95,57.08333]}},{"type":"feature","properties":{"country_en":"Latvia","name":"Izvalta","name_adm0":"Latvija","name_adm1":"Krąslava Novads","name_adm2":"Izvaltas Pagasts","name_en":"Uzhval'd"},"geometry":{"type":"Point","coordinates":[27.01959,55.95665]}},{"type":"feature","properties":{"country_en":"Latvia","name":"Jadekšas","name_adm0":"Latvija","name_adm1":"Talsi Novads","name_adm2":"Óžaciema Pagasts","name_en":"Jadekšas"},"geometry":{"type":"Point","coordinates":[22.96104,57.26693]}},{"type":"feature","properties":{"country_en":"Latvia","name":"Jaunciems","name_adm0":"Latvija","name_adm1":"Talsi Novads","name_adm2":"Valdemąrpils Lauku Teritorija","name_en":"Yauntsiyems"},"geometry":{"type":"Point","coordinates":[22.75363,57.390409999999996]}},{"type":"feature","properties":{"country_en":"Latvia","name":"Kalnvirsa","name_adm0":"Latvija","name_adm1":"Madona Novads","name_adm2":"Aaudonas Pagasts","name_en":"Kalnvirsa"},"geometry":{"type":"Point","coordinates":[26.11485,56.71128999999999]}},{"type":"feature","properties":{"country_en":"Latvia","name":"Kalsnava","name_adm0":"Latvija","name_adm1":"Madona Novads","name_adm2":"Kalsnavas Pagasts","name_en":"Kalsnavas"},"geometry":{"type":"Point","coordinates":[25.9,56.75]}},{"type":"feature","properties":{"country_en":"Latvia","name":"Kaltiķi","name_adm0":"Latvija","name_adm1":"Kuldļga Novads","name_adm2":"Rumbas Pagasts","name_en":"Kaltiki"},"geometry":{"type":"Point","coordinates":[22.066669999999995,56.91667]}},{"type":"feature","properties":{"country_en":"Latvia","name":"Kalupe","name_adm0":"Latvija","name_adm1":"Daugavpils","name_adm2":"Kalupes Pagasts","name_en":"Kolup"},"geometry":{"type":"Point","coordinates":[26.55,56.1]}},{"type":"feature","properties":{"country_en":"Latvia","name":"Kusiņi","name_adm0":"Latvija","name_adm1":"Daugavpils","name_adm2":"Kalupes Pagasts","name_en":"Kusseni"},"geometry":{"type":"Point","coordinates":[26.466669999999997,56.1]}},{"type":"feature","properties":{"country_en":"Latvia","name":"Kušneri","name_adm0":"Latvija","name_adm1":"Ludza Novads","name_adm2":"Nirzas Pagasts","name_en":"Kušneri"},"geometry":{"type":"Point","coordinates":[27.9,56.383329999999994]}},{"type":"feature","properties":{"country_en":"Latvia","name":"Lāči","name_adm0":"Latvija","name_adm1":"Daugavpils","name_adm2":"Naujenes Pagasts","name_en":"Lotsiki"},"geometry":{"type":"Point","coordinates":[26.65,55.93333]}},{"type":"feature","properties":{"country_en":"Latvia","name":"Liepas","name_adm0":"Latvija","name_adm1":"Jŗkabpils Novads","name_adm2":"Zasas Pagasts","name_en":"Liepas"},"geometry":{"type":"Point","coordinates":[26.03333,56.28333]}},{"type":"feature","properties":{"country_en":"Latvia","name":"Lielkangari","name_adm0":"Latvija","name_adm1":"Ropazu Novads","name_adm2":"Ropazu Pagasts","name_en":"Myza Lielkangari"},"geometry":{"type":"Point","coordinates":[24.643609999999995,56.92667]}},{"type":"feature","properties":{"country_en":"Latvia","name":"Lielmāņi","name_adm0":"Latvija","name_adm1":"Cŗsis Novads","name_adm2":"Vaives Pagasts","name_en":"Lielmani"},"geometry":{"type":"Point","coordinates":[25.45,57.18333]}},{"type":"feature","properties":{"country_en":"Latvia","name":"Lielmēmele","name_adm0":"Latvija","name_adm1":"Neretas Novads","name_adm2":"Mazzalves Pagasts","name_en":"Lielmēmele"},"geometry":{"type":"Point","coordinates":[24.97278,56.33471999999999]}},{"type":"feature","properties":{"country_en":"Latvia","name":"Lonaste","name_adm0":"Latvija","name_adm1":"Ventspils Novads","name_adm2":"Ances Pagasts","name_en":"Lonaste"},"geometry":{"type":"Point","coordinates":[22.16667,57.483329999999995]}},{"type":"feature","properties":{"country_en":"Latvia","name":"Lone","name_adm0":"Latvija","name_adm1":"Viesļtes Novads","name_adm2":"Saukas Pagasts","name_en":"Lones Krogs"},"geometry":{"type":"Point","coordinates":[25.40194,56.28287]}},{"type":"feature","properties":{"country_en":"Latvia","name":"Mujani","name_adm0":"Latvija","name_adm1":"Valmiera Novads","name_adm2":"Kocŗnu Pagasts","name_en":"Mujani"},"geometry":{"type":"Point","coordinates":[25.281209999999998,57.52186]}},{"type":"feature","properties":{"country_en":"Latvia","name":"Muņi","name_adm0":"Latvija","name_adm1":"Dundagas Novads","name_adm2":"Dundagas Pagasts","name_en":"Munyutsiyems"},"geometry":{"type":"Point","coordinates":[22.41667,57.6]}},{"type":"feature","properties":{"country_en":"Latvia","name":"Oleri","name_adm0":"Latvija","name_adm1":"Ržjiena Novads","name_adm2":"Jeru Pagasts","name_en":"Myza Oleri"},"geometry":{"type":"Point","coordinates":[25.4,57.79999999999999]}},{"type":"feature","properties":{"country_en":"Latvia","name":"Oļgina","name_adm0":"Latvija","name_adm1":"Balvi Novads","name_adm2":"Kubuau Pagasts","name_en":"Olgina"},"geometry":{"type":"Point","coordinates":[27.25,57.21666999999999]}},{"type":"feature","properties":{"country_en":"Latvia","name":"Oļi","name_adm0":"Latvija","name_adm1":"Madona Novads","name_adm2":"Aronas Pagasts","name_en":"Oli"},"geometry":{"type":"Point","coordinates":[26.166669999999996,56.91667]}},{"type":"feature","properties":{"country_en":"Latvia","name":"Opoli","name_adm0":"Latvija","name_adm1":"Ludza Novads","name_adm2":"Briau Pagasts","name_en":"Vopuli"},"geometry":{"type":"Point","coordinates":[28.16667,56.41667]}},{"type":"feature","properties":{"country_en":"Latvia","name":"Orlova","name_adm0":"Latvija","name_adm1":"Balvi Novads","name_adm2":"Lazdulejas Pagasts","name_en":"Orlava"},"geometry":{"type":"Point","coordinates":[27.46667,57.03333]}},{"type":"feature","properties":{"country_en":"Latvia","name":"Ozoli","name_adm0":"Latvija","name_adm1":"Alojas Novads","name_adm2":"Brļvzemnieku Pagasts","name_en":"Ozoli"},"geometry":{"type":"Point","coordinates":[25.03333,56.86667]}},{"type":"feature","properties":{"country_en":"Latvia","name":"Pasteri","name_adm0":"Latvija","name_adm1":"Krąslava Novads","name_adm2":"Kraslavas Pagasts","name_en":"Pastari"},"geometry":{"type":"Point","coordinates":[27.20618,55.91425]}},{"type":"feature","properties":{"country_en":"Latvia","name":"Pučurga","name_adm0":"Latvija","name_adm1":"Burtnieku Novads","name_adm2":"Matļu Pagasts","name_en":"Myza Puchurga"},"geometry":{"type":"Point","coordinates":[25.1847,57.702589999999994]}},{"type":"feature","properties":{"country_en":"Latvia","name":"Pudāni","name_adm0":"Latvija","name_adm1":"Daugavpils","name_adm2":"Vaboles Pagasts","name_en":"Pudani"},"geometry":{"type":"Point","coordinates":[26.483329999999995,56.08333]}},{"type":"feature","properties":{"country_en":"Latvia","name":"Pujāti","name_adm0":"Latvija","name_adm1":"Rŗzekne Novads","name_adm2":"Rŗzeknes Pagasts","name_en":"Pujati"},"geometry":{"type":"Point","coordinates":[27.33333,56.68333]}},{"type":"feature","properties":{"country_en":"Latvia","name":"Pumpēni","name_adm0":"Latvija","name_adm1":"Bauskas Novads","name_adm2":"Ceraukstes Pagasts","name_en":"Pumpeni"},"geometry":{"type":"Point","coordinates":[24.313889999999997,56.356939999999994]}},{"type":"feature","properties":{"country_en":"Latvia","name":"Sējējciems","name_adm0":"Latvija","name_adm1":"Nļcas Novads","name_adm2":"Nļcas Pagasts","name_en":"Sējējciems"},"geometry":{"type":"Point","coordinates":[21.00225,56.36582]}},{"type":"feature","properties":{"country_en":"Latvia","name":"Selamiski","name_adm0":"Latvija","name_adm1":"Balvi Novads","name_adm2":"Bŗrzpils Pagasts","name_en":"Selomyzki"},"geometry":{"type":"Point","coordinates":[27.1,56.83333]}},{"type":"feature","properties":{"country_en":"Latvia","name":"Sidrabe","name_adm0":"Latvija","name_adm1":"Jelgavas Novads","name_adm2":"Lielplatones Pagasts","name_en":"Sidrabe"},"geometry":{"type":"Point","coordinates":[23.637169999999998,56.43517]}},{"type":"feature","properties":{"country_en":"Latvia","name":"Sieksųte","name_adm0":"Latvija","name_adm1":"Skrundas Novads","name_adm2":"Rudbąrzu Pagasts","name_en":"Sieksųte"},"geometry":{"type":"Point","coordinates":[21.9,56.71667]}},{"type":"feature","properties":{"country_en":"Latvia","name":"Siksala","name_adm0":"Latvija","name_adm1":"Varakaąnu Novads","name_adm2":"Murmastienes Pagasts","name_en":"Saksala"},"geometry":{"type":"Point","coordinates":[26.41319,56.64891]}},{"type":"feature","properties":{"country_en":"Latvia","name":"Silmala","name_adm0":"Latvija","name_adm1":"Rŗzekne Novads","name_adm2":"Silmalas Pagasts","name_en":"Silmala"},"geometry":{"type":"Point","coordinates":[27.095799999999997,56.39744999999999]}},{"type":"feature","properties":{"country_en":"Latvia","name":"Silmuiža","name_adm0":"Latvija","name_adm1":"Talsi Novads","name_adm2":"Ļves Pagasts","name_en":"Sili"},"geometry":{"type":"Point","coordinates":[22.52618,57.39697999999999]}},{"type":"feature","properties":{"country_en":"Latvia","name":"Sils","name_adm0":"Latvija","name_adm1":"Vilakas Novads","name_adm2":"Zļguru Pagasts","name_en":"Sils"},"geometry":{"type":"Point","coordinates":[27.699999999999996,57.26667]}},{"type":"feature","properties":{"country_en":"Latvia","name":"Sils","name_adm0":"Latvija","name_adm1":"Alžksne Novads","name_adm2":"Liepnas Pagasts","name_en":"Sils"},"geometry":{"type":"Point","coordinates":[27.55,57.316669999999995]}},{"type":"feature","properties":{"country_en":"Latvia","name":"Siltāji","name_adm0":"Latvija","name_adm1":"Gulbene Novads","name_adm2":"Lļgo Pagasts","name_en":"Siltaji"},"geometry":{"type":"Point","coordinates":[26.56667,57.03333]}},{"type":"feature","properties":{"country_en":"Latvia","name":"Sinole","name_adm0":"Latvija","name_adm1":"Gulbene Novads","name_adm2":"Lejasciema Pagasts","name_en":"Sinoles"},"geometry":{"type":"Point","coordinates":[26.49696,57.25045]}},{"type":"feature","properties":{"country_en":"Latvia","name":"Širmeļi","name_adm0":"Latvija","name_adm1":"Óeguma Novads","name_adm2":"Birzgales Pagasts","name_en":"Sirmeli"},"geometry":{"type":"Point","coordinates":[24.784999999999997,56.68]}},{"type":"feature","properties":{"country_en":"Latvia","name":"Snapji","name_adm0":"Latvija","name_adm1":"Tukums Novads","name_adm2":"Irlavas Pagasts","name_en":"Snapji"},"geometry":{"type":"Point","coordinates":[22.98503,56.8486]}},{"type":"feature","properties":{"country_en":"Latvia","name":"Sofikalns","name_adm0":"Latvija","name_adm1":"Alžksne Novads","name_adm2":"Mąlupes Pagasts","name_en":"Sofikalni"},"geometry":{"type":"Point","coordinates":[27.316669999999995,57.316669999999995]}},{"type":"feature","properties":{"country_en":"Latvia","name":"Sola","name_adm0":"Latvija","name_adm1":"Balvi Novads","name_adm2":"Bŗrzpils Pagasts","name_en":"Sola"},"geometry":{"type":"Point","coordinates":[27.05,56.8]}},{"type":"feature","properties":{"country_en":"Latvia","name":"Somersēta","name_adm0":"Latvija","name_adm1":"Aglonas Novads","name_adm2":"Aglonas Pagasts","name_en":"Samerset"},"geometry":{"type":"Point","coordinates":[27.016669999999998,56.13333]}},{"type":"feature","properties":{"country_en":"Latvia","name":"Stuķi","name_adm0":"Latvija","name_adm1":"Priekuau Novads","name_adm2":"Priekuau Pagasts","name_en":"Stuki"},"geometry":{"type":"Point","coordinates":[25.45326,57.39704999999999]}},{"type":"feature","properties":{"country_en":"Latvia","name":"Sturišķi","name_adm0":"Latvija","name_adm1":"Lļvąnu Novads","name_adm2":"Jersikas Pagasts","name_en":"Sturiski"},"geometry":{"type":"Point","coordinates":[26.21819,56.22231]}},{"type":"feature","properties":{"country_en":"Latvia","name":"Stūrmežs","name_adm0":"Latvija","name_adm1":"Madona Novads","name_adm2":"Oupes Pagasts","name_en":"Stūrmežs"},"geometry":{"type":"Point","coordinates":[26.66667,56.8]}},{"type":"feature","properties":{"country_en":"Latvia","name":"Subinaite","name_adm0":"Latvija","name_adm1":"Rŗzekne Novads","name_adm2":"Sakstagala Pagasts","name_en":"Subinaide"},"geometry":{"type":"Point","coordinates":[27.033329999999996,56.566669999999995]}},{"type":"feature","properties":{"country_en":"Latvia","name":"Sudarbe","name_adm0":"Latvija","name_adm1":"Balvi Novads","name_adm2":"Vectilzas Pagasts","name_en":"Sudarbe"},"geometry":{"type":"Point","coordinates":[27.316669999999995,56.99999999999999]}},{"type":"feature","properties":{"country_en":"Latvia","name":"Šudārgi","name_adm0":"Latvija","name_adm1":"Rucavas Novads","name_adm2":"Dunikas Pagasts","name_en":"Sudargi"},"geometry":{"type":"Point","coordinates":[21.25631,56.22093]}},{"type":"feature","properties":{"country_en":"Latvia","name":"Sūde","name_adm0":"Latvija","name_adm1":"Dundagas Novads","name_adm2":"Dundagas Pagasts","name_en":"Sūde"},"geometry":{"type":"Point","coordinates":[22.3,57.53332999999999]}},{"type":"feature","properties":{"country_en":"Latvia","name":"Sudrabkalns","name_adm0":"Latvija","name_adm1":"Jŗkabpils Novads","name_adm2":"Dunavas Pagasts","name_en":"Sudrabkalns"},"geometry":{"type":"Point","coordinates":[26.17407,56.25251]}},{"type":"feature","properties":{"country_en":"Latvia","name":"Tabore","name_adm0":"Latvija","name_adm1":"Daugavpils","name_adm2":"Tabores Pagasts","name_en":"Myza Tabor"},"geometry":{"type":"Point","coordinates":[26.650429999999997,55.86838]}},{"type":"feature","properties":{"country_en":"Latvia","name":"Tālavieši","name_adm0":"Latvija","name_adm1":"Vilakas Novads","name_adm2":"Vecumu Pagasts","name_en":"Talaviesi"},"geometry":{"type":"Point","coordinates":[27.833329999999997,57.26667]}},{"type":"feature","properties":{"country_en":"Latvia","name":"Talsciems","name_adm0":"Latvija","name_adm1":"Talsi Novads","name_adm2":"Aibuau Pagasts","name_en":"Talsciems"},"geometry":{"type":"Point","coordinates":[22.5509,57.25157]}},{"type":"feature","properties":{"country_en":"Latvia","name":"Tartaki","name_adm0":"Latvija","name_adm1":"Daugavpils","name_adm2":"Vecsalienas Pagasts","name_en":"Tartak"},"geometry":{"type":"Point","coordinates":[26.83333,55.81667]}},{"type":"feature","properties":{"country_en":"Latvia","name":"Tāši","name_adm0":"Latvija","name_adm1":"Grobińas Novads","name_adm2":"Medzes Pagasts","name_en":"Tasi"},"geometry":{"type":"Point","coordinates":[21.2237,56.59848]}},{"type":"feature","properties":{"country_en":"Latvia","name":"Vite","name_adm0":"Latvija","name_adm1":"Mąlpils Novads","name_adm2":"Mąlpils Pagasts","name_en":"Myza Vite"},"geometry":{"type":"Point","coordinates":[24.98917,56.96444]}},{"type":"feature","properties":{"country_en":"Latvia","name":"Vitiņi","name_adm0":"Latvija","name_adm1":"Grobińas Novads","name_adm2":"Grobińas Pagasts","name_en":"Vitynyu"},"geometry":{"type":"Point","coordinates":[21.10263,56.49406]}},{"type":"feature","properties":{"country_en":"Latvia","name":"Vītiņi","name_adm0":"Latvija","name_adm1":"Auces Novads","name_adm2":"Vļtińu Pagasts","name_en":"Vitini"},"geometry":{"type":"Point","coordinates":[22.918,56.44314]}},{"type":"feature","properties":{"country_en":"Latvia","name":"Vītoliņi","name_adm0":"Latvija","name_adm1":"Jelgavas Novads","name_adm2":"Valgundes Pagasts","name_en":"Vitolini"},"geometry":{"type":"Point","coordinates":[23.70444,56.7]}},{"type":"feature","properties":{"country_en":"Latvia","name":"Irši","name_adm0":"Latvija","name_adm1":"Kokneses Novads","name_adm2":"Iru Pagasts","name_en":"Myza Irshu"},"geometry":{"type":"Point","coordinates":[25.6,56.78333]}},{"type":"feature","properties":{"country_en":"Latvia","name":"Gostiņi","name_adm0":"Latvija","name_adm1":"Paavińas Novads","name_adm2":"Aiviekstes Pagasts","name_en":"Gostiņi"},"geometry":{"type":"Point","coordinates":[25.789379999999998,56.61573]}},{"type":"feature","properties":{"country_en":"Latvia","name":"Gubina","name_adm0":"Latvija","name_adm1":"Zilupes Novads","name_adm2":"Zalesjes Pagasts","name_en":"Gubina"},"geometry":{"type":"Point","coordinates":[24.60333,56.14582999999999]}},{"type":"feature","properties":{"country_en":"Latvia","name":"Kumbri","name_adm0":"Latvija","name_adm1":"Saldus Novads","name_adm2":"Saldus Pagasts","name_en":"Druva"},"geometry":{"type":"Point","coordinates":[22.449999999999996,56.7]}},{"type":"feature","properties":{"country_en":"Latvia","name":"Laidze","name_adm0":"Latvija","name_adm1":"Talsi Novads","name_adm2":"Laidzes Pagasts","name_en":"Laydze"},"geometry":{"type":"Point","coordinates":[22.66479,57.28840999999999]}},{"type":"feature","properties":{"country_en":"Latvia","name":"Līdere","name_adm0":"Latvija","name_adm1":"Madona Novads","name_adm2":"Aronas Pagasts","name_en":"Myza Lyderis"},"geometry":{"type":"Point","coordinates":[26.04228,56.94631]}},{"type":"feature","properties":{"country_en":"Latvia","name":"Spares","name_adm0":"Latvija","name_adm1":"Jelgavas Novads","name_adm2":"Glždas Pagasts","name_en":"Spares"},"geometry":{"type":"Point","coordinates":[22.93333,56.49999999999999]}},{"type":"feature","properties":{"country_en":"Latvia","name":"Daumanti","name_adm0":"Latvija","name_adm1":"Jelgavas Novads","name_adm2":"Elejas Pagasts","name_en":"Daumanti"},"geometry":{"type":"Point","coordinates":[23.69704,56.39276999999999]}},{"type":"feature","properties":{"country_en":"Latvia","name":"Upmalas","name_adm0":"Latvija","name_adm1":"Mąlpils Novads","name_adm2":"Mąlpils Pagasts","name_en":"Upmalas"},"geometry":{"type":"Point","coordinates":[24.90917,56.994719999999994]}},{"type":"feature","properties":{"country_en":"Latvia","name":"Suniši","name_adm0":"Latvija","name_adm1":"Krimuldas Novads","name_adm2":"Krimuldas Pagasts","name_en":"Sunisi"},"geometry":{"type":"Point","coordinates":[24.70278,57.158609999999996]}},{"type":"feature","properties":{"country_en":"Latvia","name":"Viaaka","name_adm0":"Latvija","name_adm1":"Vilakas Novads","name_adm2":"Viaaka","name_en":"Viaaka"},"geometry":{"type":"Point","coordinates":[27.680225,57.181855]}},{"type":"feature","properties":{"country_en":"Latvia","name":"Bauska","name_adm0":"Latvija","name_adm1":"Bauskas Novads","name_adm2":"Bauska","name_en":"Bauska"},"geometry":{"type":"Point","coordinates":[24.160307999999997,56.397944]}},{"type":"feature","properties":{"country_en":"Latvia","name":"Slampes Pagasts","name_adm0":"Latvija","name_adm1":"Tukums Novads","name_adm2":"Slampes Pagasts","name_en":"Slampes Pagasts"},"geometry":{"type":"Point","coordinates":[23.296508,56.83995899999999]}},{"type":"feature","properties":{"country_en":"Latvia","name":"Krustpils Novads","name_adm0":"Latvija","name_adm1":"Krustpils Novads","name_en":"Krustpils Novads"},"geometry":{"type":"Point","coordinates":[26.172779999999996,56.54916999999999]}},{"type":"feature","properties":{"country_en":"Latvia","name":"Nļgrandes Pagasts","name_adm0":"Latvija","name_adm1":"Saldus Novads","name_adm2":"Nļgrandes Pagasts","name_en":"Nļgrandes Pagasts"},"geometry":{"type":"Point","coordinates":[22.496266,56.665105999999994]}},{"type":"feature","properties":{"country_en":"Latvia","name":"Priedkalne","name_adm0":"Latvija","name_adm1":"Garkalnes Novads","name_adm2":"Garkalnes Pagasts","name_en":"Priedkalne"},"geometry":{"type":"Point","coordinates":[24.27429,57.01448]}},{"type":"feature","properties":{"country_en":"Latvia","name":"Jŗkabpils","name_adm0":"Latvija","name_adm1":"Jŗkabpils","name_adm2":"Jŗkabpils","name_en":"Jŗkabpils"},"geometry":{"type":"Point","coordinates":[25.888422999999996,56.507169]}},{"type":"feature","properties":{"country_en":"Latvia","name":"Staicele","name_adm0":"Latvija","name_adm1":"Alojas Novads","name_adm2":"Staicele","name_en":"Staicele"},"geometry":{"type":"Point","coordinates":[24.607499999999998,56.875461]}},{"type":"feature","properties":{"country_en":"Latvia","name":"Dobele","name_adm0":"Latvija","name_adm1":"Dobele Novads","name_adm2":"Dobele","name_en":"Dobele"},"geometry":{"type":"Point","coordinates":[23.27672,56.625005]}},{"type":"feature","properties":{"country_en":"Latvia","name":"Turlavas Pagasts","name_adm0":"Latvija","name_adm1":"Kuldļga Novads","name_adm2":"Turlavas Pagasts","name_en":"Turlavas Pagasts"},"geometry":{"type":"Point","coordinates":[21.977688,56.970123]}},{"type":"feature","properties":{"country_en":"Latvia","name":"Ezeres Pagasts","name_adm0":"Latvija","name_adm1":"Saldus Novads","name_adm2":"Ezeres Pagasts","name_en":"Ezeres Pagasts"},"geometry":{"type":"Point","coordinates":[22.496266,56.665105999999994]}},{"type":"feature","properties":{"country_en":"Latvia","name":"Bąrtas Pagasts","name_adm0":"Latvija","name_adm1":"Grobińas Novads","name_adm2":"Bąrtas Pagasts","name_en":"Bąrtas Pagasts"},"geometry":{"type":"Point","coordinates":[21.171512,56.535138999999994]}},{"type":"feature","properties":{"country_en":"Latvia","name":"Ŗveles Pagasts","name_adm0":"Latvija","name_adm1":"Burtnieku Novads","name_adm2":"Ŗveles Pagasts","name_en":"Ŗveles Pagasts"},"geometry":{"type":"Point","coordinates":[25.283488999999996,57.735018999999994]}},{"type":"feature","properties":{"country_en":"Latvia","name":"Valles Pagasts","name_adm0":"Latvija","name_adm1":"Vecumnieku Novads","name_adm2":"Valles Pagasts","name_en":"Valles Pagasts"},"geometry":{"type":"Point","coordinates":[24.493846,56.613968]}},{"type":"feature","properties":{"country_en":"Latvia","name":"Ŗrgau Novads","name_adm0":"Latvija","name_adm1":"Ŗrgau Novads","name_en":"Ŗrgau Novads"},"geometry":{"type":"Point","coordinates":[25.63698,56.900848]}},{"type":"feature","properties":{"country_en":"Latvia","name":"Madona Novads","name_adm0":"Latvija","name_adm1":"Madona Novads","name_en":"Madona Novads"},"geometry":{"type":"Point","coordinates":[26.220331,56.855026]}},{"type":"feature","properties":{"country_en":"Latvia","name":"Paavińas Novads","name_adm0":"Latvija","name_adm1":"Paavińas Novads","name_en":"Paavińas Novads"},"geometry":{"type":"Point","coordinates":[25.655307,56.599013]}},{"type":"feature","properties":{"country_en":"Latvia","name":"Ludza Novads","name_adm0":"Latvija","name_adm1":"Ludza Novads","name_en":"Ludza Novads"},"geometry":{"type":"Point","coordinates":[27.556972,56.554657]}},{"type":"feature","properties":{"country_en":"Latvia","name":"Beaavas Pagasts","name_adm0":"Latvija","name_adm1":"Gulbene Novads","name_adm2":"Beaavas Pagasts","name_en":"Beaavas Pagasts"},"geometry":{"type":"Point","coordinates":[26.76218,57.16727999999999]}},{"type":"feature","properties":{"country_en":"Latvia","name":"Mazsalaca","name_adm0":"Latvija","name_adm1":"Mazsalacas Novads","name_adm2":"Mazsalaca","name_en":"Salisburg"},"geometry":{"type":"Point","coordinates":[25.05475,57.86328999999999]}},{"type":"feature","properties":{"country_en":"Latvia","name":"Sutru Pagasts","name_adm0":"Latvija","name_adm1":"Lļvąnu Novads","name_adm2":"Sutru Pagasts","name_en":"Sutru Pagasts"},"geometry":{"type":"Point","coordinates":[26.196899,56.356120999999995]}},{"type":"feature","properties":{"country_en":"Latvia","name":"Gaujienas Pagasts","name_adm0":"Latvija","name_adm1":"Apes Novads","name_adm2":"Gaujienas Pagasts","name_en":"Gaujienas Pagasts"},"geometry":{"type":"Point","coordinates":[24.607499999999998,56.875461]}},{"type":"feature","properties":{"country_en":"Latvia","name":"Kalnieu Pagasts","name_adm0":"Latvija","name_adm1":"Krąslava Novads","name_adm2":"Kalnieu Pagasts","name_en":"Kalnieu Pagasts"},"geometry":{"type":"Point","coordinates":[27.169799999999995,55.8951]}},{"type":"feature","properties":{"country_en":"Latvia","name":"Sātiņi","name_adm0":"Latvija","name_adm1":"Saldus Novads","name_adm2":"Zańas Pagasts","name_en":"Satini"},"geometry":{"type":"Point","coordinates":[22.43614,56.64404999999999]}},{"type":"feature","properties":{"country_en":"Latvia","name":"Rubenes Pagasts","name_adm0":"Latvija","name_adm1":"Jŗkabpils Novads","name_adm2":"Rubenes Pagasts","name_en":"Rubenes Pagasts"},"geometry":{"type":"Point","coordinates":[25.864992,56.490742]}},{"type":"feature","properties":{"country_en":"Latvia","name":"Bŗrzes Pagasts","name_adm0":"Latvija","name_adm1":"Dobele Novads","name_adm2":"Bŗrzes Pagasts","name_en":"Bŗrzes Pagasts"},"geometry":{"type":"Point","coordinates":[23.27672,56.625005]}},{"type":"feature","properties":{"country_en":"Latvia","name":"Vidrizu Pagasts","name_adm0":"Latvija","name_adm1":"Limbazi Novads","name_adm2":"Vidrizu Pagasts","name_en":"Vidrizu Pagasts"},"geometry":{"type":"Point","coordinates":[24.714699,57.51468100000001]}},{"type":"feature","properties":{"country_en":"Latvia","name":"Elkńu Pagasts","name_adm0":"Latvija","name_adm1":"Viesļtes Novads","name_adm2":"Elkńu Pagasts","name_en":"Elkńu Pagasts"},"geometry":{"type":"Point","coordinates":[24.607499999999998,56.875461]}},{"type":"feature","properties":{"country_en":"Latvia","name":"Zaķi","name_adm0":"Latvija","name_adm1":"Salacgrļvas Novads","name_adm2":"Liepupes Pagasts","name_en":"Zaki"},"geometry":{"type":"Point","coordinates":[24.42583,57.50082999999999]}},{"type":"feature","properties":{"country_en":"Latvia","name":"Rociņas","name_adm0":"Latvija","name_adm1":"Tŗrvetes Novads","name_adm2":"Bukaisu Pagasts","name_en":"Rociņas"},"geometry":{"type":"Point","coordinates":[23.22083,56.43361]}},{"type":"feature","properties":{"country_en":"Latvia","name":"Klinti","name_adm0":"Latvija","name_adm1":"Tŗrvetes Novads","name_adm2":"Augstkalnes Pagasts","name_en":"Klinti"},"geometry":{"type":"Point","coordinates":[23.339639999999996,56.41613]}},{"type":"feature","properties":{"country_en":"Latvia","name":"Smēdēni","name_adm0":"Latvija","name_adm1":"Ozolnieku Novads","name_adm2":"Jaunsvirlaukas Pagasts","name_en":"Smedeni"},"geometry":{"type":"Point","coordinates":[24.01706,56.50731999999999]}},{"type":"feature","properties":{"country_en":"Latvia","name":"Broki","name_adm0":"Latvija","name_adm1":"Riebińu Novads","name_adm2":"Silukalna Pagasts","name_en":"Broki"},"geometry":{"type":"Point","coordinates":[25.41667,56.9]}},{"type":"feature","properties":{"country_en":"Latvia","name":"Ratnīki","name_adm0":"Latvija","name_adm1":"Rŗzekne Novads","name_adm2":"Čornajas Pagasts","name_en":"Ratnīki"},"geometry":{"type":"Point","coordinates":[27.1653,55.6516]}},{"type":"feature","properties":{"country_en":"Latvia","name":"Briedes","name_adm0":"Latvija","name_adm1":"Burtnieku Novads","name_adm2":"Burtnieku Pagasts","name_en":"Briedes"},"geometry":{"type":"Point","coordinates":[25.6,57.79999999999999]}},{"type":"feature","properties":{"country_en":"Latvia","name":"Ramata","name_adm0":"Latvija","name_adm1":"Mazsalacas Novads","name_adm2":"Ramatas Pagasts","name_en":"Ramata"},"geometry":{"type":"Point","coordinates":[25.00935,57.949729999999995]}},{"type":"feature","properties":{"country_en":"Latvia","name":"Purvini","name_adm0":"Latvija","name_adm1":"Ozolnieku Novads","name_adm2":"Sidrabenes Pagasts","name_en":"Purvini"},"geometry":{"type":"Point","coordinates":[23.94194,56.67889]}},{"type":"feature","properties":{"country_en":"Latvia","name":"Lici","name_adm0":"Latvija","name_adm1":"Saulkrastu Novads","name_adm2":"Saulkrastu Lauku Teritorija","name_en":"Lici"},"geometry":{"type":"Point","coordinates":[23.76611,56.69083]}},{"type":"feature","properties":{"country_en":"Latvia","name":"Rudava","name_adm0":"Latvija","name_adm1":"Ludza Novads","name_adm2":"Ńukas Pagasts","name_en":"Rudava"},"geometry":{"type":"Point","coordinates":[26.78333,56.15]}},{"type":"feature","properties":{"country_en":"Latvia","name":"Balozi","name_adm0":"Latvija","name_adm1":"Ogres Novads","name_adm2":"Taurupes Pagasts","name_en":"Balozi"},"geometry":{"type":"Point","coordinates":[24.118609999999997,56.87611]}},{"type":"feature","properties":{"country_en":"Latvia","name":"Urdzinas","name_adm0":"Latvija","name_adm1":"Ogres Novads","name_adm2":"Ogre","name_en":"Urdzinas"},"geometry":{"type":"Point","coordinates":[23.87611,56.92056]}},{"type":"feature","properties":{"country_en":"Latvia","name":"Kapari","name_adm0":"Latvija","name_adm1":"Krąslava Novads","name_adm2":"Kaplavas Pagasts","name_en":"Kapari"},"geometry":{"type":"Point","coordinates":[26.572489999999995,56.24992999999999]}},{"type":"feature","properties":{"country_en":"Latvia","name":"Amari","name_adm0":"Latvija","name_adm1":"Dobele Novads","name_adm2":"Annenieku Pagasts","name_en":"Amari"},"geometry":{"type":"Point","coordinates":[22.32658,56.44237]}},{"type":"feature","properties":{"country_en":"Latvia","name":"Aizupe","name_adm0":"Latvija","name_adm1":"Ozolnieku Novads","name_adm2":"Cenu Pagasts","name_en":"Aizupe"},"geometry":{"type":"Point","coordinates":[23.79778,56.69139]}},{"type":"feature","properties":{"country_en":"Latvia","name":"Gaujasmala","name_adm0":"Latvija","name_adm1":"Beverina Novads","name_adm2":"Brenguau Pagasts","name_en":"Gaujasmala"},"geometry":{"type":"Point","coordinates":[24.31472,57.12722]}},{"type":"feature","properties":{"country_en":"Latvia","name":"Adami","name_adm0":"Latvija","name_adm1":"Dobele Novads","name_adm2":"Auru Pagasts","name_en":"Adami"},"geometry":{"type":"Point","coordinates":[23.555329999999998,56.83714]}},{"type":"feature","properties":{"country_en":"Latvia","name":"Dambenieki","name_adm0":"Latvija","name_adm1":"Gulbene Novads","name_adm2":"Stąmerienas Pagasts","name_en":"Dambenieki"},"geometry":{"type":"Point","coordinates":[26.61667,56.99999999999999]}},{"type":"feature","properties":{"country_en":"Latvia","name":"Vecmuiza","name_adm0":"Latvija","name_adm1":"Ropazu Novads","name_adm2":"Ropazu Pagasts","name_en":"Vecmuiza"},"geometry":{"type":"Point","coordinates":[24.45417,56.94972]}},{"type":"feature","properties":{"country_en":"Latvia","name":"Selas","name_adm0":"Latvija","name_adm1":"Saldus Novads","name_adm2":"Aóŗdes Pagasts","name_en":"Selas"},"geometry":{"type":"Point","coordinates":[23.22944,57.14721999999999]}},{"type":"feature","properties":{"country_en":"Latvia","name":"Parupe","name_adm0":"Latvija","name_adm1":"Jelgavas Novads","name_adm2":"Glždas Pagasts","name_en":"Parupe"},"geometry":{"type":"Point","coordinates":[23.6025,56.63360999999999]}},{"type":"feature","properties":{"country_en":"Latvia","name":"Medemciems","name_adm0":"Latvija","name_adm1":"Olaines Novads","name_adm2":"Olaines Pagasts","name_en":"Medemciems"},"geometry":{"type":"Point","coordinates":[24.07167,56.85861]}},{"type":"feature","properties":{"country_en":"Latvia","name":"Mazsalacas Novads","name_adm0":"Latvija","name_adm1":"Mazsalacas Novads","name_en":"Mazsalacas Novads"},"geometry":{"type":"Point","coordinates":[25.03306,57.911939999999994]}},{"type":"feature","properties":{"country_en":"Latvia","name":"Kabile","name_adm0":"Latvija","name_adm1":"Kuldļga Novads","name_adm2":"Kabiles Pagasts","name_en":"Myza Kabile"},"geometry":{"type":"Point","coordinates":[22.4,56.95]}},{"type":"feature","properties":{"country_en":"Latvia","name":"Matīši","name_adm0":"Latvija","name_adm1":"Burtnieku Novads","name_adm2":"Matļu Pagasts","name_en":"Matishi"},"geometry":{"type":"Point","coordinates":[25.15886,57.69892]}},{"type":"feature","properties":{"country_en":"Latvia","name":"Mazstraupe","name_adm0":"Latvija","name_adm1":"Pargauja Novads","name_adm2":"Straupes Pagasts","name_en":"Malaya Myza Straupe"},"geometry":{"type":"Point","coordinates":[24.96667,57.36666999999999]}},{"type":"feature","properties":{"country_en":"Latvia","name":"Veļķi","name_adm0":"Latvija","name_adm1":"Vecpiebalgas Novads","name_adm2":"Vecpiebalgas Pagasts","name_en":"Veļķi"},"geometry":{"type":"Point","coordinates":[25.83333,57.06667]}},{"type":"feature","properties":{"country_en":"Latvia","name":"Vidsala","name_adm0":"Latvija","name_adm1":"Jŗkabpils Novads","name_adm2":"Kalna Pagasts","name_en":"Kalnaciems"},"geometry":{"type":"Point","coordinates":[25.8598,56.34307]}},{"type":"feature","properties":{"country_en":"Latvia","name":"Kauguri","name_adm0":"Latvija","name_adm1":"Beverina Novads","name_adm2":"Kauguru Pagasts","name_en":"Kauguri"},"geometry":{"type":"Point","coordinates":[25.45,57.5]}},{"type":"feature","properties":{"country_en":"Latvia","name":"Vārtāja","name_adm0":"Latvija","name_adm1":"Grobińas Novads","name_adm2":"Gaviezes Pagasts","name_en":"Vartaja"},"geometry":{"type":"Point","coordinates":[21.363429999999997,56.48927]}},{"type":"feature","properties":{"country_en":"Latvia","name":"Ziemera Pagasts","name_adm0":"Latvija","name_adm1":"Alžksne Novads","name_adm2":"Ziemera Pagasts","name_en":"Ziemera Pagasts"},"geometry":{"type":"Point","coordinates":[27.052524,57.42714]}},{"type":"feature","properties":{"country_en":"Latvia","name":"Pļavniekkalns","name_adm0":"Latvija","name_adm1":"Óekavas Novads","name_adm2":"Óekavas Pagasts","name_en":"Pļavniekkalns"},"geometry":{"type":"Point","coordinates":[24.18389,56.86916999999999]}},{"type":"feature","properties":{"country_en":"Latvia","name":"Vārpa","name_adm0":"Latvija","name_adm1":"Jelgavas Novads","name_adm2":"Lļvbŗrzes Pagasts","name_en":"Vārpa"},"geometry":{"type":"Point","coordinates":[23.66972,56.67889]}},{"type":"feature","properties":{"country_en":"Latvia","name":"Skujaine","name_adm0":"Latvija","name_adm1":"Dobele Novads","name_adm2":"Penkules Pagasts","name_en":"Skujaine"},"geometry":{"type":"Point","coordinates":[23.24139,56.45417]}},{"type":"feature","properties":{"country_en":"Latvia","name":"Alksnājciems","name_adm0":"Latvija","name_adm1":"Rojas Novads","name_adm2":"Mŗrsraga Pagasts","name_en":"Alksnajciems"},"geometry":{"type":"Point","coordinates":[23.03099,57.31358999999999]}},{"type":"feature","properties":{"country_en":"Latvia","name":"Skrunda","name_adm0":"Latvija","name_adm1":"Skrundas Novads","name_adm2":"Skrunda","name_en":"Skrunda"},"geometry":{"type":"Point","coordinates":[22.01667,56.68333]}},{"type":"feature","properties":{"country_en":"Latvia","name":"Talsi","name_adm0":"Latvija","name_adm1":"Talsi Novads","name_adm2":"Talsi","name_en":"Talsen"},"geometry":{"type":"Point","coordinates":[22.58137,57.24562]}},{"type":"feature","properties":{"country_en":"Latvia","name":"Saldus","name_adm0":"Latvija","name_adm1":"Saldus Novads","name_adm2":"Saldus","name_en":"Frauenburg"},"geometry":{"type":"Point","coordinates":[22.48807,56.66363]}},{"type":"feature","properties":{"country_en":"Latvia","name":"Salaspils","name_adm0":"Latvija","name_adm1":"Salaspils Novads","name_adm2":"Salaspils","name_en":"Kirchholm"},"geometry":{"type":"Point","coordinates":[24.36544,56.86014]}},{"type":"feature","properties":{"country_en":"Latvia","name":"Asari","name_adm0":"Latvija","name_adm1":"Jžrmala","name_adm2":"Jžrmala","name_en":"Assern"},"geometry":{"type":"Point","coordinates":[23.68778,56.95722]}},{"type":"feature","properties":{"country_en":"Latvia","name":"Amata","name_adm0":"Latvija","name_adm1":"Amatas Novads","name_adm2":"Drabesu Pagasts","name_en":"Amata"},"geometry":{"type":"Point","coordinates":[25.30544,57.20942999999999]}},{"type":"feature","properties":{"country_en":"Latvia","name":"Kalnciems","name_adm0":"Latvija","name_adm1":"Jelgavas Novads","name_adm2":"Kalnciems","name_en":"Kalnciems"},"geometry":{"type":"Point","coordinates":[23.60972,56.80111]}},{"type":"feature","properties":{"country_en":"Latvia","name":"Liepupe","name_adm0":"Latvija","name_adm1":"Salacgrļvas Novads","name_adm2":"Liepupes Pagasts","name_en":"Liepupe"},"geometry":{"type":"Point","coordinates":[24.467779999999998,57.46389]}},{"type":"feature","properties":{"country_en":"Latvia","name":"Antiņciems","name_adm0":"Latvija","name_adm1":"Engures Novads","name_adm2":"Lapmzciema Pagasts","name_en":"Antintsiems"},"geometry":{"type":"Point","coordinates":[23.45944,56.97694]}},{"type":"feature","properties":{"country_en":"Latvia","name":"Baltezers","name_adm0":"Latvija","name_adm1":"Ądazu Novads","name_adm2":"Ądazu Pagasts","name_en":"Baltezers"},"geometry":{"type":"Point","coordinates":[24.30639,57.04418999999999]}},{"type":"feature","properties":{"country_en":"Latvia","name":"Dubuļi","name_adm0":"Latvija","name_adm1":"Rŗzekne Novads","name_adm2":"Kaunatas Pagasts","name_en":"Dubuli"},"geometry":{"type":"Point","coordinates":[27.61259,56.25804]}},{"type":"feature","properties":{"country_en":"Latvia","name":"Dukeri","name_adm0":"Latvija","name_adm1":"Valmiera Novads","name_adm2":"Kocŗnu Pagasts","name_en":"Dukeri"},"geometry":{"type":"Point","coordinates":[25.3,57.55]}},{"type":"feature","properties":{"country_en":"Latvia","name":"Nākotne","name_adm0":"Latvija","name_adm1":"Jelgavas Novads","name_adm2":"Glždas Pagasts","name_en":"Nakotne"},"geometry":{"type":"Point","coordinates":[23.45389,56.61471999999999]}},{"type":"feature","properties":{"country_en":"Latvia","name":"Nurmiži","name_adm0":"Latvija","name_adm1":"Siguldas Novads","name_adm2":"Siguldas Pagasts","name_en":"Myza Nurmizhi"},"geometry":{"type":"Point","coordinates":[24.94833,57.20056]}},{"type":"feature","properties":{"country_en":"Latvia","name":"Ružina","name_adm0":"Latvija","name_adm1":"Rŗzekne Novads","name_adm2":"Silmalas Pagasts","name_en":"Ružina"},"geometry":{"type":"Point","coordinates":[27.08333,56.43333]}},{"type":"feature","properties":{"country_en":"Latvia","name":"Sesava","name_adm0":"Latvija","name_adm1":"Jelgavas Novads","name_adm2":"Sesavas Pagasts","name_en":"Sesava"},"geometry":{"type":"Point","coordinates":[23.81889,56.42556]}},{"type":"feature","properties":{"country_en":"Latvia","name":"Sidqunda","name_adm0":"Latvija","name_adm1":"Ogres Novads","name_adm2":"Suntazu Pagasts","name_en":"Sidqunda"},"geometry":{"type":"Point","coordinates":[24.9175,56.96167]}},{"type":"feature","properties":{"country_en":"Latvia","name":"Sīkrags","name_adm0":"Latvija","name_adm1":"Dundagas Novads","name_adm2":"Kolkas Pagasts","name_en":"Sikrag"},"geometry":{"type":"Point","coordinates":[22.2256,57.65973]}},{"type":"feature","properties":{"country_en":"Latvia","name":"Sikšņi","name_adm0":"Latvija","name_adm1":"Rucavas Novads","name_adm2":"Dunikas Pagasts","name_en":"Sikshni"},"geometry":{"type":"Point","coordinates":[21.25125,56.26400999999999]}},{"type":"feature","properties":{"country_en":"Latvia","name":"Cielavas","name_adm0":"Latvija","name_adm1":"Babļtes Novads","name_adm2":"Babļtes Pagasts","name_en":"Cielavas"},"geometry":{"type":"Point","coordinates":[23.80361,56.89444]}},{"type":"feature","properties":{"country_en":"Latvia","name":"Šķīsterciems","name_adm0":"Latvija","name_adm1":"Salacgrļvas Novads","name_adm2":"Salacgrļvas Lauku Teritorija","name_en":"Šķīsterciems"},"geometry":{"type":"Point","coordinates":[24.370559999999998,57.64861]}},{"type":"feature","properties":{"country_en":"Latvia","name":"Kalnares","name_adm0":"Latvija","name_adm1":"Burtnieku Novads","name_adm2":"Burtnieku Pagasts","name_en":"Kalnares"},"geometry":{"type":"Point","coordinates":[25.283488999999996,57.735018999999994]}},{"type":"feature","properties":{"country_en":"Latvia","name":"Priekule","name_adm0":"Latvija","name_adm1":"Priekules Novads","name_adm2":"Priekule","name_en":"Priekule"},"geometry":{"type":"Point","coordinates":[24.607499999999998,56.875461]}},{"type":"feature","properties":{"country_en":"Latvia","name":"Viaąnu Pagasts","name_adm0":"Latvija","name_adm1":"Viaąnu Novads","name_adm2":"Viaąnu Pagasts","name_en":"Viaąnu Pagasts"},"geometry":{"type":"Point","coordinates":[26.925600999999997,56.551014499999994]}},{"type":"feature","properties":{"country_en":"Latvia","name":"Oupes Pagasts","name_adm0":"Latvija","name_adm1":"Madona Novads","name_adm2":"Oupes Pagasts","name_en":"Oupes Pagasts"},"geometry":{"type":"Point","coordinates":[26.220331,56.855026]}},{"type":"feature","properties":{"country_en":"Latvia","name":"Daudzeses Pagasts","name_adm0":"Latvija","name_adm1":"Jaunjelgavas Novads","name_adm2":"Daudzeses Pagasts","name_en":"Daudzeses Pagasts"},"geometry":{"type":"Point","coordinates":[24.607499999999998,56.875461]}},{"type":"feature","properties":{"country_en":"Latvia","name":"Stąmerienas Pagasts","name_adm0":"Latvija","name_adm1":"Gulbene Novads","name_adm2":"Stąmerienas Pagasts","name_en":"Stąmerienas Pagasts"},"geometry":{"type":"Point","coordinates":[26.76218,57.16727999999999]}},{"type":"feature","properties":{"country_en":"Latvia","name":"Pžres Pagasts","name_adm0":"Latvija","name_adm1":"Tukums Novads","name_adm2":"Pžres Pagasts","name_en":"Pžres Pagasts"},"geometry":{"type":"Point","coordinates":[23.153729,56.965842]}},{"type":"feature","properties":{"country_en":"Latvia","name":"Rugąju Pagasts","name_adm0":"Latvija","name_adm1":"Rugąju Novads","name_adm2":"Rugąju Pagasts","name_en":"Rugąju Pagasts"},"geometry":{"type":"Point","coordinates":[24.607499999999998,56.875461]}},{"type":"feature","properties":{"country_en":"Latvia","name":"Valmiera","name_adm0":"Latvija","name_adm1":"Valmiera","name_en":"Valmiera"},"geometry":{"type":"Point","coordinates":[25.424937999999997,57.539756]}},{"type":"feature","properties":{"country_en":"Latvia","name":"Talsi","name_adm0":"Latvija","name_adm1":"Talsi Novads","name_adm2":"Talsi","name_en":"Talsi"},"geometry":{"type":"Point","coordinates":[22.578277,57.246365]}},{"type":"feature","properties":{"country_en":"Latvia","name":"Skultes Pagasts","name_adm0":"Latvija","name_adm1":"Limbazi Novads","name_adm2":"Skultes Pagasts","name_en":"Skultes Pagasts"},"geometry":{"type":"Point","coordinates":[24.5353025,57.3636865]}},{"type":"feature","properties":{"country_en":"Latvia","name":"Sarkańu Pagasts","name_adm0":"Latvija","name_adm1":"Madona Novads","name_adm2":"Sarkańu Pagasts","name_en":"Sarkańu Pagasts"},"geometry":{"type":"Point","coordinates":[26.220331,56.855026]}},{"type":"feature","properties":{"country_en":"Latvia","name":"Salas Pagasts","name_adm0":"Latvija","name_adm1":"Salas Novads","name_adm2":"Salas Pagasts","name_en":"Salas Pagasts"},"geometry":{"type":"Point","coordinates":[24.607499999999998,56.875461]}},{"type":"feature","properties":{"country_en":"Latvia","name":"Audrińu Pagasts","name_adm0":"Latvija","name_adm1":"Rŗzekne Novads","name_adm2":"Audrińu Pagasts","name_en":"Audrińu Pagasts"},"geometry":{"type":"Point","coordinates":[27.42696,56.289142999999996]}},{"type":"feature","properties":{"country_en":"Latvia","name":"Baldones Lauku Teritorija","name_adm0":"Latvija","name_adm1":"Baldones Novads","name_adm2":"Baldones Lauku Teritorija","name_en":"Baldones Lauku Teritorija"},"geometry":{"type":"Point","coordinates":[24.386901,56.775256]}},{"type":"feature","properties":{"country_en":"Latvia","name":"Indras Pagasts","name_adm0":"Latvija","name_adm1":"Krąslava Novads","name_adm2":"Indras Pagasts","name_en":"Indras Pagasts"},"geometry":{"type":"Point","coordinates":[27.169799999999995,55.8951]}},{"type":"feature","properties":{"country_en":"Latvia","name":"Robznieku Pagasts","name_adm0":"Latvija","name_adm1":"Krąslava Novads","name_adm2":"Robznieku Pagasts","name_en":"Robznieku Pagasts"},"geometry":{"type":"Point","coordinates":[27.169799999999995,55.8951]}},{"type":"feature","properties":{"country_en":"Latvia","name":"Dricąnu Pagasts","name_adm0":"Latvija","name_adm1":"Rŗzekne Novads","name_adm2":"Dricąnu Pagasts","name_en":"Dricąnu Pagasts"},"geometry":{"type":"Point","coordinates":[27.42696,56.289142999999996]}},{"type":"feature","properties":{"country_en":"Latvia","name":"Ŗrgau Pagasts","name_adm0":"Latvija","name_adm1":"Ŗrgau Novads","name_adm2":"Ŗrgau Pagasts","name_en":"Ŗrgau Pagasts"},"geometry":{"type":"Point","coordinates":[25.63698,56.900848]}},{"type":"feature","properties":{"country_en":"Latvia","name":"Viaąni","name_adm0":"Latvija","name_adm1":"Viaąnu Novads","name_adm2":"Viaąni","name_en":"Viaąni"},"geometry":{"type":"Point","coordinates":[26.925600999999997,56.551014499999994]}},{"type":"feature","properties":{"country_en":"Latvia","name":"Vaives Pagasts","name_adm0":"Latvija","name_adm1":"Cŗsis Novads","name_adm2":"Vaives Pagasts","name_en":"Vaives Pagasts"},"geometry":{"type":"Point","coordinates":[25.274219,57.31308099999999]}},{"type":"feature","properties":{"country_en":"Latvia","name":"Smiltene","name_adm0":"Latvija","name_adm1":"Smiltene Novads","name_adm2":"Smiltene","name_en":"Smiltene"},"geometry":{"type":"Point","coordinates":[24.607499999999998,56.875461]}},{"type":"feature","properties":{"country_en":"Latvia","name":"Krąslava Novads","name_adm0":"Latvija","name_adm1":"Krąslava Novads","name_en":"Krąslava Novads"},"geometry":{"type":"Point","coordinates":[27.169799999999995,55.8951]}},{"type":"feature","properties":{"country_en":"Latvia","name":"Penkules Pagasts","name_adm0":"Latvija","name_adm1":"Dobele Novads","name_adm2":"Penkules Pagasts","name_en":"Penkules Pagasts"},"geometry":{"type":"Point","coordinates":[23.27672,56.625005]}},{"type":"feature","properties":{"country_en":"Latvia","name":"Ziru Pagasts","name_adm0":"Latvija","name_adm1":"Ventspils Novads","name_adm2":"Ziru Pagasts","name_en":"Ziru Pagasts"},"geometry":{"type":"Point","coordinates":[21.378364,57.00606499999999]}},{"type":"feature","properties":{"country_en":"Latvia","name":"Lielirbe","name_adm0":"Latvija","name_adm1":"Ventspils Novads","name_adm2":"Tąrgales Pagasts","name_en":"Liyelirbe"},"geometry":{"type":"Point","coordinates":[22.10672,57.61966999999999]}},{"type":"feature","properties":{"country_en":"Latvia","name":"Skulte","name_adm0":"Latvija","name_adm1":"Mąrupes Novads","name_adm2":"Mąrupes Pagasts","name_en":"Skulte"},"geometry":{"type":"Point","coordinates":[23.95333,56.91944]}},{"type":"feature","properties":{"country_en":"Latvia","name":"Snēpele","name_adm0":"Latvija","name_adm1":"Kuldļga Novads","name_adm2":"Snŗpeles Pagasts","name_en":"Myza Snepele"},"geometry":{"type":"Point","coordinates":[21.95,56.83333]}},{"type":"feature","properties":{"country_en":"Latvia","name":"Sokoli","name_adm0":"Latvija","name_adm1":"Viaąnu Novads","name_adm2":"Sokolku Pagasts","name_en":"Sokolki"},"geometry":{"type":"Point","coordinates":[26.988769999999995,56.51869]}},{"type":"feature","properties":{"country_en":"Latvia","name":"Vandzene","name_adm0":"Latvija","name_adm1":"Talsi Novads","name_adm2":"Vandzenes Pagasts","name_en":"Vandzene"},"geometry":{"type":"Point","coordinates":[22.77431,57.30947]}},{"type":"feature","properties":{"country_en":"Latvia","name":"Dzirciems","name_adm0":"Latvija","name_adm1":"Rļga","name_adm2":"Rļga","name_en":"Dzirciems"},"geometry":{"type":"Point","coordinates":[23.25972,56.98417]}},{"type":"feature","properties":{"country_en":"Latvia","name":"Rembates Pagasts","name_adm0":"Latvija","name_adm1":"Óeguma Novads","name_adm2":"Rembates Pagasts","name_en":"Rembates Pagasts"},"geometry":{"type":"Point","coordinates":[24.733635999999997,56.74095]}},{"type":"feature","properties":{"country_en":"Latvia","name":"Turku Pagasts","name_adm0":"Latvija","name_adm1":"Lļvąnu Novads","name_adm2":"Turku Pagasts","name_en":"Turku Pagasts"},"geometry":{"type":"Point","coordinates":[26.196899,56.356120999999995]}},{"type":"feature","properties":{"country_en":"Latvia","name":"Zalesjes Pagasts","name_adm0":"Latvija","name_adm1":"Zilupes Novads","name_adm2":"Zalesjes Pagasts","name_en":"Zalesjes Pagasts"},"geometry":{"type":"Point","coordinates":[24.607499999999998,56.875461]}},{"type":"feature","properties":{"country_en":"Latvia","name":"Rozkalnu Pagasts","name_adm0":"Latvija","name_adm1":"Vąrkavas Novads","name_adm2":"Rozkalnu Pagasts","name_en":"Rozkalnu Pagasts"},"geometry":{"type":"Point","coordinates":[24.607499999999998,56.875461]}},{"type":"feature","properties":{"country_en":"Latvia","name":"Naukŗnu Novads","name_adm0":"Latvija","name_adm1":"Naukŗnu Novads","name_en":"Naukŗnu Novads"},"geometry":{"type":"Point","coordinates":[25.468825999999996,57.8842765]}},{"type":"feature","properties":{"country_en":"Latvia","name":"Dobele Novads","name_adm0":"Latvija","name_adm1":"Dobele Novads","name_en":"Dobele Novads"},"geometry":{"type":"Point","coordinates":[23.27672,56.625005]}},{"type":"feature","properties":{"country_en":"Latvia","name":"Mežciems","name_adm0":"Latvija","name_adm1":"Salacgrļvas Novads","name_adm2":"Liepupes Pagasts","name_en":"Mežciems"},"geometry":{"type":"Point","coordinates":[24.51972,57.519169999999995]}},{"type":"feature","properties":{"country_en":"Latvia","name":"More","name_adm0":"Latvija","name_adm1":"Siguldas Novads","name_adm2":"Mores Pagasts","name_en":"Myza More"},"geometry":{"type":"Point","coordinates":[25.1,57.08333]}},{"type":"feature","properties":{"country_en":"Latvia","name":"Sigulda","name_adm0":"Latvija","name_adm1":"Siguldas Novads","name_adm2":"Sigulda","name_en":"Segewold"},"geometry":{"type":"Point","coordinates":[24.86472,57.151939999999996]}},{"type":"feature","properties":{"country_en":"Latvia","name":"Saulkrasti","name_adm0":"Latvija","name_adm1":"Saulkrastu Novads","name_adm2":"Saulkrasti","name_en":"Neibade"},"geometry":{"type":"Point","coordinates":[24.414709999999996,57.26224]}},{"type":"feature","properties":{"country_en":"Latvia","name":"Majori","name_adm0":"Latvija","name_adm1":"Babļtes Novads","name_adm2":"Salas Pagasts","name_en":"Mayori"},"geometry":{"type":"Point","coordinates":[23.80389,56.97389]}},{"type":"feature","properties":{"country_en":"Latvia","name":"Krimuldas Pagasts","name_adm0":"Latvija","name_adm1":"Krimuldas Novads","name_adm2":"Krimuldas Pagasts","name_en":"Krimuldas Pagasts"},"geometry":{"type":"Point","coordinates":[24.848327,57.166035]}},{"type":"feature","properties":{"country_en":"Latvia","name":"Čonkas","name_adm0":"Latvija","name_adm1":"Alžksne Novads","name_adm2":"Ilzenes Pagasts","name_en":"Čonkas"},"geometry":{"type":"Point","coordinates":[26.65472,57.375969999999995]}},{"type":"feature","properties":{"country_en":"Latvia","name":"Dambergi","name_adm0":"Latvija","name_adm1":"Balvi Novads","name_adm2":"Brizuciema Pagasts","name_en":"Dambergi"},"geometry":{"type":"Point","coordinates":[27.5,56.95]}},{"type":"feature","properties":{"country_en":"Latvia","name":"Dīlmaņi","name_adm0":"Latvija","name_adm1":"Viaąnu Novads","name_adm2":"Sokolku Pagasts","name_en":"Dilmani"},"geometry":{"type":"Point","coordinates":[27.00096,56.464859999999994]}},{"type":"feature","properties":{"country_en":"Latvia","name":"Dižsēņi","name_adm0":"Latvija","name_adm1":"Talsi Novads","name_adm2":"Balgales Pagasts","name_en":"Dižsēņi"},"geometry":{"type":"Point","coordinates":[22.866669999999996,57.21666999999999]}},{"type":"feature","properties":{"country_en":"Latvia","name":"Dūre","name_adm0":"Latvija","name_adm1":"Burtnieku Novads","name_adm2":"Burtnieku Pagasts","name_en":"Dūre"},"geometry":{"type":"Point","coordinates":[25.301509999999997,57.72909]}},{"type":"feature","properties":{"country_en":"Latvia","name":"Garoza","name_adm0":"Latvija","name_adm1":"Ozolnieku Novads","name_adm2":"Sidrabenes Pagasts","name_en":"Garoza"},"geometry":{"type":"Point","coordinates":[23.94194,56.62693999999999]}},{"type":"feature","properties":{"country_en":"Latvia","name":"Laidze","name_adm0":"Latvija","name_adm1":"Ventspils Novads","name_adm2":"Zlŗku Pagasts","name_en":"Laidzesciems"},"geometry":{"type":"Point","coordinates":[21.86667,57.166669999999996]}},{"type":"feature","properties":{"country_en":"Latvia","name":"Laizani","name_adm0":"Latvija","name_adm1":"Rŗzekne Novads","name_adm2":"Sakstagala Pagasts","name_en":"Laizany"},"geometry":{"type":"Point","coordinates":[27.06585,56.52616999999999]}},{"type":"feature","properties":{"country_en":"Latvia","name":"Pienava","name_adm0":"Latvija","name_adm1":"Tukums Novads","name_adm2":"Dzžkstes Pagasts","name_en":"Myza Pienivas"},"geometry":{"type":"Point","coordinates":[23.25194,56.74139]}},{"type":"feature","properties":{"country_en":"Latvia","name":"Rude","name_adm0":"Latvija","name_adm1":"Rojas Novads","name_adm2":"Rojas Pagasts","name_en":"Ruda"},"geometry":{"type":"Point","coordinates":[22.71775,57.48837999999999]}},{"type":"feature","properties":{"country_en":"Latvia","name":"Vecumnieku Pagasts","name_adm0":"Latvija","name_adm1":"Vecumnieku Novads","name_adm2":"Vecumnieku Pagasts","name_en":"Vecumnieku Pagasts"},"geometry":{"type":"Point","coordinates":[24.510497999999995,56.581422]}},{"type":"feature","properties":{"country_en":"Latvia","name":"Līči","name_adm0":"Latvija","name_adm1":"Stopińu Novads","name_adm2":"Stopinu Pagasts","name_en":"Līči"},"geometry":{"type":"Point","coordinates":[23.76611,56.69083]}},{"type":"feature","properties":{"country_en":"Latvia","name":"Melbārži","name_adm0":"Latvija","name_adm1":"Salacgrļvas Novads","name_adm2":"Liepupes Pagasts","name_en":"Melband"},"geometry":{"type":"Point","coordinates":[24.46556,57.543609999999994]}},{"type":"feature","properties":{"country_en":"Latvia","name":"Viļāni","name_adm0":"Latvija","name_adm1":"Viaąnu Novads","name_adm2":"Viaąni","name_en":"Viļāni"},"geometry":{"type":"Point","coordinates":[26.92449,56.55253]}},{"type":"feature","properties":{"country_en":"Latvia","name":"Lļgatnes Pagasts","name_adm0":"Latvija","name_adm1":"Lļgatnes Novads","name_adm2":"Lļgatnes Pagasts","name_en":"Lļgatnes Pagasts"},"geometry":{"type":"Point","coordinates":[25.049729,57.190191999999996]}},{"type":"feature","properties":{"country_en":"Latvia","name":"Ikóile","name_adm0":"Latvija","name_adm1":"Ikóiles Novads","name_adm2":"Ikóile","name_en":"Ikóile"},"geometry":{"type":"Point","coordinates":[24.493975,56.834947]}},{"type":"feature","properties":{"country_en":"Latvia","name":"Lŗdurgas Pagasts","name_adm0":"Latvija","name_adm1":"Krimuldas Novads","name_adm2":"Lŗdurgas Pagasts","name_en":"Lŗdurgas Pagasts"},"geometry":{"type":"Point","coordinates":[24.847984,57.185413]}},{"type":"feature","properties":{"country_en":"Latvia","name":"Aloja","name_adm0":"Latvija","name_adm1":"Alojas Novads","name_adm2":"Aloja","name_en":"Aloja"},"geometry":{"type":"Point","coordinates":[24.607499999999998,56.875461]}},{"type":"feature","properties":{"country_en":"Latvia","name":"Sesavas Pagasts","name_adm0":"Latvija","name_adm1":"Jelgavas Novads","name_adm2":"Sesavas Pagasts","name_en":"Sesavas Pagasts"},"geometry":{"type":"Point","coordinates":[23.6783305,56.733393]}},{"type":"feature","properties":{"country_en":"Latvia","name":"Ogres Novads","name_adm0":"Latvija","name_adm1":"Ogres Novads","name_en":"Ogres Novads"},"geometry":{"type":"Point","coordinates":[24.5989945,56.817511]}},{"type":"feature","properties":{"country_en":"Latvia","name":"Sabile","name_adm0":"Latvija","name_adm1":"Talsi Novads","name_adm2":"Sabile","name_en":"Sabile"},"geometry":{"type":"Point","coordinates":[22.561283,57.04726599999999]}},{"type":"feature","properties":{"country_en":"Latvia","name":"Vandzenes Pagasts","name_adm0":"Latvija","name_adm1":"Talsi Novads","name_adm2":"Vandzenes Pagasts","name_en":"Vandzenes Pagasts"},"geometry":{"type":"Point","coordinates":[22.569179,57.048889]}},{"type":"feature","properties":{"country_en":"Latvia","name":"Allazu Pagasts","name_adm0":"Latvija","name_adm1":"Siguldas Novads","name_adm2":"Allazu Pagasts","name_en":"Allazu Pagasts"},"geometry":{"type":"Point","coordinates":[24.938964,57.183157]}},{"type":"feature","properties":{"country_en":"Latvia","name":"Óeguma Novads","name_adm0":"Latvija","name_adm1":"Óeguma Novads","name_en":"Óeguma Novads"},"geometry":{"type":"Point","coordinates":[24.733635999999997,56.74095]}},{"type":"feature","properties":{"country_en":"Latvia","name":"Limbazi","name_adm0":"Latvija","name_adm1":"Limbazi Novads","name_adm2":"Limbazi","name_en":"Limbazi"},"geometry":{"type":"Point","coordinates":[24.714699,57.51468100000001]}},{"type":"feature","properties":{"country_en":"Latvia","name":"Birzgales Pagasts","name_adm0":"Latvija","name_adm1":"Óeguma Novads","name_adm2":"Birzgales Pagasts","name_en":"Birzgales Pagasts"},"geometry":{"type":"Point","coordinates":[24.733635999999997,56.74095]}},{"type":"feature","properties":{"country_en":"Latvia","name":"Dekąres Pagasts","name_adm0":"Latvija","name_adm1":"Viaąnu Novads","name_adm2":"Dekąres Pagasts","name_en":"Dekąres Pagasts"},"geometry":{"type":"Point","coordinates":[26.925600999999997,56.551014499999994]}},{"type":"feature","properties":{"country_en":"Latvia","name":"Vąnes Pagasts","name_adm0":"Latvija","name_adm1":"Kandavas Novads","name_adm2":"Vąnes Pagasts","name_en":"Vąnes Pagasts"},"geometry":{"type":"Point","coordinates":[22.818602999999996,57.095976]}},{"type":"feature","properties":{"country_en":"Latvia","name":"Rozupes Pagasts","name_adm0":"Latvija","name_adm1":"Lļvąnu Novads","name_adm2":"Rozupes Pagasts","name_en":"Rozupes Pagasts"},"geometry":{"type":"Point","coordinates":[26.196899,56.356120999999995]}},{"type":"feature","properties":{"country_en":"Latvia","name":"Sigulda","name_adm0":"Latvija","name_adm1":"Siguldas Novads","name_adm2":"Sigulda","name_en":"Sigulda"},"geometry":{"type":"Point","coordinates":[24.8509665,57.162405]}},{"type":"feature","properties":{"country_en":"Latvia","name":"Pavilosta","name_adm0":"Latvija","name_adm1":"Pavilosta Novads","name_adm2":"Pavilosta","name_en":"Pavilosta"},"geometry":{"type":"Point","coordinates":[21.18061,56.888846]}},{"type":"feature","properties":{"country_en":"Latvia","name":"Drabesu Pagasts","name_adm0":"Latvija","name_adm1":"Amatas Novads","name_adm2":"Drabesu Pagasts","name_en":"Drabesu Pagasts"},"geometry":{"type":"Point","coordinates":[25.2207605,57.29826799999999]}},{"type":"feature","properties":{"country_en":"Latvia","name":"Upmalas Pagasts","name_adm0":"Latvija","name_adm1":"Vąrkavas Novads","name_adm2":"Upmalas Pagasts","name_en":"Upmalas Pagasts"},"geometry":{"type":"Point","coordinates":[24.607499999999998,56.875461]}},{"type":"feature","properties":{"country_en":"Latvia","name":"Stabulnieku Pagasts","name_adm0":"Latvija","name_adm1":"Riebińu Novads","name_adm2":"Stabulnieku Pagasts","name_en":"Stabulnieku Pagasts"},"geometry":{"type":"Point","coordinates":[24.607499999999998,56.875461]}},{"type":"feature","properties":{"country_en":"Latvia","name":"Salaspils","name_adm0":"Latvija","name_adm1":"Salaspils Novads","name_adm2":"Salaspils","name_en":"Salaspils"},"geometry":{"type":"Point","coordinates":[24.360636999999997,56.86314399999999]}},{"type":"feature","properties":{"country_en":"Latvia","name":"Rusonas Pagasts","name_adm0":"Latvija","name_adm1":"Riebińu Novads","name_adm2":"Rusonas Pagasts","name_en":"Rusonas Pagasts"},"geometry":{"type":"Point","coordinates":[24.607499999999998,56.875461]}},{"type":"feature","properties":{"country_en":"Latvia","name":"Ozolnieku Pagasts","name_adm0":"Latvija","name_adm1":"Ozolnieku Novads","name_adm2":"Ozolnieku Pagasts","name_en":"Ozolnieku Pagasts"},"geometry":{"type":"Point","coordinates":[23.767118,56.693407]}},{"type":"feature","properties":{"country_en":"Latvia","name":"Mąrupes Novads","name_adm0":"Latvija","name_adm1":"Mąrupes Novads","name_en":"Mąrupes Novads"},"geometry":{"type":"Point","coordinates":[23.979902,56.923502]}},{"type":"feature","properties":{"country_en":"Latvia","name":"Nļcas Novads","name_adm0":"Latvija","name_adm1":"Nļcas Novads","name_en":"Nļcas Novads"},"geometry":{"type":"Point","coordinates":[20.992126,56.299777]}},{"type":"feature","properties":{"country_en":"Latvia","name":"Lļgatnes Novads","name_adm0":"Latvija","name_adm1":"Lļgatnes Novads","name_en":"Lļgatnes Novads"},"geometry":{"type":"Point","coordinates":[25.049729,57.19032]}},{"type":"feature","properties":{"country_en":"Latvia","name":"Jaundubulti","name_adm0":"Latvija","name_adm1":"Jžrmala","name_adm2":"Jžrmala","name_en":"Yaundubulty"},"geometry":{"type":"Point","coordinates":[23.75,56.96472]}},{"type":"feature","properties":{"country_en":"Latvia","name":"Kalngale","name_adm0":"Latvija","name_adm1":"Carnikavas Novads","name_adm2":"Carnikavas Pagasts","name_en":"Kalngalciems"},"geometry":{"type":"Point","coordinates":[24.15917,57.08111]}},{"type":"feature","properties":{"country_en":"Latvia","name":"Milzkalne","name_adm0":"Latvija","name_adm1":"Engures Novads","name_adm2":"Smąrdes Pagasts","name_en":"Milzkalnskiy"},"geometry":{"type":"Point","coordinates":[23.22556,56.977779999999996]}},{"type":"feature","properties":{"country_en":"Latvia","name":"Ulmale","name_adm0":"Latvija","name_adm1":"Pavilosta Novads","name_adm2":"Sakas Novads","name_en":"Myza Ulmale"},"geometry":{"type":"Point","coordinates":[21.2756,56.93546]}},{"type":"feature","properties":{"country_en":"Latvia","name":"Ądazu Novads","name_adm0":"Latvija","name_adm1":"Ądazu Novads","name_en":"Ądazu Novads"},"geometry":{"type":"Point","coordinates":[24.328879999999998,57.077134]}},{"type":"feature","properties":{"country_en":"Latvia","name":"Kuldļga Novads","name_adm0":"Latvija","name_adm1":"Kuldļga Novads","name_en":"Kuldļga Novads"},"geometry":{"type":"Point","coordinates":[21.977688,56.970123]}},{"type":"feature","properties":{"country_en":"Latvia","name":"Ventspils Novads","name_adm0":"Latvija","name_adm1":"Ventspils Novads","name_en":"Ventspils Novads"},"geometry":{"type":"Point","coordinates":[21.378364,57.00606499999999]}},{"type":"feature","properties":{"country_en":"Latvia","name":"Valmiera Novads","name_adm0":"Latvija","name_adm1":"Valmiera Novads","name_en":"Valmiera Novads"},"geometry":{"type":"Point","coordinates":[25.389274,57.52988400000001]}},{"type":"feature","properties":{"country_en":"Latvia","name":"Aijaži","name_adm0":"Latvija","name_adm1":"Krimuldas Novads","name_adm2":"Lŗdurgas Pagasts","name_en":"Aijaži"},"geometry":{"type":"Point","coordinates":[24.74389,57.38166999999999]}},{"type":"feature","properties":{"country_en":"Latvia","name":"Tąrgales Pagasts","name_adm0":"Latvija","name_adm1":"Ventspils Novads","name_adm2":"Tąrgales Pagasts","name_en":"Tąrgales Pagasts"},"geometry":{"type":"Point","coordinates":[22.061603,57.647647]}},{"type":"feature","properties":{"country_en":"Latvia","name":"Dravnieki","name_adm0":"Latvija","name_adm1":"Ozolnieku Novads","name_adm2":"Jaunsvirlaukas Pagasts","name_en":"Dravnieki"},"geometry":{"type":"Point","coordinates":[23.86556,56.62]}},{"type":"feature","properties":{"country_en":"Latvia","name":"Bitēni","name_adm0":"Latvija","name_adm1":"Ozolnieku Novads","name_adm2":"Jaunsvirlaukas Pagasts","name_en":"Bitēni"},"geometry":{"type":"Point","coordinates":[23.85167,56.55583]}},{"type":"feature","properties":{"country_en":"Latvia","name":"Īslīcas","name_adm0":"Latvija","name_adm1":"Ozolnieku Novads","name_adm2":"Jaunsvirlaukas Pagasts","name_en":"Islicas"},"geometry":{"type":"Point","coordinates":[23.97676,56.51938]}},{"type":"feature","properties":{"country_en":"Latvia","name":"Birzes","name_adm0":"Latvija","name_adm1":"Bauskas Novads","name_adm2":"Dąvińu Pagasts","name_en":"Birzes"},"geometry":{"type":"Point","coordinates":[24.34667,56.48278]}},{"type":"feature","properties":{"country_en":"Latvia","name":"Bērzmuiža","name_adm0":"Latvija","name_adm1":"Bauskas Novads","name_adm2":"Mzotnes Pagasts","name_en":"Bērzmuiža"},"geometry":{"type":"Point","coordinates":[24.12417,56.49417]}},{"type":"feature","properties":{"country_en":"Latvia","name":"Lāčplēsis","name_adm0":"Latvija","name_adm1":"Óeguma Novads","name_adm2":"Birzgales Pagasts","name_en":"Lāčplēsis"},"geometry":{"type":"Point","coordinates":[24.797779999999996,56.57583]}},{"type":"feature","properties":{"country_en":"Latvia","name":"Alodzene","name_adm0":"Latvija","name_adm1":"Alžksne Novads","name_adm2":"Mąlupes Pagasts","name_en":"Alodzene"},"geometry":{"type":"Point","coordinates":[27.33333,57.316669999999995]}},{"type":"feature","properties":{"country_en":"Latvia","name":"Matisene","name_adm0":"Latvija","name_adm1":"Alžksne Novads","name_adm2":"Jaunalžksnes Pagasts","name_en":"Matisene"},"geometry":{"type":"Point","coordinates":[27.21667,57.400000000000006]}},{"type":"feature","properties":{"country_en":"Latvia","name":"Kaėumciems","name_adm0":"Latvija","name_adm1":"Valkas Novads","name_adm2":"Zvąrtavas Pagasts","name_en":"Kaėumciems"},"geometry":{"type":"Point","coordinates":[25.14256,57.33699]}},{"type":"feature","properties":{"country_en":"Latvia","name":"Prīdnīki","name_adm0":"Latvija","name_adm1":"Daugavpils","name_adm2":"Vaboles Pagasts","name_en":"Prīdnīki"},"geometry":{"type":"Point","coordinates":[27.083299999999998,55.1679]}},{"type":"feature","properties":{"country_en":"Latvia","name":"Mirnijs","name_adm0":"Latvija","name_adm1":"Daugavpils","name_adm2":"Laucesas Pagasts","name_en":"Mirnijs"},"geometry":{"type":"Point","coordinates":[26.599999999999998,55.83332999999999]}},{"type":"feature","properties":{"country_en":"Latvia","name":"Lizums","name_adm0":"Latvija","name_adm1":"Gulbene Novads","name_adm2":"Lizuma Pagasts","name_en":"Lizums"},"geometry":{"type":"Point","coordinates":[26.36976,57.190369999999994]}},{"type":"feature","properties":{"country_en":"Latvia","name":"Skujenieki","name_adm0":"Latvija","name_adm1":"Gulbene Novads","name_adm2":"Litenes Pagasts","name_en":"Skujenieki"},"geometry":{"type":"Point","coordinates":[27.18333,56.91667]}},{"type":"feature","properties":{"country_en":"Latvia","name":"Muižkalni","name_adm0":"Latvija","name_adm1":"Limbazi Novads","name_adm2":"Limbazu Pagasts","name_en":"Muižkalni"},"geometry":{"type":"Point","coordinates":[24.823059999999998,57.46306]}},{"type":"feature","properties":{"country_en":"Latvia","name":"Būdele","name_adm0":"Latvija","name_adm1":"Limbazi Novads","name_adm2":"Pąles Pagasts","name_en":"Būdele"},"geometry":{"type":"Point","coordinates":[24.73556,57.71583]}},{"type":"feature","properties":{"country_en":"Latvia","name":"Vorkaļi","name_adm0":"Latvija","name_adm1":"Ludza Novads","name_adm2":"Pildas Pagasts","name_en":"Vorkaļi"},"geometry":{"type":"Point","coordinates":[27.866669999999996,56.48333]}},{"type":"feature","properties":{"country_en":"Latvia","name":"Piļcine","name_adm0":"Latvija","name_adm1":"Rŗzekne Novads","name_adm2":"Dricąnu Pagasts","name_en":"Piļcine"},"geometry":{"type":"Point","coordinates":[27.266669999999998,56.66667]}},{"type":"feature","properties":{"country_en":"Latvia","name":"Gāršmuiža","name_adm0":"Latvija","name_adm1":"Sŗjas Novads","name_adm2":"Sŗjas Pagasts","name_en":"Gāršmuiža"},"geometry":{"type":"Point","coordinates":[24.49028,57.28639]}},{"type":"feature","properties":{"country_en":"Latvia","name":"Glždas Pagasts","name_adm0":"Latvija","name_adm1":"Jelgavas Novads","name_adm2":"Glždas Pagasts","name_en":"Glždas Pagasts"},"geometry":{"type":"Point","coordinates":[23.6783305,56.733393]}},{"type":"feature","properties":{"country_en":"Latvia","name":"Vŗrgales Pagasts","name_adm0":"Latvija","name_adm1":"Pavilosta Novads","name_adm2":"Vŗrgales Pagasts","name_en":"Vŗrgales Pagasts"},"geometry":{"type":"Point","coordinates":[21.18061,56.888846]}},{"type":"feature","properties":{"country_en":"Latvia","name":"Alojas Lauku Teritorija","name_adm0":"Latvija","name_adm1":"Alojas Novads","name_adm2":"Alojas Lauku Teritorija","name_en":"Alojas Lauku Teritorija"},"geometry":{"type":"Point","coordinates":[24.607499999999998,56.875461]}},{"type":"feature","properties":{"country_en":"Latvia","name":"Aronas Pagasts","name_adm0":"Latvija","name_adm1":"Madona Novads","name_adm2":"Aronas Pagasts","name_en":"Aronas Pagasts"},"geometry":{"type":"Point","coordinates":[26.220331,56.855026]}},{"type":"feature","properties":{"country_en":"Latvia","name":"Virbu Pagasts","name_adm0":"Latvija","name_adm1":"Talsi Novads","name_adm2":"Virbu Pagasts","name_en":"Virbu Pagasts"},"geometry":{"type":"Point","coordinates":[22.569179,57.048889]}},{"type":"feature","properties":{"country_en":"Latvia","name":"Limbaži","name_adm0":"Latvija","name_adm1":"Limbazi Novads","name_adm2":"Limbazi","name_en":"Lemsal"},"geometry":{"type":"Point","coordinates":[24.71941,57.51287]}},{"type":"feature","properties":{"country_en":"Latvia","name":"Ķegums","name_adm0":"Latvija","name_adm1":"Óeguma Novads","name_adm2":"Kegums","name_en":"Kegums"},"geometry":{"type":"Point","coordinates":[24.724389999999996,56.7451]}},{"type":"feature","properties":{"country_en":"Latvia","name":"Kaiguciems","name_adm0":"Latvija","name_adm1":"Jelgavas Novads","name_adm2":"Valgundes Pagasts","name_en":"Kaiguciems"},"geometry":{"type":"Point","coordinates":[23.57278,56.793609999999994]}},{"type":"feature","properties":{"country_en":"Latvia","name":"Straume","name_adm0":"Latvija","name_adm1":"Jelgavas Novads","name_adm2":"Glždas Pagasts","name_en":"Straume"},"geometry":{"type":"Point","coordinates":[23.598609999999997,56.62806]}},{"type":"feature","properties":{"country_en":"Latvia","name":"Beltes","name_adm0":"Latvija","name_adm1":"Kuldļga Novads","name_adm2":"Rumbas Pagasts","name_en":"Beltes"},"geometry":{"type":"Point","coordinates":[21.483329999999995,57.23333]}},{"type":"feature","properties":{"country_en":"Latvia","name":"Zalaji","name_adm0":"Latvija","name_adm1":"Apes Novads","name_adm2":"Apes Lauku Teritorija","name_en":"Zalaji"},"geometry":{"type":"Point","coordinates":[25.38333,56.41667]}},{"type":"feature","properties":{"country_en":"Latvia","name":"Gaili","name_adm0":"Latvija","name_adm1":"Talsi Novads","name_adm2":"Aibuau Pagasts","name_en":"Gaili"},"geometry":{"type":"Point","coordinates":[23.12917,56.94471999999999]}},{"type":"feature","properties":{"country_en":"Latvia","name":"Augstasala","name_adm0":"Latvija","name_adm1":"Alžksne Novads","name_adm2":"Jaunannas Pagasts","name_en":"Augstasala"},"geometry":{"type":"Point","coordinates":[27.58333,57.01667]}},{"type":"feature","properties":{"country_en":"Latvia","name":"Smilgas","name_adm0":"Latvija","name_adm1":"Daugavpils","name_adm2":"Kalkžnes Pagasts","name_en":"Smilgas"},"geometry":{"type":"Point","coordinates":[26.5,56.65]}},{"type":"feature","properties":{"country_en":"Latvia","name":"Rieksati","name_adm0":"Latvija","name_adm1":"Kuldļga Novads","name_adm2":"Pelču Pagasts","name_en":"Rieksati"},"geometry":{"type":"Point","coordinates":[22.85,56.8]}},{"type":"feature","properties":{"country_en":"Latvia","name":"Berjozovka","name_adm0":"Latvija","name_adm1":"Ludza Novads","name_adm2":"Briau Pagasts","name_en":"Berjozovka"},"geometry":{"type":"Point","coordinates":[27.91667,56.61666999999999]}},{"type":"feature","properties":{"country_en":"Latvia","name":"Vāle","name_adm0":"Latvija","name_adm1":"Beverina Novads","name_adm2":"Trikątas Pagasts","name_en":"Vale"},"geometry":{"type":"Point","coordinates":[24.73512,56.5105]}},{"type":"feature","properties":{"country_en":"Latvia","name":"Ropazu Novads","name_adm0":"Latvija","name_adm1":"Ropazu Novads","name_en":"Ropazu Novads"},"geometry":{"type":"Point","coordinates":[24.59639,56.96638999999999]}},{"type":"feature","properties":{"country_en":"Latvia","name":"Ceplisi","name_adm0":"Latvija","name_adm1":"Ventspils Novads","name_adm2":"Ziru Pagasts","name_en":"Ceplisi"},"geometry":{"type":"Point","coordinates":[21.68333,57.2]}},{"type":"feature","properties":{"country_en":"Latvia","name":"Pāvilosta","name_adm0":"Latvija","name_adm1":"Pavilosta Novads","name_adm2":"Pavilosta","name_en":"Pavilosta"},"geometry":{"type":"Point","coordinates":[21.18593,56.88791]}},{"type":"feature","properties":{"country_en":"Latvia","name":"Ogre","name_adm0":"Latvija","name_adm1":"Ogres Novads","name_adm2":"Ogre","name_en":"Ogre"},"geometry":{"type":"Point","coordinates":[24.61401,56.8162]}},{"type":"feature","properties":{"country_en":"Latvia","name":"Musa","name_adm0":"Latvija","name_adm1":"Vecumnieku Novads","name_adm2":"Vecumnieku Pagasts","name_en":"Musa"},"geometry":{"type":"Point","coordinates":[24.2375,56.39444]}},{"type":"feature","properties":{"country_en":"Latvia","name":"Oliņa","name_adm0":"Latvija","name_adm1":"Strenči Novads","name_adm2":"Pląńu Pagasts","name_en":"Olynya"},"geometry":{"type":"Point","coordinates":[25.8525,58.031670000000005]}},{"type":"feature","properties":{"country_en":"Latvia","name":"Lazdulejas Pagasts","name_adm0":"Latvija","name_adm1":"Balvi Novads","name_adm2":"Lazdulejas Pagasts","name_en":"Lazdulejas Pagasts"},"geometry":{"type":"Point","coordinates":[27.262314999999997,57.130649]}},{"type":"feature","properties":{"country_en":"Latvia","name":"Kupravas Pagasts","name_adm0":"Latvija","name_adm1":"Vilakas Novads","name_adm2":"Kupravas Pagasts","name_en":"Kupravas Pagasts"},"geometry":{"type":"Point","coordinates":[27.680225,57.181855]}},{"type":"feature","properties":{"country_en":"Latvia","name":"Ukru Pagasts","name_adm0":"Latvija","name_adm1":"Auces Novads","name_adm2":"Ukru Pagasts","name_en":"Ukru Pagasts"},"geometry":{"type":"Point","coordinates":[22.886302,56.466288999999996]}},{"type":"feature","properties":{"country_en":"Latvia","name":"Zļguru Pagasts","name_adm0":"Latvija","name_adm1":"Vilakas Novads","name_adm2":"Zļguru Pagasts","name_en":"Zļguru Pagasts"},"geometry":{"type":"Point","coordinates":[27.680225,57.181855]}},{"type":"feature","properties":{"country_en":"Latvia","name":"Mzvidu Pagasts","name_adm0":"Latvija","name_adm1":"Kąrsava Novads","name_adm2":"Mzvidu Pagasts","name_en":"Mzvidu Pagasts"},"geometry":{"type":"Point","coordinates":[24.607499999999998,56.875461]}},{"type":"feature","properties":{"country_en":"Latvia","name":"Kantinieku Pagasts","name_adm0":"Latvija","name_adm1":"Rŗzekne Novads","name_adm2":"Kantinieku Pagasts","name_en":"Kantinieku Pagasts"},"geometry":{"type":"Point","coordinates":[27.42696,56.289142999999996]}},{"type":"feature","properties":{"country_en":"Latvia","name":"Priekules Pagasts","name_adm0":"Latvija","name_adm1":"Priekules Novads","name_adm2":"Priekules Pagasts","name_en":"Priekules Pagasts"},"geometry":{"type":"Point","coordinates":[24.607499999999998,56.875461]}},{"type":"feature","properties":{"country_en":"Latvia","name":"Auces Lauku Teritorija","name_adm0":"Latvija","name_adm1":"Auces Novads","name_adm2":"Auces Lauku Teritorija","name_en":"Auces Lauku Teritorija"},"geometry":{"type":"Point","coordinates":[22.886302,56.466288999999996]}},{"type":"feature","properties":{"country_en":"Latvia","name":"Skrundas Lauku Teritorija","name_adm0":"Latvija","name_adm1":"Skrundas Novads","name_adm2":"Skrundas Lauku Teritorija","name_en":"Skrundas Lauku Teritorija"},"geometry":{"type":"Point","coordinates":[22.0163005,56.675705]}},{"type":"feature","properties":{"country_en":"Latvia","name":"Rencŗnu Pagasts","name_adm0":"Latvija","name_adm1":"Burtnieku Novads","name_adm2":"Rencŗnu Pagasts","name_en":"Rencŗnu Pagasts"},"geometry":{"type":"Point","coordinates":[25.283488999999996,57.735018999999994]}},{"type":"feature","properties":{"country_en":"Latvia","name":"Ļves Pagasts","name_adm0":"Latvija","name_adm1":"Talsi Novads","name_adm2":"Ļves Pagasts","name_en":"Ļves Pagasts"},"geometry":{"type":"Point","coordinates":[22.569179,57.048889]}},{"type":"feature","properties":{"country_en":"Latvia","name":"Jaunauces Pagasts","name_adm0":"Latvija","name_adm1":"Saldus Novads","name_adm2":"Jaunauces Pagasts","name_en":"Jaunauces Pagasts"},"geometry":{"type":"Point","coordinates":[22.496266,56.665105999999994]}},{"type":"feature","properties":{"country_en":"Latvia","name":"Tirzas Pagasts","name_adm0":"Latvija","name_adm1":"Gulbene Novads","name_adm2":"Tirzas Pagasts","name_en":"Tirzas Pagasts"},"geometry":{"type":"Point","coordinates":[26.76218,57.16727999999999]}},{"type":"feature","properties":{"country_en":"Latvia","name":"Saunas Pagasts","name_adm0":"Latvija","name_adm1":"Preiau Novads","name_adm2":"Saunas Pagasts","name_en":"Saunas Pagasts"},"geometry":{"type":"Point","coordinates":[24.607499999999998,56.875461]}},{"type":"feature","properties":{"country_en":"Latvia","name":"Taurupes Pagasts","name_adm0":"Latvija","name_adm1":"Ogres Novads","name_adm2":"Taurupes Pagasts","name_en":"Taurupes Pagasts"},"geometry":{"type":"Point","coordinates":[24.5989945,56.817511]}},{"type":"feature","properties":{"country_en":"Latvia","name":"Dagdas Pagasts","name_adm0":"Latvija","name_adm1":"Dagda Novads","name_adm2":"Dagdas Pagasts","name_en":"Dagdas Pagasts"},"geometry":{"type":"Point","coordinates":[24.607499999999998,56.875461]}},{"type":"feature","properties":{"country_en":"Latvia","name":"Skujenes Pagasts","name_adm0":"Latvija","name_adm1":"Amatas Novads","name_adm2":"Skujenes Pagasts","name_en":"Skujenes Pagasts"},"geometry":{"type":"Point","coordinates":[25.2207605,57.29826799999999]}},{"type":"feature","properties":{"country_en":"Latvia","name":"Rankas Pagasts","name_adm0":"Latvija","name_adm1":"Gulbene Novads","name_adm2":"Rankas Pagasts","name_en":"Rankas Pagasts"},"geometry":{"type":"Point","coordinates":[26.76218,57.16727999999999]}},{"type":"feature","properties":{"country_en":"Latvia","name":"Medńevas Pagasts","name_adm0":"Latvija","name_adm1":"Vilakas Novads","name_adm2":"Medńevas Pagasts","name_en":"Medńevas Pagasts"},"geometry":{"type":"Point","coordinates":[27.680225,57.181855]}},{"type":"feature","properties":{"country_en":"Latvia","name":"Pededzes Pagasts","name_adm0":"Latvija","name_adm1":"Alžksne Novads","name_adm2":"Pededzes Pagasts","name_en":"Pededzes Pagasts"},"geometry":{"type":"Point","coordinates":[27.052524,57.42714]}},{"type":"feature","properties":{"country_en":"Latvia","name":"Vļtińu Pagasts","name_adm0":"Latvija","name_adm1":"Auces Novads","name_adm2":"Vļtińu Pagasts","name_en":"Vļtińu Pagasts"},"geometry":{"type":"Point","coordinates":[22.886302,56.466288999999996]}},{"type":"feature","properties":{"country_en":"Latvia","name":"Andrupenes Pagasts","name_adm0":"Latvija","name_adm1":"Dagda Novads","name_adm2":"Andrupenes Pagasts","name_en":"Andrupenes Pagasts"},"geometry":{"type":"Point","coordinates":[24.607499999999998,56.875461]}},{"type":"feature","properties":{"country_en":"Latvia","name":"Bunkas Pagasts","name_adm0":"Latvija","name_adm1":"Priekules Novads","name_adm2":"Bunkas Pagasts","name_en":"Bunkas Pagasts"},"geometry":{"type":"Point","coordinates":[24.607499999999998,56.875461]}},{"type":"feature","properties":{"country_en":"Latvia","name":"Kalncempju Pagasts","name_adm0":"Latvija","name_adm1":"Alžksne Novads","name_adm2":"Kalncempju Pagasts","name_en":"Kalncempju Pagasts"},"geometry":{"type":"Point","coordinates":[27.052524,57.42714]}},{"type":"feature","properties":{"country_en":"Latvia","name":"Sunąkstes Pagasts","name_adm0":"Latvija","name_adm1":"Jaunjelgavas Novads","name_adm2":"Sunąkstes Pagasts","name_en":"Sunąkstes Pagasts"},"geometry":{"type":"Point","coordinates":[24.607499999999998,56.875461]}},{"type":"feature","properties":{"country_en":"Latvia","name":"Tilzas Pagasts","name_adm0":"Latvija","name_adm1":"Balvi Novads","name_adm2":"Tilzas Pagasts","name_en":"Tilzas Pagasts"},"geometry":{"type":"Point","coordinates":[27.262314999999997,57.130649]}},{"type":"feature","properties":{"country_en":"Latvia","name":"Ezernieku Pagasts","name_adm0":"Latvija","name_adm1":"Dagda Novads","name_adm2":"Ezernieku Pagasts","name_en":"Ezernieku Pagasts"},"geometry":{"type":"Point","coordinates":[24.607499999999998,56.875461]}},{"type":"feature","properties":{"country_en":"Latvia","name":"Krijąńu Pagasts","name_adm0":"Latvija","name_adm1":"Balvi Novads","name_adm2":"Krijąńu Pagasts","name_en":"Krijąńu Pagasts"},"geometry":{"type":"Point","coordinates":[27.262314999999997,57.130649]}},{"type":"feature","properties":{"country_en":"Latvia","name":"Jaunalžksnes Pagasts","name_adm0":"Latvija","name_adm1":"Alžksne Novads","name_adm2":"Jaunalžksnes Pagasts","name_en":"Jaunalžksnes Pagasts"},"geometry":{"type":"Point","coordinates":[27.052524,57.42714]}},{"type":"feature","properties":{"country_en":"Latvia","name":"Mazsalaca","name_adm0":"Latvija","name_adm1":"Mazsalacas Novads","name_adm2":"Mazsalaca","name_en":"Mazsalaca"},"geometry":{"type":"Point","coordinates":[25.038184999999995,57.870779]}},{"type":"feature","properties":{"country_en":"Latvia","name":"Laidu Pagasts","name_adm0":"Latvija","name_adm1":"Kuldļga Novads","name_adm2":"Laidu Pagasts","name_en":"Laidu Pagasts"},"geometry":{"type":"Point","coordinates":[21.977688,56.970123]}},{"type":"feature","properties":{"country_en":"Latvia","name":"Lļbagu Pagasts","name_adm0":"Latvija","name_adm1":"Talsi Novads","name_adm2":"Lļbagu Pagasts","name_en":"Lļbagu Pagasts"},"geometry":{"type":"Point","coordinates":[22.569179,57.048889]}},{"type":"feature","properties":{"country_en":"Latvia","name":"Stoaerovas Pagasts","name_adm0":"Latvija","name_adm1":"Rŗzekne Novads","name_adm2":"Stoaerovas Pagasts","name_en":"Stoaerovas Pagasts"},"geometry":{"type":"Point","coordinates":[27.42696,56.289142999999996]}},{"type":"feature","properties":{"country_en":"Latvia","name":"Zebrenes Pagasts","name_adm0":"Latvija","name_adm1":"Dobele Novads","name_adm2":"Zebrenes Pagasts","name_en":"Zebrenes Pagasts"},"geometry":{"type":"Point","coordinates":[23.27672,56.625005]}},{"type":"feature","properties":{"country_en":"Latvia","name":"Kastuainas Pagasts","name_adm0":"Latvija","name_adm1":"Aglonas Novads","name_adm2":"Kastuainas Pagasts","name_en":"Kastuainas Pagasts"},"geometry":{"type":"Point","coordinates":[27.016409999999997,56.125566]}},{"type":"feature","properties":{"country_en":"Latvia","name":"Umurgas Pagasts","name_adm0":"Latvija","name_adm1":"Limbazi Novads","name_adm2":"Umurgas Pagasts","name_en":"Umurgas Pagasts"},"geometry":{"type":"Point","coordinates":[24.714699,57.51468100000001]}},{"type":"feature","properties":{"country_en":"Latvia","name":"Mząres Pagasts","name_adm0":"Latvija","name_adm1":"Krustpils Novads","name_adm2":"Mząres Pagasts","name_en":"Mząres Pagasts"},"geometry":{"type":"Point","coordinates":[24.607499999999998,56.875461]}},{"type":"feature","properties":{"country_en":"Latvia","name":"Liepnas Pagasts","name_adm0":"Latvija","name_adm1":"Alžksne Novads","name_adm2":"Liepnas Pagasts","name_en":"Liepnas Pagasts"},"geometry":{"type":"Point","coordinates":[27.052524,57.42714]}},{"type":"feature","properties":{"country_en":"Latvia","name":"Kalupes Pagasts","name_adm0":"Latvija","name_adm1":"Daugavpils","name_adm2":"Kalupes Pagasts","name_en":"Kalupes Pagasts"},"geometry":{"type":"Point","coordinates":[26.647682,55.68070199999999]}},{"type":"feature","properties":{"country_en":"Latvia","name":"Lejasciema Pagasts","name_adm0":"Latvija","name_adm1":"Gulbene Novads","name_adm2":"Lejasciema Pagasts","name_en":"Lejasciema Pagasts"},"geometry":{"type":"Point","coordinates":[26.76218,57.16727999999999]}},{"type":"feature","properties":{"country_en":"Latvia","name":"Nļtaures Pagasts","name_adm0":"Latvija","name_adm1":"Amatas Novads","name_adm2":"Nļtaures Pagasts","name_en":"Nļtaures Pagasts"},"geometry":{"type":"Point","coordinates":[25.2207605,57.29826799999999]}},{"type":"feature","properties":{"country_en":"Latvia","name":"Vaboles Pagasts","name_adm0":"Latvija","name_adm1":"Daugavpils","name_adm2":"Vaboles Pagasts","name_en":"Vaboles Pagasts"},"geometry":{"type":"Point","coordinates":[26.647682,55.68070199999999]}},{"type":"feature","properties":{"country_en":"Latvia","name":"Aóeltovas Pagasts","name_adm0":"Latvija","name_adm1":"Aglonas Novads","name_adm2":"Aóeltovas Pagasts","name_en":"Aóeltovas Pagasts"},"geometry":{"type":"Point","coordinates":[27.016409999999997,56.125566]}},{"type":"feature","properties":{"country_en":"Latvia","name":"Skańkalnes Pagasts","name_adm0":"Latvija","name_adm1":"Mazsalacas Novads","name_adm2":"Skańkalnes Pagasts","name_en":"Skańkalnes Pagasts"},"geometry":{"type":"Point","coordinates":[25.038184999999995,57.870779]}},{"type":"feature","properties":{"country_en":"Latvia","name":"Brenguau Pagasts","name_adm0":"Latvija","name_adm1":"Beverina Novads","name_adm2":"Brenguau Pagasts","name_en":"Brenguau Pagasts"},"geometry":{"type":"Point","coordinates":[24.607499999999998,56.875461]}},{"type":"feature","properties":{"country_en":"Latvia","name":"Vectilzas Pagasts","name_adm0":"Latvija","name_adm1":"Balvi Novads","name_adm2":"Vectilzas Pagasts","name_en":"Vectilzas Pagasts"},"geometry":{"type":"Point","coordinates":[27.262314999999997,57.130649]}},{"type":"feature","properties":{"country_en":"Latvia","name":"Viaóenes Pagasts","name_adm0":"Latvija","name_adm1":"Limbazi Novads","name_adm2":"Viaóenes Pagasts","name_en":"Viaóenes Pagasts"},"geometry":{"type":"Point","coordinates":[24.714699,57.51468100000001]}},{"type":"feature","properties":{"country_en":"Latvia","name":"Cesvaines Lauku Teritorija","name_adm0":"Latvija","name_adm1":"Cesvaines Novads","name_adm2":"Cesvaines Lauku Teritorija","name_en":"Cesvaines Lauku Teritorija"},"geometry":{"type":"Point","coordinates":[24.607499999999998,56.875461]}},{"type":"feature","properties":{"country_en":"Latvia","name":"Ilzenes Pagasts","name_adm0":"Latvija","name_adm1":"Alžksne Novads","name_adm2":"Ilzenes Pagasts","name_en":"Ilzenes Pagasts"},"geometry":{"type":"Point","coordinates":[27.052524,57.42714]}},{"type":"feature","properties":{"country_en":"Latvia","name":"Vļksnas Pagasts","name_adm0":"Latvija","name_adm1":"Balvi Novads","name_adm2":"Vļksnas Pagasts","name_en":"Vļksnas Pagasts"},"geometry":{"type":"Point","coordinates":[27.262314999999997,57.130649]}},{"type":"feature","properties":{"country_en":"Latvia","name":"Rundŗnu Pagasts","name_adm0":"Latvija","name_adm1":"Ludza Novads","name_adm2":"Rundŗnu Pagasts","name_en":"Rundŗnu Pagasts"},"geometry":{"type":"Point","coordinates":[27.556972,56.554657]}},{"type":"feature","properties":{"country_en":"Latvia","name":"Struząnu Pagasts","name_adm0":"Latvija","name_adm1":"Rŗzekne Novads","name_adm2":"Struząnu Pagasts","name_en":"Struząnu Pagasts"},"geometry":{"type":"Point","coordinates":[27.42696,56.289142999999996]}},{"type":"feature","properties":{"country_en":"Latvia","name":"Lielauces Pagasts","name_adm0":"Latvija","name_adm1":"Auces Novads","name_adm2":"Lielauces Pagasts","name_en":"Lielauces Pagasts"},"geometry":{"type":"Point","coordinates":[22.886302,56.466288999999996]}},{"type":"feature","properties":{"country_en":"Latvia","name":"Dunalkas Pagasts","name_adm0":"Latvija","name_adm1":"Durbes Novads","name_adm2":"Dunalkas Pagasts","name_en":"Dunalkas Pagasts"},"geometry":{"type":"Point","coordinates":[24.607499999999998,56.875461]}},{"type":"feature","properties":{"country_en":"Latvia","name":"Maainovas Pagasts","name_adm0":"Latvija","name_adm1":"Daugavpils","name_adm2":"Maainovas Pagasts","name_en":"Maainovas Pagasts"},"geometry":{"type":"Point","coordinates":[26.647682,55.68070199999999]}},{"type":"feature","properties":{"country_en":"Latvia","name":"Vaidavas Pagasts","name_adm0":"Latvija","name_adm1":"Valmiera Novads","name_adm2":"Vaidavas Pagasts","name_en":"Vaidavas Pagasts"},"geometry":{"type":"Point","coordinates":[25.389274,57.52988400000001]}},{"type":"feature","properties":{"country_en":"Latvia","name":"Vąrkavas Pagasts","name_adm0":"Latvija","name_adm1":"Vąrkavas Novads","name_adm2":"Vąrkavas Pagasts","name_en":"Vąrkavas Pagasts"},"geometry":{"type":"Point","coordinates":[24.607499999999998,56.875461]}},{"type":"feature","properties":{"country_en":"Latvia","name":"Vecpils Pagasts","name_adm0":"Latvija","name_adm1":"Durbes Novads","name_adm2":"Vecpils Pagasts","name_en":"Vecpils Pagasts"},"geometry":{"type":"Point","coordinates":[24.607499999999998,56.875461]}},{"type":"feature","properties":{"country_en":"Latvia","name":"Pilskalnes Pagasts","name_adm0":"Latvija","name_adm1":"Neretas Novads","name_adm2":"Pilskalnes Pagasts","name_en":"Pilskalnes Pagasts"},"geometry":{"type":"Point","coordinates":[24.607499999999998,56.875461]}},{"type":"feature","properties":{"country_en":"Latvia","name":"Lļgo Pagasts","name_adm0":"Latvija","name_adm1":"Gulbene Novads","name_adm2":"Lļgo Pagasts","name_en":"Lļgo Pagasts"},"geometry":{"type":"Point","coordinates":[26.76218,57.16727999999999]}},{"type":"feature","properties":{"country_en":"Latvia","name":"Ipióu Pagasts","name_adm0":"Latvija","name_adm1":"Ržjiena Novads","name_adm2":"Ipióu Pagasts","name_en":"Ipióu Pagasts"},"geometry":{"type":"Point","coordinates":[25.330524,57.896937]}},{"type":"feature","properties":{"country_en":"Latvia","name":"Līči","name_adm0":"Latvija","name_adm1":"Ozolnieku Novads","name_adm2":"Ozolnieku Pagasts","name_en":"Līči"},"geometry":{"type":"Point","coordinates":[23.76611,56.69083]}},{"type":"feature","properties":{"country_en":"Latvia","name":"Rļga","name_adm0":"Latvija","name_adm1":"Rļga","name_en":"Rļga"},"geometry":{"type":"Point","coordinates":[24.11911,56.938981]}},{"type":"feature","properties":{"country_en":"Latvia","name":"Rļga","name_adm0":"Latvija","name_adm1":"Rļga","name_adm2":"Rļga","name_en":"Rļga"},"geometry":{"type":"Point","coordinates":[24.10263,56.952487]}},{"type":"feature","properties":{"country_en":"Latvia","name":"Jžrmala","name_adm0":"Latvija","name_adm1":"Jžrmala","name_adm2":"Jžrmala","name_en":"Jžrmala"},"geometry":{"type":"Point","coordinates":[23.707946,56.983904]}},{"type":"feature","properties":{"country_en":"Latvia","name":"Ciblas Pagasts","name_adm0":"Latvija","name_adm1":"Ciblas Novads","name_adm2":"Ciblas Pagasts","name_en":"Ciblas Pagasts"},"geometry":{"type":"Point","coordinates":[24.607499999999998,56.875461]}},{"type":"feature","properties":{"country_en":"Latvia","name":"Ozoli","name_adm0":"Latvija","name_adm1":"Alojas Novads","name_adm2":"Brļvzemnieku Pagasts","name_en":"Ozoli"},"geometry":{"type":"Point","coordinates":[25.03333,56.86667]}},{"type":"feature","properties":{"country_en":"Latvia","name":"Auleja","name_adm0":"Latvija","name_adm1":"Krąslava Novads","name_adm2":"Aulejas Pagasts","name_en":"Auliya"},"geometry":{"type":"Point","coordinates":[27.283329999999996,56.05]}},{"type":"feature","properties":{"country_en":"Latvia","name":"Deksne","name_adm0":"Latvija","name_adm1":"Kuldļga Novads","name_adm2":"Padures Pagasts","name_en":"Deksne"},"geometry":{"type":"Point","coordinates":[21.88333,56.99999999999999]}},{"type":"feature","properties":{"country_en":"Latvia","name":"Zeltiņi","name_adm0":"Latvija","name_adm1":"Alžksne Novads","name_adm2":"Zeltińu Pagasts","name_en":"Myza Zeltyni"},"geometry":{"type":"Point","coordinates":[26.777109999999997,57.35903]}},{"type":"feature","properties":{"country_en":"Latvia","name":"Zemgale","name_adm0":"Latvija","name_adm1":"Daugavpils","name_adm2":"Demenes Pagasts","name_en":"Zemgale"},"geometry":{"type":"Point","coordinates":[26.466669999999997,55.71667]}},{"type":"feature","properties":{"country_en":"Latvia","name":"Trenči","name_adm0":"Latvija","name_adm1":"Babļtes Novads","name_adm2":"Babļtes Pagasts","name_en":"Trenchi"},"geometry":{"type":"Point","coordinates":[23.73553,56.89818]}},{"type":"feature","properties":{"country_en":"Latvia","name":"Tume","name_adm0":"Latvija","name_adm1":"Tukums Novads","name_adm2":"Tumes Pagasts","name_en":"Tuma"},"geometry":{"type":"Point","coordinates":[23.09028,56.93388999999999]}},{"type":"feature","properties":{"country_en":"Latvia","name":"Dobeļi","name_adm0":"Latvija","name_adm1":"Jelgavas Novads","name_adm2":"Lļvbŗrzes Pagasts","name_en":"Dobeļi"},"geometry":{"type":"Point","coordinates":[23.64306,56.70806]}},{"type":"feature","properties":{"country_en":"Latvia","name":"Dunavas Pagasts","name_adm0":"Latvija","name_adm1":"Jŗkabpils Novads","name_adm2":"Dunavas Pagasts","name_en":"Dunavas Pagasts"},"geometry":{"type":"Point","coordinates":[25.864992,56.490742]}},{"type":"feature","properties":{"country_en":"Latvia","name":"Sidrabenes Pagasts","name_adm0":"Latvija","name_adm1":"Ozolnieku Novads","name_adm2":"Sidrabenes Pagasts","name_en":"Sidrabenes Pagasts"},"geometry":{"type":"Point","coordinates":[23.829345,56.752722]}},{"type":"feature","properties":{"country_en":"Latvia","name":"Usmas Pagasts","name_adm0":"Latvija","name_adm1":"Ventspils Novads","name_adm2":"Usmas Pagasts","name_en":"Usmas Pagasts"},"geometry":{"type":"Point","coordinates":[21.378364,57.00606499999999]}},{"type":"feature","properties":{"country_en":"Latvia","name":"Piltene","name_adm0":"Latvija","name_adm1":"Ventspils Novads","name_adm2":"Piltene","name_en":"Piltene"},"geometry":{"type":"Point","coordinates":[21.378364,57.00606499999999]}},{"type":"feature","properties":{"country_en":"Latvia","name":"Litenes Pagasts","name_adm0":"Latvija","name_adm1":"Gulbene Novads","name_adm2":"Litenes Pagasts","name_en":"Litenes Pagasts"},"geometry":{"type":"Point","coordinates":[26.76218,57.16727999999999]}},{"type":"feature","properties":{"country_en":"Latvia","name":"Kaijciems","name_adm0":"Latvija","name_adm1":"Limbazi Novads","name_adm2":"Limbazu Pagasts","name_en":"Kaijciems"},"geometry":{"type":"Point","coordinates":[24.81222,57.435]}},{"type":"feature","properties":{"country_en":"Latvia","name":"Kalkžnes Pagasts","name_adm0":"Latvija","name_adm1":"Daugavpils","name_adm2":"Kalkžnes Pagasts","name_en":"Kalkžnes Pagasts"},"geometry":{"type":"Point","coordinates":[26.647682,55.68070199999999]}},{"type":"feature","properties":{"country_en":"Latvia","name":"Kuģi","name_adm0":"Latvija","name_adm1":"Paavińas Novads","name_adm2":"Aiviekstes Pagasts","name_en":"Kugi"},"geometry":{"type":"Point","coordinates":[25.79693,56.64122]}},{"type":"feature","properties":{"country_en":"Latvia","name":"Akmeņdziras","name_adm0":"Latvija","name_adm1":"Ventspils Novads","name_adm2":"Tąrgales Pagasts","name_en":"Akmeņdziras"},"geometry":{"type":"Point","coordinates":[21.68851,57.480259999999994]}},{"type":"feature","properties":{"country_en":"Latvia","name":"Allaži","name_adm0":"Latvija","name_adm1":"Siguldas Novads","name_adm2":"Allazu Pagasts","name_en":"Allazhi"},"geometry":{"type":"Point","coordinates":[24.845,57.06444]}},{"type":"feature","properties":{"country_en":"Latvia","name":"Ance","name_adm0":"Latvija","name_adm1":"Ventspils Novads","name_adm2":"Ances Pagasts","name_en":"Volostnoye Pravleniye Antse"},"geometry":{"type":"Point","coordinates":[22.02295,57.51378999999999]}},{"type":"feature","properties":{"country_en":"Latvia","name":"Čači","name_adm0":"Latvija","name_adm1":"Rŗzekne","name_adm2":"Rŗzekne","name_en":"Čači"},"geometry":{"type":"Point","coordinates":[27.35493,56.48818]}},{"type":"feature","properties":{"country_en":"Latvia","name":"Čaukciems","name_adm0":"Latvija","name_adm1":"Engures Novads","name_adm2":"Lapmzciema Pagasts","name_en":"Tsauktsiems"},"geometry":{"type":"Point","coordinates":[23.41778,57.00389]}},{"type":"feature","properties":{"country_en":"Latvia","name":"Dārte","name_adm0":"Latvija","name_adm1":"Talsi Novads","name_adm2":"Vandzenes Pagasts","name_en":"Darte"},"geometry":{"type":"Point","coordinates":[22.79337,57.34913]}},