{"type":"FeatureCollection","features":[{"type":"feature","properties":{"country_en":"Monaco","name":"Condamine","name_adm0":"Monaco","name_adm1":"La Condamine","name_en":"Condamine"},"geometry":{"type":"Point","coordinates":[7.427400999999999,43.739235]}},{"type":"feature","properties":{"country_en":"Monaco","name":"Fontvieille","name_adm0":"Monaco","name_adm1":"La Condamine","name_en":"Fontvieille"},"geometry":{"type":"Point","coordinates":[7.41766,43.72686999999999]}},{"type":"feature","properties":{"country_en":"Monaco","name":"La Condamine","name_adm0":"Monaco","name_adm1":"La Condamine","name_en":"La Condamine"},"geometry":{"type":"Point","coordinates":[7.78759,43.494899]}},{"type":"feature","properties":{"country_en":"Monaco","name":"Monaco","name_adm0":"Monaco","name_en":"Monaco"},"geometry":{"type":"Point","coordinates":[7.42429,43.73834899999999]}},{"type":"feature","properties":{"country_en":"Monaco","name":"St.-Roman","name_adm0":"Monaco","name_adm1":"Monte-Carlo","name_en":"St.-Roman"},"geometry":{"type":"Point","coordinates":[7.434230000000001,43.7489]}},{"type":"feature","properties":{"country_en":"Monaco","name":"La Condamine","name_adm0":"Monaco","name_adm1":"La Condamine","name_en":"La Condamine"},"geometry":{"type":"Point","coordinates":[7.420239999999999,43.7344]}},{"type":"feature","properties":{"country_en":"Monaco","name":"Monte-Carlo","name_adm0":"Monaco","name_adm1":"Monte-Carlo","name_en":"Monte-Carlo"},"geometry":{"type":"Point","coordinates":[7.426959,43.7383]}},{"type":"feature","properties":{"country_en":"Monaco","name":"Monaco","name_adm0":"Monaco","name_adm1":"La Condamine","name_en":"Monaco"},"geometry":{"type":"Point","coordinates":[7.420663499999999,43.734724]}},{"type":"feature","properties":{"country_en":"Monaco","name":"Monte-Carlo","name_adm0":"Monaco","name_adm1":"Monte-Carlo","name_en":"Monte-Carlo"},"geometry":{"type":"Point","coordinates":[7.42429,43.7383]}},{"type":"feature","properties":{"country_en":"Monaco","name":"Fontvielle","name_adm0":"Monaco","name_adm1":"Fontvielle","name_en":"Fontvielle"},"geometry":{"type":"Point","coordinates":[7.42429,43.73834899999999]}}]}