{"type":"FeatureCollection","features":[{"type":"feature","properties":{"country_en":"Mauritania","name":"Rachid","name_adm0":"Mauritanie","name_adm1":"Tagant","name_en":"Rachid"},"geometry":{"type":"Point","coordinates":[-11.6817,18.7933]}},{"type":"feature","properties":{"country_en":"Mauritania","name":"Selibabi","name_adm0":"Mauritanie","name_adm1":"Guidimaka","name_en":"Selibabi"},"geometry":{"type":"Point","coordinates":[-11.56127,14.43653]}},{"type":"feature","properties":{"country_en":"Mauritania","name":"Te-n-Guembou","name_adm0":"Mauritanie","name_adm1":"Hodh El Gharbi","name_en":"Te-n-Guembou"},"geometry":{"type":"Point","coordinates":[-9.8935,16.0585]}},{"type":"feature","properties":{"country_en":"Mauritania","name":"Timzine","name_adm0":"Mauritanie","name_adm1":"Hodh El Gharbi","name_en":"Timzine"},"geometry":{"type":"Point","coordinates":[-9.0772,16.3257]}},{"type":"feature","properties":{"country_en":"Mauritania","name":"Touajil","name_adm0":"Mauritanie","name_adm1":"Tiris Zemmour","name_en":"Touajil"},"geometry":{"type":"Point","coordinates":[-12.6751,22.16659]}},{"type":"feature","properties":{"country_en":"Mauritania","name":"Jeder el Mohguene","name_adm0":"Mauritanie","name_adm1":"Trarza","name_en":"Jeder el Mohguene"},"geometry":{"type":"Point","coordinates":[-15.654439999999997,16.510279999999998]}},{"type":"feature","properties":{"country_en":"Mauritania","name":"Koundel Reo","name_adm0":"Mauritanie","name_adm1":"Gorgol","name_en":"Koundel Reo"},"geometry":{"type":"Point","coordinates":[-13.26229,15.78204]}},{"type":"feature","properties":{"country_en":"Mauritania","name":"Brakna","name_adm0":"Mauritanie","name_adm1":"Brakna","name_en":"Brakna"},"geometry":{"type":"Point","coordinates":[-13.41028,17.63139]}},{"type":"feature","properties":{"country_en":"Mauritania","name":"Atar","name_adm0":"Mauritanie","name_adm1":"Adrar","name_en":"Atar"},"geometry":{"type":"Point","coordinates":[-13.04986,20.51686]}},{"type":"feature","properties":{"country_en":"Mauritania","name":"Adel Bagrou","name_adm0":"Mauritanie","name_adm1":"Hodh Ech Chargui","name_en":"Adel Bagrou"},"geometry":{"type":"Point","coordinates":[-6.95056,15.497499999999999]}},{"type":"feature","properties":{"country_en":"Mauritania","name":"Sive","name_adm0":"Mauritanie","name_adm1":"Gorgol","name_en":"Sive"},"geometry":{"type":"Point","coordinates":[-13.2101,15.700779999999998]}},{"type":"feature","properties":{"country_en":"Mauritania","name":"Inchiri","name_adm0":"Mauritanie","name_adm1":"Inchiri","name_en":"Inchiri"},"geometry":{"type":"Point","coordinates":[-15.06833,20.0625]}},{"type":"feature","properties":{"country_en":"Mauritania","name":"Trarza","name_adm0":"Mauritanie","name_adm1":"Trarza","name_en":"Trarza"},"geometry":{"type":"Point","coordinates":[-14.658779999999998,17.8665]}},{"type":"feature","properties":{"country_en":"Mauritania","name":"Amake","name_adm0":"Mauritanie","name_adm1":"Hodh El Gharbi","name_en":"Amake"},"geometry":{"type":"Point","coordinates":[-9.77368,15.445030000000001]}},{"type":"feature","properties":{"country_en":"Mauritania","name":"Azougui","name_adm0":"Mauritanie","name_adm1":"Adrar","name_en":"Azougui"},"geometry":{"type":"Point","coordinates":[-13.11191,20.56764]}},{"type":"feature","properties":{"country_en":"Mauritania","name":"Bou Lanouar","name_adm0":"Mauritanie","name_adm1":"Dakhlet Nouadhibou","name_en":"Bou Lanouar"},"geometry":{"type":"Point","coordinates":[-16.50414,21.26494]}},{"type":"feature","properties":{"country_en":"Mauritania","name":"Chegga","name_adm0":"Mauritanie","name_adm1":"Tiris Zemmour","name_en":"Chegga"},"geometry":{"type":"Point","coordinates":[-5.7868,25.371999999999996]}},{"type":"feature","properties":{"country_en":"Mauritania","name":"Fderik","name_adm0":"Mauritanie","name_adm1":"Tiris Zemmour","name_en":"Fderik"},"geometry":{"type":"Point","coordinates":[-12.728359999999999,22.69527]}},{"type":"feature","properties":{"country_en":"Mauritania","name":"Nimjad","name_adm0":"Mauritanie","name_adm1":"Trarza","name_en":"Nimjad"},"geometry":{"type":"Point","coordinates":[-15.689899999999998,17.409299999999998]}},{"type":"feature","properties":{"country_en":"Mauritania","name":"Djigueni","name_adm0":"Mauritanie","name_adm1":"Hodh Ech Chargui","name_en":"Djigueni"},"geometry":{"type":"Point","coordinates":[-8.6672,15.73127]}},{"type":"feature","properties":{"country_en":"Mauritania","name":"Kankossa","name_adm0":"Mauritanie","name_adm1":"Assaba","name_en":"Kankossa"},"geometry":{"type":"Point","coordinates":[-11.52701,15.93891]}},{"type":"feature","properties":{"country_en":"Mauritania","name":"Dakhlet Nouadhibou","name_adm0":"Mauritanie","name_adm1":"Dakhlet Nouadhibou","name_en":"Dakhlet Nouadhibou"},"geometry":{"type":"Point","coordinates":[-16.23361,20.94833]}},{"type":"feature","properties":{"country_en":"Mauritania","name":"Rosso","name_adm0":"Mauritanie","name_adm1":"Trarza","name_en":"Rosso"},"geometry":{"type":"Point","coordinates":[-15.80503,16.51378]}},{"type":"feature","properties":{"country_en":"Mauritania","name":"Kaedi","name_adm0":"Mauritanie","name_adm1":"Gorgol","name_en":"Kaedi"},"geometry":{"type":"Point","coordinates":[-13.50474,16.14653]}},{"type":"feature","properties":{"country_en":"Mauritania","name":"Atila","name_adm0":"Mauritanie","name_adm1":"Assaba","name_en":"Atila"},"geometry":{"type":"Point","coordinates":[-11.13267,15.84516]}},{"type":"feature","properties":{"country_en":"Mauritania","name":"Mauritanie","name_adm0":"Mauritanie","name_en":"Mauritania"},"geometry":{"type":"Point","coordinates":[-10.95086,21.006808999999997]}},{"type":"feature","properties":{"country_en":"Mauritania","name":"'Ain Ben Tili","name_adm0":"Mauritanie","name_adm1":"Tiris Zemmour","name_en":"'Ain Ben Tili"},"geometry":{"type":"Point","coordinates":[-9.58694,25.91778]}},{"type":"feature","properties":{"country_en":"Mauritania","name":"Afrare","name_adm0":"Mauritanie","name_adm1":"Assaba","name_en":"Afrare"},"geometry":{"type":"Point","coordinates":[-10.95477,15.21865]}},{"type":"feature","properties":{"country_en":"Mauritania","name":"Agiert","name_adm0":"Mauritanie","name_adm1":"Hodh El Gharbi","name_en":"Agiert"},"geometry":{"type":"Point","coordinates":[-9.31829,16.47036]}},{"type":"feature","properties":{"country_en":"Mauritania","name":"Agui","name_adm0":"Mauritanie","name_adm1":"Adrar","name_en":"Agui"},"geometry":{"type":"Point","coordinates":[-13.12006,21.173649999999995]}},{"type":"feature","properties":{"country_en":"Mauritania","name":"Barkewol el Abiod","name_adm0":"Mauritanie","name_adm1":"Assaba","name_en":"Barkewol el Abiod"},"geometry":{"type":"Point","coordinates":[-12.43453,16.59956]}},{"type":"feature","properties":{"country_en":"Mauritania","name":"Bennichchab","name_adm0":"Mauritanie","name_adm1":"Inchiri","name_en":"Bennichchab"},"geometry":{"type":"Point","coordinates":[-15.34799,19.43942]}},{"type":"feature","properties":{"country_en":"Mauritania","name":"Dyovol","name_adm0":"Mauritanie","name_adm1":"Gorgol","name_en":"Dyovol"},"geometry":{"type":"Point","coordinates":[-13.379239999999998,16.05956]}},{"type":"feature","properties":{"country_en":"Mauritania","name":"El Boibou","name_adm0":"Mauritanie","name_adm1":"Hodh Ech Chargui","name_en":"El Boibou"},"geometry":{"type":"Point","coordinates":[-7.7515,16.408]}},{"type":"feature","properties":{"country_en":"Mauritania","name":"El Ghabra","name_adm0":"Mauritanie","name_adm1":"Assaba","name_en":"El Ghabra"},"geometry":{"type":"Point","coordinates":[-12.66617,16.64386]}},{"type":"feature","properties":{"country_en":"Mauritania","name":"Fassale","name_adm0":"Mauritanie","name_adm1":"Hodh Ech Chargui","name_en":"Fassale"},"geometry":{"type":"Point","coordinates":[-5.516,15.5571]}},{"type":"feature","properties":{"country_en":"Mauritania","name":"Gharghar","name_adm0":"Mauritanie","name_adm1":"Hodh El Gharbi","name_en":"Gharghar"},"geometry":{"type":"Point","coordinates":[-10.366099999999998,16.1505]}},{"type":"feature","properties":{"country_en":"Mauritania","name":"Kouroudjel","name_adm0":"Mauritanie","name_adm1":"Assaba","name_en":"Kouroudjel"},"geometry":{"type":"Point","coordinates":[-11.4999,16.304599999999997]}},{"type":"feature","properties":{"country_en":"Mauritania","name":"La'ouessi","name_adm0":"Mauritanie","name_adm1":"Assaba","name_en":"La'ouessi"},"geometry":{"type":"Point","coordinates":[-12.20241,16.269139999999997]}},{"type":"feature","properties":{"country_en":"Mauritania","name":"Lekhcheb","name_adm0":"Mauritanie","name_adm1":"Tagant","name_en":"Lekhcheb"},"geometry":{"type":"Point","coordinates":[-10.52139,18.41472]}},{"type":"feature","properties":{"country_en":"Mauritania","name":"Mafounadich","name_adm0":"Mauritanie","name_adm1":"Hodh Ech Chargui","name_en":"Mafounadich"},"geometry":{"type":"Point","coordinates":[-7.5742,16.19338]}},{"type":"feature","properties":{"country_en":"Mauritania","name":"Maghama","name_adm0":"Mauritanie","name_adm1":"Gorgol","name_en":"Maghama"},"geometry":{"type":"Point","coordinates":[-12.85006,15.50915]}},{"type":"feature","properties":{"country_en":"Mauritania","name":"Saboussire","name_adm0":"Mauritanie","name_adm1":"Guidimaka","name_en":"Saboussire"},"geometry":{"type":"Point","coordinates":[-12.058729999999999,14.81729]}},{"type":"feature","properties":{"country_en":"Mauritania","name":"Sani","name_adm0":"Mauritanie","name_adm1":"Assaba","name_en":"Sani"},"geometry":{"type":"Point","coordinates":[-11.6061,16.0608]}},{"type":"feature","properties":{"country_en":"Mauritania","name":"Rkiz","name_adm0":"Mauritanie","name_adm1":"Trarza","name_en":"Rkiz"},"geometry":{"type":"Point","coordinates":[-15.31611,16.91111]}},{"type":"feature","properties":{"country_en":"Mauritania","name":"Kiffa","name_adm0":"Mauritanie","name_adm1":"Assaba","name_en":"Kiffa"},"geometry":{"type":"Point","coordinates":[-11.40453,16.61659]}},{"type":"feature","properties":{"country_en":"Mauritania","name":"Assaba","name_adm0":"Mauritanie","name_adm1":"Assaba","name_en":"Assaba"},"geometry":{"type":"Point","coordinates":[-11.90917,16.59556]}},{"type":"feature","properties":{"country_en":"Mauritania","name":"Adrar","name_adm0":"Mauritanie","name_adm1":"Adrar","name_en":"Adrar"},"geometry":{"type":"Point","coordinates":[-10.07111,20.50222]}},{"type":"feature","properties":{"country_en":"Mauritania","name":"Aleg","name_adm0":"Mauritanie","name_adm1":"Brakna","name_en":"Aleg"},"geometry":{"type":"Point","coordinates":[-13.920899999999998,17.0481]}},{"type":"feature","properties":{"country_en":"Mauritania","name":"Oujeft","name_adm0":"Mauritanie","name_adm1":"Adrar","name_en":"Oujeft"},"geometry":{"type":"Point","coordinates":[-13.05944,19.962219999999995]}},{"type":"feature","properties":{"country_en":"Mauritania","name":"Aioun el Atrouss","name_adm0":"Mauritanie","name_adm1":"Hodh El Gharbi","name_en":"Aioun el Atrouss"},"geometry":{"type":"Point","coordinates":[-9.6149,16.6614]}},{"type":"feature","properties":{"country_en":"Mauritania","name":"Akjoujt","name_adm0":"Mauritanie","name_adm1":"Inchiri","name_en":"Akjoujt"},"geometry":{"type":"Point","coordinates":[-14.41639,19.69694]}},{"type":"feature","properties":{"country_en":"Mauritania","name":"Aouinat ed Dell","name_adm0":"Mauritanie","name_adm1":"Hodh Ech Chargui","name_en":"Aouinat ed Dell"},"geometry":{"type":"Point","coordinates":[-7.3558,16.0995]}},{"type":"feature","properties":{"country_en":"Mauritania","name":"Bouly","name_adm0":"Mauritanie","name_adm1":"Guidimaka","name_en":"Bouly"},"geometry":{"type":"Point","coordinates":[-11.80095,15.317529999999998]}},{"type":"feature","properties":{"country_en":"Mauritania","name":"Chogar","name_adm0":"Mauritanie","name_adm1":"Brakna","name_en":"Chogar"},"geometry":{"type":"Point","coordinates":[-13.66968,17.32648]}},{"type":"feature","properties":{"country_en":"Mauritania","name":"Tiekane","name_adm0":"Mauritanie","name_adm1":"Trarza","name_en":"Tiekane"},"geometry":{"type":"Point","coordinates":[-15.45972,16.57806]}},{"type":"feature","properties":{"country_en":"Mauritania","name":"Aouinat er Rajjat","name_adm0":"Mauritanie","name_adm1":"Hodh Ech Chargui","name_en":"Aouinat er Rajjat"},"geometry":{"type":"Point","coordinates":[-7.2904,16.5252]}},{"type":"feature","properties":{"country_en":"Mauritania","name":"Baediam","name_adm0":"Mauritanie","name_adm1":"Guidimaka","name_en":"Baediam"},"geometry":{"type":"Point","coordinates":[-11.85106,15.056549999999998]}},{"type":"feature","properties":{"country_en":"Mauritania","name":"Bangou","name_adm0":"Mauritanie","name_adm1":"Hodh Ech Chargui","name_en":"Bangou"},"geometry":{"type":"Point","coordinates":[-6.99477,16.27986]}},{"type":"feature","properties":{"country_en":"Mauritania","name":"Djouk","name_adm0":"Mauritanie","name_adm1":"Tagant","name_en":"Djouk"},"geometry":{"type":"Point","coordinates":[-12.1456,17.1645]}},{"type":"feature","properties":{"country_en":"Mauritania","name":"Billaouar","name_adm0":"Mauritanie","name_adm1":"Assaba","name_en":"Billaouar"},"geometry":{"type":"Point","coordinates":[-10.9374,16.553]}},{"type":"feature","properties":{"country_en":"Mauritania","name":"Bou Gadoum","name_adm0":"Mauritanie","name_adm1":"Hodh Ech Chargui","name_en":"Bou Gadoum"},"geometry":{"type":"Point","coordinates":[-7.36007,15.881359999999999]}},{"type":"feature","properties":{"country_en":"Mauritania","name":"Bou Sdera","name_adm0":"Mauritanie","name_adm1":"Trarza","name_en":"Bou Sdera"},"geometry":{"type":"Point","coordinates":[-14.2104,17.572999999999997]}},{"type":"feature","properties":{"country_en":"Mauritania","name":"Hamoud","name_adm0":"Mauritanie","name_adm1":"Assaba","name_en":"Hamoud"},"geometry":{"type":"Point","coordinates":[-11.50074,15.61388]}},{"type":"feature","properties":{"country_en":"Mauritania","name":"Houeiriye","name_adm0":"Mauritanie","name_adm1":"Hodh Ech Chargui","name_en":"Houeiriye"},"geometry":{"type":"Point","coordinates":[-6.94139,16.31111]}},{"type":"feature","properties":{"country_en":"Mauritania","name":"Nbak","name_adm0":"Mauritanie","name_adm1":"Trarza","name_en":"Nbak"},"geometry":{"type":"Point","coordinates":[-14.993,17.2434]}},{"type":"feature","properties":{"country_en":"Mauritania","name":"Taghaoumit","name_adm0":"Mauritanie","name_adm1":"Hodh Ech Chargui","name_en":"Taghaoumit"},"geometry":{"type":"Point","coordinates":[-7.3584,16.9417]}},{"type":"feature","properties":{"country_en":"Mauritania","name":"Amourj","name_adm0":"Mauritanie","name_adm1":"Hodh Ech Chargui","name_en":"Amourj"},"geometry":{"type":"Point","coordinates":[-7.2185,16.1098]}},{"type":"feature","properties":{"country_en":"Mauritania","name":"Djonaba","name_adm0":"Mauritanie","name_adm1":"Brakna","name_en":"Djonaba"},"geometry":{"type":"Point","coordinates":[-12.69306,17.06722]}},{"type":"feature","properties":{"country_en":"Mauritania","name":"Gleib ec Cghin","name_adm0":"Mauritanie","name_adm1":"Assaba","name_en":"Gleib ec Cghin"},"geometry":{"type":"Point","coordinates":[-11.292899999999998,17.4036]}},{"type":"feature","properties":{"country_en":"Mauritania","name":"Gleibat Boukine","name_adm0":"Mauritanie","name_adm1":"Hodh El Gharbi","name_en":"Gleibat Boukine"},"geometry":{"type":"Point","coordinates":[-9.08294,15.694189999999999]}},{"type":"feature","properties":{"country_en":"Mauritania","name":"Nbeika","name_adm0":"Mauritanie","name_adm1":"Tagant","name_en":"Nbeika"},"geometry":{"type":"Point","coordinates":[-12.2542,17.9811]}},{"type":"feature","properties":{"country_en":"Mauritania","name":"Ould Yanja","name_adm0":"Mauritanie","name_adm1":"Guidimaka","name_en":"Ould Yanja"},"geometry":{"type":"Point","coordinates":[-11.71467,15.54038]}},{"type":"feature","properties":{"country_en":"Mauritania","name":"Magta Lahjar","name_adm0":"Mauritanie","name_adm1":"Brakna","name_en":"Magta Lahjar"},"geometry":{"type":"Point","coordinates":[-13.0927,17.505999999999997]}},{"type":"feature","properties":{"country_en":"Mauritania","name":"Touil","name_adm0":"Mauritanie","name_adm1":"Hodh El Gharbi","name_en":"Touil"},"geometry":{"type":"Point","coordinates":[-10.11551,15.531119999999998]}},{"type":"feature","properties":{"country_en":"Mauritania","name":"Wompou","name_adm0":"Mauritanie","name_adm1":"Guidimaka","name_en":"Wompou"},"geometry":{"type":"Point","coordinates":[-12.72555,15.131039999999999]}},{"type":"feature","properties":{"country_en":"Mauritania","name":"Tagant","name_adm0":"Mauritanie","name_adm1":"Tagant","name_en":"Tagant"},"geometry":{"type":"Point","coordinates":[-10.207499999999998,18.69667]}},{"type":"feature","properties":{"country_en":"Mauritania","name":"Tiris Zemmour","name_adm0":"Mauritanie","name_adm1":"Tiris Zemmour","name_en":"Tiris Zemmour"},"geometry":{"type":"Point","coordinates":[-9,24]}},{"type":"feature","properties":{"country_en":"Mauritania","name":"Guerou","name_adm0":"Mauritanie","name_adm1":"Assaba","name_en":"Guerou"},"geometry":{"type":"Point","coordinates":[-11.8359,16.8177]}},{"type":"feature","properties":{"country_en":"Mauritania","name":"Letfata","name_adm0":"Mauritanie","name_adm1":"Tagant","name_en":"Letfata"},"geometry":{"type":"Point","coordinates":[-12.50988,17.75645]}},{"type":"feature","properties":{"country_en":"Mauritania","name":"Nema","name_adm0":"Mauritanie","name_adm1":"Hodh Ech Chargui","name_en":"Nema"},"geometry":{"type":"Point","coordinates":[-7.253499999999999,16.6162]}},{"type":"feature","properties":{"country_en":"Mauritania","name":"Choum","name_adm0":"Mauritanie","name_adm1":"Adrar","name_en":"Choum"},"geometry":{"type":"Point","coordinates":[-13.06173,21.2875]}},{"type":"feature","properties":{"country_en":"Mauritania","name":"Khabou","name_adm0":"Mauritanie","name_adm1":"Guidimaka","name_en":"Khabou"},"geometry":{"type":"Point","coordinates":[-12.08386,14.73827]}},{"type":"feature","properties":{"country_en":"Mauritania","name":"Mederdra","name_adm0":"Mauritanie","name_adm1":"Trarza","name_en":"Mederdra"},"geometry":{"type":"Point","coordinates":[-15.756109999999998,16.89639]}},{"type":"feature","properties":{"country_en":"Mauritania","name":"Dar el Barka","name_adm0":"Mauritanie","name_adm1":"Brakna","name_en":"Dar el Barka"},"geometry":{"type":"Point","coordinates":[-14.70031,16.68294]}},{"type":"feature","properties":{"country_en":"Mauritania","name":"Timbedra","name_adm0":"Mauritanie","name_adm1":"Hodh Ech Chargui","name_en":"Timbedra"},"geometry":{"type":"Point","coordinates":[-8.164299999999999,16.2447]}},{"type":"feature","properties":{"country_en":"Mauritania","name":"Hodh El Gharbi","name_adm0":"Mauritanie","name_adm1":"Hodh El Gharbi","name_en":"Hodh El Gharbi"},"geometry":{"type":"Point","coordinates":[-9.999999999999998,16.5]}},{"type":"feature","properties":{"country_en":"Mauritania","name":"Guidimaka","name_adm0":"Mauritanie","name_adm1":"Guidimaka","name_en":"Guidimaka"},"geometry":{"type":"Point","coordinates":[-12.35556,15.38111]}},{"type":"feature","properties":{"country_en":"Mauritania","name":"Nouakchott","name_adm0":"Mauritanie","name_adm1":"Nouakchott","name_en":"Nouakchott"},"geometry":{"type":"Point","coordinates":[-15.95,18.1]}},{"type":"feature","properties":{"country_en":"Mauritania","name":"Cansado","name_adm0":"Mauritanie","name_adm1":"Dakhlet Nouadhibou","name_en":"Cansado"},"geometry":{"type":"Point","coordinates":[-17.05306,20.84694]}},{"type":"feature","properties":{"country_en":"Mauritania","name":"Gouraye","name_adm0":"Mauritanie","name_adm1":"Guidimaka","name_en":"Gouraye"},"geometry":{"type":"Point","coordinates":[-12.44891,14.89927]}},{"type":"feature","properties":{"country_en":"Mauritania","name":"نواكشوط‎","name_adm0":"Mauritanie","name_adm1":"Nouakchott","name_en":"Nouakchott"},"geometry":{"type":"Point","coordinates":[-15.983744,18.088014]}},{"type":"feature","properties":{"country_en":"Mauritania","name":"Tintane","name_adm0":"Mauritanie","name_adm1":"Hodh El Gharbi","name_en":"Tintane"},"geometry":{"type":"Point","coordinates":[-10.1737,16.3946]}},{"type":"feature","properties":{"country_en":"Mauritania","name":"Hodh Ech Chargui","name_adm0":"Mauritanie","name_adm1":"Hodh Ech Chargui","name_en":"Hodh Ech Chargui"},"geometry":{"type":"Point","coordinates":[-6.6796869999999995,16.533435]}},{"type":"feature","properties":{"country_en":"Mauritania","name":"Chinguetti","name_adm0":"Mauritanie","name_adm1":"Adrar","name_en":"Chinguetti"},"geometry":{"type":"Point","coordinates":[-12.2622,20.44036]}},{"type":"feature","properties":{"country_en":"Mauritania","name":"Dara","name_adm0":"Mauritanie","name_adm1":"Trarza","name_en":"Dara"},"geometry":{"type":"Point","coordinates":[-16.12908,16.60714]}},{"type":"feature","properties":{"country_en":"Mauritania","name":"Diogountourou","name_adm0":"Mauritanie","name_adm1":"Guidimaka","name_en":"Diogountourou"},"geometry":{"type":"Point","coordinates":[-12.2509,14.77]}},{"type":"feature","properties":{"country_en":"Mauritania","name":"Tichit","name_adm0":"Mauritanie","name_adm1":"Tagant","name_en":"Tichit"},"geometry":{"type":"Point","coordinates":[-9.493939999999998,18.44134]}},{"type":"feature","properties":{"country_en":"Mauritania","name":"Oualata","name_adm0":"Mauritanie","name_adm1":"Hodh Ech Chargui","name_en":"Oualata"},"geometry":{"type":"Point","coordinates":[-7.0256,17.3014]}},{"type":"feature","properties":{"country_en":"Mauritania","name":"Ouadane","name_adm0":"Mauritanie","name_adm1":"Adrar","name_en":"Ouadane"},"geometry":{"type":"Point","coordinates":[-11.62138,20.92767]}},{"type":"feature","properties":{"country_en":"Mauritania","name":"El Kseiba","name_adm0":"Mauritanie","name_adm1":"Gorgol","name_en":"El Kseiba"},"geometry":{"type":"Point","coordinates":[-13.14493,16.21584]}},{"type":"feature","properties":{"country_en":"Mauritania","name":"El Baghoui","name_adm0":"Mauritanie","name_adm1":"Assaba","name_en":"El Baghoui"},"geometry":{"type":"Point","coordinates":[-11.03607,15.973199999999999]}},{"type":"feature","properties":{"country_en":"Mauritania","name":"Boumdeit","name_adm0":"Mauritanie","name_adm1":"Assaba","name_en":"Boumdeit"},"geometry":{"type":"Point","coordinates":[-11.3434,17.4454]}},{"type":"feature","properties":{"country_en":"Mauritania","name":"Agouenit","name_adm0":"Mauritanie","name_adm1":"Hodh Ech Chargui","name_en":"Agouenit"},"geometry":{"type":"Point","coordinates":[-7.550299999999999,16.7144]}},{"type":"feature","properties":{"country_en":"Mauritania","name":"Djajibine","name_adm0":"Mauritanie","name_adm1":"Gorgol","name_en":"Djajibine"},"geometry":{"type":"Point","coordinates":[-12.48312,15.74838]}},{"type":"feature","properties":{"country_en":"Mauritania","name":"Harr","name_adm0":"Mauritanie","name_adm1":"Guidimaka","name_en":"Harr"},"geometry":{"type":"Point","coordinates":[-12.550589999999998,15.288250000000001]}},{"type":"feature","properties":{"country_en":"Mauritania","name":"Tidjikja","name_adm0":"Mauritanie","name_adm1":"Tagant","name_en":"Tidjikja"},"geometry":{"type":"Point","coordinates":[-11.42715,18.556439999999995]}},{"type":"feature","properties":{"country_en":"Mauritania","name":"Bir Mogrein","name_adm0":"Mauritanie","name_adm1":"Tiris Zemmour","name_en":"Bir Mogrein"},"geometry":{"type":"Point","coordinates":[-11.57928,25.221249999999998]}},{"type":"feature","properties":{"country_en":"Mauritania","name":"Mbout","name_adm0":"Mauritanie","name_adm1":"Gorgol","name_en":"Mbout"},"geometry":{"type":"Point","coordinates":[-12.58379,16.02157]}},{"type":"feature","properties":{"country_en":"Mauritania","name":"Moudjeria","name_adm0":"Mauritanie","name_adm1":"Tagant","name_en":"Moudjeria"},"geometry":{"type":"Point","coordinates":[-12.33185,17.87364]}},{"type":"feature","properties":{"country_en":"Mauritania","name":"Boutilimit","name_adm0":"Mauritanie","name_adm1":"Trarza","name_en":"Boutilimit"},"geometry":{"type":"Point","coordinates":[-14.694399999999998,17.5467]}},{"type":"feature","properties":{"country_en":"Mauritania","name":"Bababe","name_adm0":"Mauritanie","name_adm1":"Brakna","name_en":"Bababe"},"geometry":{"type":"Point","coordinates":[-13.95287,16.3371]}},{"type":"feature","properties":{"country_en":"Mauritania","name":"Bogue","name_adm0":"Mauritanie","name_adm1":"Brakna","name_en":"Bogue"},"geometry":{"type":"Point","coordinates":[-14.26309,16.59153]}},{"type":"feature","properties":{"country_en":"Mauritania","name":"Bassikounou","name_adm0":"Mauritanie","name_adm1":"Hodh Ech Chargui","name_en":"Bassikounou"},"geometry":{"type":"Point","coordinates":[-5.946799999999999,15.8656]}},{"type":"feature","properties":{"country_en":"Mauritania","name":"Zouerat","name_adm0":"Mauritanie","name_adm1":"Tiris Zemmour","name_en":"Zouerat"},"geometry":{"type":"Point","coordinates":[-12.45205,22.71873]}},{"type":"feature","properties":{"country_en":"Mauritania","name":"Barkeouol","name_adm0":"Mauritanie","name_adm1":"Brakna","name_en":"Barkeouol"},"geometry":{"type":"Point","coordinates":[-13.06104,16.64882]}},{"type":"feature","properties":{"country_en":"Mauritania","name":"Tamchaket","name_adm0":"Mauritanie","name_adm1":"Hodh El Gharbi","name_en":"Tamchaket"},"geometry":{"type":"Point","coordinates":[-10.6706,17.242199999999997]}},{"type":"feature","properties":{"country_en":"Mauritania","name":"Artemou","name_adm0":"Mauritanie","name_adm1":"Guidimaka","name_en":"Artemou"},"geometry":{"type":"Point","coordinates":[-12.27555,15.51233]}},{"type":"feature","properties":{"country_en":"Mauritania","name":"Monguel","name_adm0":"Mauritanie","name_adm1":"Gorgol","name_en":"Monguel"},"geometry":{"type":"Point","coordinates":[-13.140869999999998,16.42361]}},{"type":"feature","properties":{"country_en":"Mauritania","name":"Mbagne","name_adm0":"Mauritanie","name_adm1":"Brakna","name_en":"Mbagne"},"geometry":{"type":"Point","coordinates":[-13.79258,16.14497]}},{"type":"feature","properties":{"country_en":"Mauritania","name":"Idini","name_adm0":"Mauritanie","name_adm1":"Trarza","name_en":"Idini"},"geometry":{"type":"Point","coordinates":[-15.459079999999998,17.95192]}},{"type":"feature","properties":{"country_en":"Mauritania","name":"Kataouane","name_adm0":"Mauritanie","name_adm1":"Hodh Ech Chargui","name_en":"Kataouane"},"geometry":{"type":"Point","coordinates":[-6.77321,16.06977]}},{"type":"feature","properties":{"country_en":"Mauritania","name":"Kobenni","name_adm0":"Mauritanie","name_adm1":"Hodh El Gharbi","name_en":"Kobenni"},"geometry":{"type":"Point","coordinates":[-9.36528,15.81722]}},{"type":"feature","properties":{"country_en":"Mauritania","name":"Port-Etienne","name_adm0":"Mauritanie","name_adm1":"Dakhlet Nouadhibou","name_en":"Port-Etienne"},"geometry":{"type":"Point","coordinates":[-17.03465,20.93098]}}]}