{"type":"FeatureCollection","features":[{"type":"feature","properties":{"country_en":"Montserrat","name":"Drummond's","name_adm0":"Montserrat","name_adm1":"Saint Peter","name_en":"Drummond's"},"geometry":{"type":"Point","coordinates":[-62.168915,16.767031]}},{"type":"feature","properties":{"country_en":"Montserrat","name":"Glen Mhor","name_adm0":"Montserrat","name_adm1":"Saint Anthony","name_en":"Glen Mhor"},"geometry":{"type":"Point","coordinates":[-62.199999999999996,16.7]}},{"type":"feature","properties":{"country_en":"Montserrat","name":"Pond Bottom","name_adm0":"Montserrat","name_adm1":"Saint Peter","name_en":"Pond Bottom"},"geometry":{"type":"Point","coordinates":[-62.199999999999996,16.76667]}},{"type":"feature","properties":{"country_en":"Montserrat","name":"Fleming","name_adm0":"Montserrat","name_adm1":"Saint Peter","name_en":"Fleming"},"geometry":{"type":"Point","coordinates":[-62.199999999999996,16.73333]}},{"type":"feature","properties":{"country_en":"Montserrat","name":"Black Ghaut Basin","name_adm0":"Montserrat","name_adm1":"Saint Peter","name_en":"Black Ghaut Basin"},"geometry":{"type":"Point","coordinates":[-62.199999999999996,16.78333]}},{"type":"feature","properties":{"country_en":"Montserrat","name":"Montserrat","name_adm0":"Montserrat","name_en":"Montserrat"},"geometry":{"type":"Point","coordinates":[-62.194499,16.744159]}},{"type":"feature","properties":{"country_en":"Montserrat","name":"Beech Hill","name_adm0":"Montserrat","name_adm1":"Saint Georges","name_en":"Beech Hill"},"geometry":{"type":"Point","coordinates":[-62.18333,16.71667]}},{"type":"feature","properties":{"country_en":"Montserrat","name":"Nixons","name_adm0":"Montserrat","name_adm1":"Saint Peter","name_en":"Nixons"},"geometry":{"type":"Point","coordinates":[-62.199999999999996,16.76667]}},{"type":"feature","properties":{"country_en":"Montserrat","name":"Old Towne","name_adm0":"Montserrat","name_adm1":"Saint Peter","name_en":"Old Towne"},"geometry":{"type":"Point","coordinates":[-62.23369,16.74693]}},{"type":"feature","properties":{"country_en":"Montserrat","name":"Olveston","name_adm0":"Montserrat","name_adm1":"Saint Peter","name_en":"Olveston"},"geometry":{"type":"Point","coordinates":[-62.23,16.74767]}},{"type":"feature","properties":{"country_en":"Montserrat","name":"Rocklands","name_adm0":"Montserrat","name_adm1":"Saint Peter","name_en":"Rocklands"},"geometry":{"type":"Point","coordinates":[-62.21666999999999,16.76667]}},{"type":"feature","properties":{"country_en":"Montserrat","name":"Saint Anthony","name_adm0":"Montserrat","name_adm1":"Saint Anthony","name_en":"Saint Anthony"},"geometry":{"type":"Point","coordinates":[-62.199999999999996,16.7]}},{"type":"feature","properties":{"country_en":"Montserrat","name":"Saint Georges","name_adm0":"Montserrat","name_adm1":"Saint Georges","name_en":"Saint Georges"},"geometry":{"type":"Point","coordinates":[-62.199999999999996,16.76667]}},{"type":"feature","properties":{"country_en":"Montserrat","name":"Saint Peter","name_adm0":"Montserrat","name_adm1":"Saint Peter","name_en":"Saint Peter"},"geometry":{"type":"Point","coordinates":[-62.199999999999996,16.78333]}},{"type":"feature","properties":{"country_en":"Montserrat","name":"Richmond","name_adm0":"Montserrat","name_adm1":"Saint Anthony","name_en":"Richmond"},"geometry":{"type":"Point","coordinates":[-61.46667,16.399999999999995]}},{"type":"feature","properties":{"country_en":"Montserrat","name":"Parsons","name_adm0":"Montserrat","name_adm1":"Saint Anthony","name_en":"Parsons"},"geometry":{"type":"Point","coordinates":[-61.78333,17.01667]}},{"type":"feature","properties":{"country_en":"Montserrat","name":"Dagenham","name_adm0":"Montserrat","name_adm1":"Saint Anthony","name_en":"Dagenham"},"geometry":{"type":"Point","coordinates":[-62.21666999999999,16.7]}},{"type":"feature","properties":{"country_en":"Montserrat","name":"Iles Bay","name_adm0":"Montserrat","name_adm1":"Saint Peter","name_en":"Iles Bay"},"geometry":{"type":"Point","coordinates":[-62.219095,16.728933]}}]}