{"type":"FeatureCollection","features":[{"type":"feature","properties":{"country_en":"Malaysia","name":"Kampung Paya Suri","name_adm0":"Malaysia","name_adm1":"Kedah","name_adm2":"Kuala Muda","name_en":"Kampung Paya Suri"},"geometry":{"type":"Point","coordinates":[100.47128,5.70895]}},{"type":"feature","properties":{"country_en":"Malaysia","name":"Putra Height","name_adm0":"Malaysia","name_adm1":"Selangor","name_adm2":"Petaling","name_en":"Putra Height"},"geometry":{"type":"Point","coordinates":[101.565103,2.995605]}},{"type":"feature","properties":{"country_en":"Malaysia","name":"Keningau","name_adm0":"Malaysia","name_adm1":"Sabah","name_adm2":"Division Pedalaman","name_en":"Keningau"},"geometry":{"type":"Point","coordinates":[116.18282299999998,5.369586]}},{"type":"feature","properties":{"country_en":"Malaysia","name":"Taman Iskandar","name_adm0":"Malaysia","name_adm1":"Johor","name_adm2":"Johor Bahru","name_en":"Taman Iskandar"},"geometry":{"type":"Point","coordinates":[103.7869,1.4909999999999999]}},{"type":"feature","properties":{"country_en":"Malaysia","name":"Kampong Manggis","name_adm0":"Malaysia","name_adm1":"Sabah","name_adm2":"Division Pedalaman","name_en":"Kampong Manggis"},"geometry":{"type":"Point","coordinates":[115.41666999999998,5.38333]}},{"type":"feature","properties":{"country_en":"Malaysia","name":"Kampong Assam Jawa","name_adm0":"Malaysia","name_adm1":"Kedah","name_adm2":"Baling","name_en":"Kampong Assam Jawa"},"geometry":{"type":"Point","coordinates":[100.53333,5.98333]}},{"type":"feature","properties":{"country_en":"Malaysia","name":"Kampong Gelugor Raja","name_adm0":"Malaysia","name_adm1":"Terengganu","name_adm2":"Kuala Terengganu","name_en":"Kampong Gelugor Raja"},"geometry":{"type":"Point","coordinates":[103.126,5.2854]}},{"type":"feature","properties":{"country_en":"Malaysia","name":"Kampong Rambungan","name_adm0":"Malaysia","name_adm1":"Sarawak","name_adm2":"Division Kuching","name_en":"Kampong Rambungan"},"geometry":{"type":"Point","coordinates":[110.11667,1.7]}},{"type":"feature","properties":{"country_en":"Malaysia","name":"Kampong Seri Gading","name_adm0":"Malaysia","name_adm1":"Johor","name_adm2":"Batu Pahat","name_en":"Kampong Seri Gading"},"geometry":{"type":"Point","coordinates":[103.03049999999999,1.8687999999999998]}},{"type":"feature","properties":{"country_en":"Malaysia","name":"Lawas","name_adm0":"Malaysia","name_adm1":"Sarawak","name_adm2":"Division Limbang","name_en":"Lawas"},"geometry":{"type":"Point","coordinates":[115.4071215,4.861956]}},{"type":"feature","properties":{"country_en":"Malaysia","name":"Marang","name_adm0":"Malaysia","name_adm1":"Terengganu","name_adm2":"Marang","name_en":"Marang"},"geometry":{"type":"Point","coordinates":[103.265132,5.23387]}},{"type":"feature","properties":{"country_en":"Malaysia","name":"Gertak Merah","name_adm0":"Malaysia","name_adm1":"Johor","name_adm2":"Johor Bahru","name_en":"Gertak Merah"},"geometry":{"type":"Point","coordinates":[103.751835,1.457955]}},{"type":"feature","properties":{"country_en":"Malaysia","name":"Taman Central","name_adm0":"Malaysia","name_adm1":"Sarawak","name_adm2":"Division Kuching","name_en":"Taman Central"},"geometry":{"type":"Point","coordinates":[110.35891,1.552975]}},{"type":"feature","properties":{"country_en":"Malaysia","name":"Taman Delight","name_adm0":"Malaysia","name_adm1":"Sarawak","name_adm2":"Division Miri","name_en":"Taman Delight"},"geometry":{"type":"Point","coordinates":[113.9671295,4.323132]}},{"type":"feature","properties":{"country_en":"Malaysia","name":"Taman Perindustrian","name_adm0":"Malaysia","name_adm1":"Selangor","name_adm2":"Petaling","name_en":"Taman Perindustrian"},"geometry":{"type":"Point","coordinates":[101.574783,3.0457895]}},{"type":"feature","properties":{"country_en":"Malaysia","name":"Taman Senangin","name_adm0":"Malaysia","name_adm1":"Kedah","name_adm2":"Kulim","name_en":"Taman Senangin"},"geometry":{"type":"Point","coordinates":[100.45911,5.40718]}},{"type":"feature","properties":{"country_en":"Malaysia","name":"Taman Teratai Mewah","name_adm0":"Malaysia","name_adm1":"Kuala Lumpur","name_adm2":"Kuala Lumpur","name_en":"Taman Teratai Mewah"},"geometry":{"type":"Point","coordinates":[101.711769,3.202776]}},{"type":"feature","properties":{"country_en":"Malaysia","name":"Kampong Kubang Pasu","name_adm0":"Malaysia","name_adm1":"Kedah","name_adm2":"Kubang Pasu","name_en":"Kampong Kubang Pasu"},"geometry":{"type":"Point","coordinates":[100.43333,6.38333]}},{"type":"feature","properties":{"country_en":"Malaysia","name":"Kampong Alor Melintang","name_adm0":"Malaysia","name_adm1":"Kedah","name_adm2":"Kota Setar","name_en":"Kampong Alor Melintang"},"geometry":{"type":"Point","coordinates":[100.41666999999998,6.099999999999999]}},{"type":"feature","properties":{"country_en":"Malaysia","name":"Kampong Alor Pudak","name_adm0":"Malaysia","name_adm1":"Kedah","name_adm2":"Yan","name_en":"Kampong Alor Pudak"},"geometry":{"type":"Point","coordinates":[100.38302,5.97291]}},{"type":"feature","properties":{"country_en":"Malaysia","name":"Kampong Alor Pulai","name_adm0":"Malaysia","name_adm1":"Kedah","name_adm2":"Kota Setar","name_en":"Kampong Alor Pulai"},"geometry":{"type":"Point","coordinates":[100.34119,6.012619999999999]}},{"type":"feature","properties":{"country_en":"Malaysia","name":"Kampong Asam Kumbang","name_adm0":"Malaysia","name_adm1":"Kedah","name_adm2":"Bandar Baharu","name_en":"Kampong Asam Kumbang"},"geometry":{"type":"Point","coordinates":[100.71667,4.86667]}},{"type":"feature","properties":{"country_en":"Malaysia","name":"Kampong Aur","name_adm0":"Malaysia","name_adm1":"Pahang","name_adm2":"Rompin","name_en":"Kampong Aur"},"geometry":{"type":"Point","coordinates":[104.31667,2.58333]}},{"type":"feature","properties":{"country_en":"Malaysia","name":"Kampong Ayer Jawi","name_adm0":"Malaysia","name_adm1":"Pulau Pinang","name_adm2":"Seberang Perai Utara","name_en":"Kampong Ayer Jawi"},"geometry":{"type":"Point","coordinates":[100.38333,5.58333]}},{"type":"feature","properties":{"country_en":"Malaysia","name":"Kampong Ayer Panas","name_adm0":"Malaysia","name_adm1":"Perak","name_adm2":"Hulu Perak","name_en":"Kampong Ayer Panas"},"geometry":{"type":"Point","coordinates":[101.11667,5.3999999999999995]}},{"type":"feature","properties":{"country_en":"Malaysia","name":"Kampong Bagan Jermal","name_adm0":"Malaysia","name_adm1":"Pulau Pinang","name_adm2":"Seberang Perai Utara","name_en":"Kampong Bagan Jermal"},"geometry":{"type":"Point","coordinates":[100.37689999999999,5.43112]}},{"type":"feature","properties":{"country_en":"Malaysia","name":"Kampong Bagus","name_adm0":"Malaysia","name_adm1":"Kelantan","name_adm2":"Pasir Mas","name_en":"Kampong Bagus"},"geometry":{"type":"Point","coordinates":[101.97399999999999,6.0028]}},{"type":"feature","properties":{"country_en":"Malaysia","name":"Kampong Batu Puteh","name_adm0":"Malaysia","name_adm1":"Terengganu","name_adm2":"Kemaman","name_en":"Kampong Batu Puteh"},"geometry":{"type":"Point","coordinates":[103.3045,4.971399999999999]}},{"type":"feature","properties":{"country_en":"Malaysia","name":"Kampong Batu Seketul","name_adm0":"Malaysia","name_adm1":"Kedah","name_adm2":"Sik","name_en":"Kampong Batu Seketul"},"geometry":{"type":"Point","coordinates":[100.81059,5.97883]}},{"type":"feature","properties":{"country_en":"Malaysia","name":"Kampong Batu Talam","name_adm0":"Malaysia","name_adm1":"Pahang","name_adm2":"Raub","name_en":"Kampong Batu Talam"},"geometry":{"type":"Point","coordinates":[101.79229999999998,3.9681999999999995]}},{"type":"feature","properties":{"country_en":"Malaysia","name":"Kampong Batu Tiga Suku","name_adm0":"Malaysia","name_adm1":"Selangor","name_adm2":"Petaling","name_en":"Kampong Batu Tiga Suku"},"geometry":{"type":"Point","coordinates":[101.6,3.0166699999999995]}},{"type":"feature","properties":{"country_en":"Malaysia","name":"Kampong Cheneh","name_adm0":"Malaysia","name_adm1":"Pahang","name_adm2":"Jerantut","name_en":"Kampong Cheneh"},"geometry":{"type":"Point","coordinates":[102.66666999999998,4.48333]}},{"type":"feature","properties":{"country_en":"Malaysia","name":"Kampong Batu Maung","name_adm0":"Malaysia","name_adm1":"Pulau Pinang","name_adm2":"Barat Daya","name_en":"Kampong Batu Maung"},"geometry":{"type":"Point","coordinates":[100.29049,5.28026]}},{"type":"feature","properties":{"country_en":"Malaysia","name":"Kampong Belida","name_adm0":"Malaysia","name_adm1":"Kedah","name_adm2":"Baling","name_en":"Kampong Belida"},"geometry":{"type":"Point","coordinates":[100.66667,5.65]}},{"type":"feature","properties":{"country_en":"Malaysia","name":"Kampong Belimbing","name_adm0":"Malaysia","name_adm1":"Kelantan","name_adm2":"Jeli","name_en":"Kampong Belimbing"},"geometry":{"type":"Point","coordinates":[101.73333,5.683329999999999]}},{"type":"feature","properties":{"country_en":"Malaysia","name":"Kampong Beng","name_adm0":"Malaysia","name_adm1":"Perak","name_adm2":"Hulu Perak","name_en":"Kampong Beng"},"geometry":{"type":"Point","coordinates":[100.98333,5.01667]}},{"type":"feature","properties":{"country_en":"Malaysia","name":"Kampong Berangan","name_adm0":"Malaysia","name_adm1":"Kelantan","name_adm2":"Kota Bharu","name_en":"Kampong Berangan"},"geometry":{"type":"Point","coordinates":[102.23333,6]}},{"type":"feature","properties":{"country_en":"Malaysia","name":"Kampong Berapit","name_adm0":"Malaysia","name_adm1":"Kedah","name_adm2":"Kuala Muda","name_en":"Kampong Berapit"},"geometry":{"type":"Point","coordinates":[100.43705,5.59325]}},{"type":"feature","properties":{"country_en":"Malaysia","name":"Kampong Beriku","name_adm0":"Malaysia","name_adm1":"Negeri Sembilan","name_adm2":"Tampin","name_en":"Kampong Beriku"},"geometry":{"type":"Point","coordinates":[102.5121,2.6682]}},{"type":"feature","properties":{"country_en":"Malaysia","name":"Kampong Beting Lintang","name_adm0":"Malaysia","name_adm1":"Terengganu","name_adm2":"Besut","name_en":"Kampong Beting Lintang"},"geometry":{"type":"Point","coordinates":[102.65945,5.73394]}},{"type":"feature","properties":{"country_en":"Malaysia","name":"Kampong Binjai","name_adm0":"Malaysia","name_adm1":"Kelantan","name_adm2":"Kota Bharu","name_en":"Kampong Binjai"},"geometry":{"type":"Point","coordinates":[102.18333,6.18333]}},{"type":"feature","properties":{"country_en":"Malaysia","name":"Kampong Bukit Iboi","name_adm0":"Malaysia","name_adm1":"Kedah","name_adm2":"Baling","name_en":"Kampong Bukit Iboi"},"geometry":{"type":"Point","coordinates":[100.86168,5.57712]}},{"type":"feature","properties":{"country_en":"Malaysia","name":"Kampong Bukit Jambul","name_adm0":"Malaysia","name_adm1":"Kedah","name_adm2":"Pendang","name_en":"Kampong Bukit Jambul"},"geometry":{"type":"Point","coordinates":[100.46666999999998,5.95]}},{"type":"feature","properties":{"country_en":"Malaysia","name":"Kampong Changkat Sentul","name_adm0":"Malaysia","name_adm1":"Kedah","name_adm2":"Kubang Pasu","name_en":"Kampong Changkat Sentul"},"geometry":{"type":"Point","coordinates":[100.46666999999998,6.433329999999999]}},{"type":"feature","properties":{"country_en":"Malaysia","name":"Kampong Changkat Tualang","name_adm0":"Malaysia","name_adm1":"Perak","name_adm2":"Kinta","name_en":"Kampong Changkat Tualang"},"geometry":{"type":"Point","coordinates":[101.0885,4.4283]}},{"type":"feature","properties":{"country_en":"Malaysia","name":"Kampong Charok Kudong","name_adm0":"Malaysia","name_adm1":"Kedah","name_adm2":"Pendang","name_en":"Kampong Charok Kudong"},"geometry":{"type":"Point","coordinates":[100.51667,6]}},{"type":"feature","properties":{"country_en":"Malaysia","name":"Kampong Chat","name_adm0":"Malaysia","name_adm1":"Pahang","name_adm2":"Lipis","name_en":"Kampong Chat"},"geometry":{"type":"Point","coordinates":[101.981,3.9736]}},{"type":"feature","properties":{"country_en":"Malaysia","name":"Kampong Dangi","name_adm0":"Malaysia","name_adm1":"Negeri Sembilan","name_adm2":"Kuala Pilah","name_en":"Kampong Dangi"},"geometry":{"type":"Point","coordinates":[102.3207,2.6457]}},{"type":"feature","properties":{"country_en":"Malaysia","name":"Kampong Darat","name_adm0":"Malaysia","name_adm1":"Kedah","name_adm2":"Kubang Pasu","name_en":"Kampong Darat"},"geometry":{"type":"Point","coordinates":[100.45,6.4]}},{"type":"feature","properties":{"country_en":"Malaysia","name":"Kampong Darat","name_adm0":"Malaysia","name_adm1":"Kedah","name_adm2":"Kubang Pasu","name_en":"Kampong Darat"},"geometry":{"type":"Point","coordinates":[100.36666999999998,6.33333]}},{"type":"feature","properties":{"country_en":"Malaysia","name":"Kampong Delek","name_adm0":"Malaysia","name_adm1":"Selangor","name_adm2":"Klang","name_en":"Kampong Delek"},"geometry":{"type":"Point","coordinates":[101.41667,3.03333]}},{"type":"feature","properties":{"country_en":"Malaysia","name":"Kampong Delong","name_adm0":"Malaysia","name_adm1":"Terengganu","name_adm2":"Dungun","name_en":"Kampong Delong"},"geometry":{"type":"Point","coordinates":[103.3,4.81667]}},{"type":"feature","properties":{"country_en":"Malaysia","name":"Kampong Durian Kasim","name_adm0":"Malaysia","name_adm1":"Terengganu","name_adm2":"Hulu Terengganu","name_en":"Kampong Durian Kasim"},"geometry":{"type":"Point","coordinates":[103.1328,5.0181]}},{"type":"feature","properties":{"country_en":"Malaysia","name":"Kampong Durian Mentangau","name_adm0":"Malaysia","name_adm1":"Terengganu","name_adm2":"Dungun","name_en":"Kampong Durian Mentangau"},"geometry":{"type":"Point","coordinates":[103.35,4.68333]}},{"type":"feature","properties":{"country_en":"Malaysia","name":"Kampong Durian Sebatang","name_adm0":"Malaysia","name_adm1":"Pahang","name_adm2":"Raub","name_en":"Kampong Durian Sebatang"},"geometry":{"type":"Point","coordinates":[101.0236,4.0309]}},{"type":"feature","properties":{"country_en":"Malaysia","name":"Kampong Durian Tawar","name_adm0":"Malaysia","name_adm1":"Pahang","name_adm2":"Bera","name_en":"Kampong Durian Tawar"},"geometry":{"type":"Point","coordinates":[102.4441,3.3473]}},{"type":"feature","properties":{"country_en":"Malaysia","name":"Kampong Ganchong Tengah","name_adm0":"Malaysia","name_adm1":"Pahang","name_adm2":"Pekan","name_en":"Kampong Ganchong Tengah"},"geometry":{"type":"Point","coordinates":[103.2891,3.5434999999999994]}},{"type":"feature","properties":{"country_en":"Malaysia","name":"Kampong Gandai","name_adm0":"Malaysia","name_adm1":"Kedah","name_adm2":"Kubang Pasu","name_en":"Kampong Gandai"},"geometry":{"type":"Point","coordinates":[100.25,6.233329999999999]}},{"type":"feature","properties":{"country_en":"Malaysia","name":"Kampong Gatal","name_adm0":"Malaysia","name_adm1":"Kelantan","name_adm2":"Kuala Krai","name_en":"Kampong Gatal"},"geometry":{"type":"Point","coordinates":[102.21667,5.53333]}},{"type":"feature","properties":{"country_en":"Malaysia","name":"Kampong Gintong","name_adm0":"Malaysia","name_adm1":"Pahang","name_adm2":"Jerantut","name_en":"Kampong Gintong"},"geometry":{"type":"Point","coordinates":[102.38332999999999,3.6166699999999996]}},{"type":"feature","properties":{"country_en":"Malaysia","name":"Kampong Gobek","name_adm0":"Malaysia","name_adm1":"Kelantan","name_adm2":"Tanah Merah","name_en":"Kampong Gobek"},"geometry":{"type":"Point","coordinates":[102.09999999999998,5.71667]}},{"type":"feature","properties":{"country_en":"Malaysia","name":"Kampong Gondang","name_adm0":"Malaysia","name_adm1":"Kelantan","name_adm2":"Kota Bharu","name_en":"Kampong Gondang"},"geometry":{"type":"Point","coordinates":[102.2,5.93333]}},{"type":"feature","properties":{"country_en":"Malaysia","name":"Kampong Haji Abas","name_adm0":"Malaysia","name_adm1":"Kedah","name_adm2":"Baling","name_en":"Kampong Haji Abas"},"geometry":{"type":"Point","coordinates":[100.91667,5.683329999999999]}},{"type":"feature","properties":{"country_en":"Malaysia","name":"Kampong Hilir","name_adm0":"Malaysia","name_adm1":"Kedah","name_adm2":"Kuala Muda","name_en":"Kampong Hilir"},"geometry":{"type":"Point","coordinates":[100.41666999999998,6.2]}},{"type":"feature","properties":{"country_en":"Malaysia","name":"Kampong Jalan Badak","name_adm0":"Malaysia","name_adm1":"Perak","name_adm2":"Kuala Kangsar","name_en":"Kampong Jalan Badak"},"geometry":{"type":"Point","coordinates":[100.88333,4.63333]}},{"type":"feature","properties":{"country_en":"Malaysia","name":"Kampong Jalan Kimkee","name_adm0":"Malaysia","name_adm1":"Johor","name_adm2":"Muar","name_en":"Kampong Jalan Kimkee"},"geometry":{"type":"Point","coordinates":[102.5882,2.0791]}},{"type":"feature","properties":{"country_en":"Malaysia","name":"Kampong Jambu","name_adm0":"Malaysia","name_adm1":"Pahang","name_adm2":"Kuantan","name_en":"Kampong Jambu"},"geometry":{"type":"Point","coordinates":[102.38332999999999,3.73333]}},{"type":"feature","properties":{"country_en":"Malaysia","name":"Kampong Kelawar","name_adm0":"Malaysia","name_adm1":"Perak","name_adm2":"Batang Padang","name_en":"Kampong Kelawar"},"geometry":{"type":"Point","coordinates":[101.48333,3.7166699999999997]}},{"type":"feature","properties":{"country_en":"Malaysia","name":"Kampong Keledang","name_adm0":"Malaysia","name_adm1":"Kedah","name_adm2":"Baling","name_en":"Kampong Keledang"},"geometry":{"type":"Point","coordinates":[100.78333,5.616669999999999]}},{"type":"feature","properties":{"country_en":"Malaysia","name":"Kampong Keledang","name_adm0":"Malaysia","name_adm1":"Perak","name_adm2":"Kuala Kangsar","name_en":"Kampong Keledang"},"geometry":{"type":"Point","coordinates":[101.10139,5.580889999999999]}},{"type":"feature","properties":{"country_en":"Malaysia","name":"Kampong Keledik","name_adm0":"Malaysia","name_adm1":"Pahang","name_adm2":"Lipis","name_en":"Kampong Keledik"},"geometry":{"type":"Point","coordinates":[101.91667,4.23333]}},{"type":"feature","properties":{"country_en":"Malaysia","name":"Kampong Keliang","name_adm0":"Malaysia","name_adm1":"Selangor","name_adm2":"Hulu Selangor","name_en":"Kampong Keliang"},"geometry":{"type":"Point","coordinates":[101.5466,3.6581]}},{"type":"feature","properties":{"country_en":"Malaysia","name":"Kampong Keling","name_adm0":"Malaysia","name_adm1":"Negeri Sembilan","name_adm2":"Rembau","name_en":"Kampong Keling"},"geometry":{"type":"Point","coordinates":[102.11219999999999,2.5776]}},{"type":"feature","properties":{"country_en":"Malaysia","name":"Kampong Kuala Jerlun","name_adm0":"Malaysia","name_adm1":"Kedah","name_adm2":"Kubang Pasu","name_en":"Kampong Kuala Jerlun"},"geometry":{"type":"Point","coordinates":[100.24336999999998,6.21571]}},{"type":"feature","properties":{"country_en":"Malaysia","name":"Kampong Kuala Keboh","name_adm0":"Malaysia","name_adm1":"Pahang","name_adm2":"Kuantan","name_en":"Kampong Kuala Keboh"},"geometry":{"type":"Point","coordinates":[103.0518,4.7121]}},{"type":"feature","properties":{"country_en":"Malaysia","name":"Kampong Kuala Kenas","name_adm0":"Malaysia","name_adm1":"Perak","name_adm2":"Kuala Kangsar","name_en":"Kampong Kuala Kenas"},"geometry":{"type":"Point","coordinates":[100.93333,4.68333]}},{"type":"feature","properties":{"country_en":"Malaysia","name":"Kampong Kuala Kuang","name_adm0":"Malaysia","name_adm1":"Kedah","name_adm2":"Baling","name_en":"Kampong Kuala Kuang"},"geometry":{"type":"Point","coordinates":[100.89999999999999,5.56667]}},{"type":"feature","properties":{"country_en":"Malaysia","name":"Kampong Kundang Patah","name_adm0":"Malaysia","name_adm1":"Pahang","name_adm2":"Raub","name_en":"Kampong Kundang Patah"},"geometry":{"type":"Point","coordinates":[101.8415,3.9233999999999996]}},{"type":"feature","properties":{"country_en":"Malaysia","name":"Kampong Kundor","name_adm0":"Malaysia","name_adm1":"Kelantan","name_adm2":"Gua Musang","name_en":"Kampong Kundor"},"geometry":{"type":"Point","coordinates":[101.93333,4.88333]}},{"type":"feature","properties":{"country_en":"Malaysia","name":"Kampong Labi","name_adm0":"Malaysia","name_adm1":"Kedah","name_adm2":"Padang Terap","name_en":"Kampong Labi"},"geometry":{"type":"Point","coordinates":[100.58953,6.31966]}},{"type":"feature","properties":{"country_en":"Malaysia","name":"Kampong Labu Hilir","name_adm0":"Malaysia","name_adm1":"Negeri Sembilan","name_adm2":"Seremban","name_en":"Kampong Labu Hilir"},"geometry":{"type":"Point","coordinates":[101.8002,2.7801]}},{"type":"feature","properties":{"country_en":"Malaysia","name":"Kampong Labu Kubong","name_adm0":"Malaysia","name_adm1":"Perak","name_adm2":"Kuala Kangsar","name_en":"Kampong Labu Kubong"},"geometry":{"type":"Point","coordinates":[100.98333,4.91667]}},{"type":"feature","properties":{"country_en":"Malaysia","name":"Kampong Lalang","name_adm0":"Malaysia","name_adm1":"Perak","name_adm2":"Hulu Perak","name_en":"Kampong Lalang"},"geometry":{"type":"Point","coordinates":[101.07735,5.59996]}},{"type":"feature","properties":{"country_en":"Malaysia","name":"Kampong Lalang","name_adm0":"Malaysia","name_adm1":"Pahang","name_adm2":"Lipis","name_en":"Kampong Lalang"},"geometry":{"type":"Point","coordinates":[101.98333,4.08333]}},{"type":"feature","properties":{"country_en":"Malaysia","name":"Kampong Lalok","name_adm0":"Malaysia","name_adm1":"Kelantan","name_adm2":"Machang","name_en":"Kampong Lalok"},"geometry":{"type":"Point","coordinates":[102.2,5.683329999999999]}},{"type":"feature","properties":{"country_en":"Malaysia","name":"Kampong Lampan","name_adm0":"Malaysia","name_adm1":"Kedah","name_adm2":"Pendang","name_en":"Kampong Lampan"},"geometry":{"type":"Point","coordinates":[100.61667,6.11667]}},{"type":"feature","properties":{"country_en":"Malaysia","name":"Kampong Lembah","name_adm0":"Malaysia","name_adm1":"Kedah","name_adm2":"Kubang Pasu","name_en":"Kampong Lembah"},"geometry":{"type":"Point","coordinates":[100.43333,6.35]}},{"type":"feature","properties":{"country_en":"Malaysia","name":"Kampong Lendu","name_adm0":"Malaysia","name_adm1":"Melaka","name_adm2":"Alor Gajah","name_en":"Kampong Lendu"},"geometry":{"type":"Point","coordinates":[102.1736,2.3571]}},{"type":"feature","properties":{"country_en":"Malaysia","name":"Kampong Lengkuas","name_adm0":"Malaysia","name_adm1":"Kedah","name_adm2":"Kota Setar","name_en":"Kampong Lengkuas"},"geometry":{"type":"Point","coordinates":[100.45,6.2]}},{"type":"feature","properties":{"country_en":"Malaysia","name":"Kampong Lenjang","name_adm0":"Malaysia","name_adm1":"Terengganu","name_adm2":"Hulu Terengganu","name_en":"Kampong Lenjang"},"geometry":{"type":"Point","coordinates":[103.0419,5.0341]}},{"type":"feature","properties":{"country_en":"Malaysia","name":"Kampong Mandah","name_adm0":"Malaysia","name_adm1":"Perak","name_adm2":"Kuala Kangsar","name_en":"Kampong Mandah"},"geometry":{"type":"Point","coordinates":[100.93333,4.56667]}},{"type":"feature","properties":{"country_en":"Malaysia","name":"Kampong Manggol Kambing","name_adm0":"Malaysia","name_adm1":"Kedah","name_adm2":"Pendang","name_en":"Kampong Manggol Kambing"},"geometry":{"type":"Point","coordinates":[100.48333,5.98333]}},{"type":"feature","properties":{"country_en":"Malaysia","name":"Kampong Nibong","name_adm0":"Malaysia","name_adm1":"Terengganu","name_adm2":"Hulu Terengganu","name_en":"Kampong Nibong"},"geometry":{"type":"Point","coordinates":[102.9892,5.162]}},{"type":"feature","properties":{"country_en":"Malaysia","name":"Kampong Nyior","name_adm0":"Malaysia","name_adm1":"Terengganu","name_adm2":"Kemaman","name_en":"Kampong Nyior"},"geometry":{"type":"Point","coordinates":[103.43332999999998,4.21667]}},{"type":"feature","properties":{"country_en":"Malaysia","name":"Kampong Nyior","name_adm0":"Malaysia","name_adm1":"Pahang","name_adm2":"Jerantut","name_en":"Kampong Nyior"},"geometry":{"type":"Point","coordinates":[101.55,3.56667]}},{"type":"feature","properties":{"country_en":"Malaysia","name":"Kampong Oh","name_adm0":"Malaysia","name_adm1":"Terengganu","name_adm2":"Besut","name_en":"Kampong Oh"},"geometry":{"type":"Point","coordinates":[102.53333,5.66667]}},{"type":"feature","properties":{"country_en":"Malaysia","name":"Kampong Padang Kulim","name_adm0":"Malaysia","name_adm1":"Kedah","name_adm2":"Baling","name_en":"Kampong Padang Kulim"},"geometry":{"type":"Point","coordinates":[100.6667,5.61838]}},{"type":"feature","properties":{"country_en":"Malaysia","name":"Kampong Padang Kunyik","name_adm0":"Malaysia","name_adm1":"Perak","name_adm2":"Hulu Perak","name_en":"Kampong Padang Kunyik"},"geometry":{"type":"Point","coordinates":[101.11667,5.3999999999999995]}},{"type":"feature","properties":{"country_en":"Malaysia","name":"Kampong Padang Kunyik","name_adm0":"Malaysia","name_adm1":"Kedah","name_adm2":"Kota Setar","name_en":"Kampong Padang Kunyik"},"geometry":{"type":"Point","coordinates":[100.45,6.18333]}},{"type":"feature","properties":{"country_en":"Malaysia","name":"Kampong Padang Serai","name_adm0":"Malaysia","name_adm1":"Perak","name_adm2":"Manjung","name_en":"Kampong Padang Serai"},"geometry":{"type":"Point","coordinates":[100.6814,4.5178]}},{"type":"feature","properties":{"country_en":"Malaysia","name":"Kampong Padang Lalang","name_adm0":"Malaysia","name_adm1":"Pahang","name_adm2":"Kuantan","name_en":"Kampong Padang Lalang"},"geometry":{"type":"Point","coordinates":[103.332,3.8094]}},{"type":"feature","properties":{"country_en":"Malaysia","name":"Kampong Padang Terus","name_adm0":"Malaysia","name_adm1":"Kedah","name_adm2":"Kota Setar","name_en":"Kampong Padang Terus"},"geometry":{"type":"Point","coordinates":[100.43333,6.099999999999999]}},{"type":"feature","properties":{"country_en":"Malaysia","name":"Kampong Padang Ubi","name_adm0":"Malaysia","name_adm1":"Kedah","name_adm2":"Kulim","name_en":"Kampong Padang Ubi"},"geometry":{"type":"Point","coordinates":[100.69564,5.48611]}},{"type":"feature","properties":{"country_en":"Malaysia","name":"Kampong Pak Bong","name_adm0":"Malaysia","name_adm1":"Kedah","name_adm2":"Baling","name_en":"Kampong Pak Bong"},"geometry":{"type":"Point","coordinates":[100.86667,5.6]}},{"type":"feature","properties":{"country_en":"Malaysia","name":"Kampong Palas","name_adm0":"Malaysia","name_adm1":"Pahang","name_adm2":"Pekan","name_en":"Kampong Palas"},"geometry":{"type":"Point","coordinates":[103.4321,3.0508]}},{"type":"feature","properties":{"country_en":"Malaysia","name":"Kampong Panggong","name_adm0":"Malaysia","name_adm1":"Kelantan","name_adm2":"Pasir Puteh","name_en":"Kampong Panggong"},"geometry":{"type":"Point","coordinates":[102.35,5.83333]}},{"type":"feature","properties":{"country_en":"Malaysia","name":"Kampong Pangkal Durian","name_adm0":"Malaysia","name_adm1":"Kelantan","name_adm2":"Machang","name_en":"Kampong Pangkal Durian"},"geometry":{"type":"Point","coordinates":[102.25,5.749999999999999]}},{"type":"feature","properties":{"country_en":"Malaysia","name":"Kampong Pangkal Jenereh","name_adm0":"Malaysia","name_adm1":"Kelantan","name_adm2":"Machang","name_en":"Kampong Pangkal Jenereh"},"geometry":{"type":"Point","coordinates":[102.2,5.7]}},{"type":"feature","properties":{"country_en":"Malaysia","name":"Kampong Pasir Gajah","name_adm0":"Malaysia","name_adm1":"Perak","name_adm2":"Perak Tengah","name_en":"Kampong Pasir Gajah"},"geometry":{"type":"Point","coordinates":[100.89999999999999,4.45]}},{"type":"feature","properties":{"country_en":"Malaysia","name":"Kampong Pasir Ira","name_adm0":"Malaysia","name_adm1":"Kelantan","name_adm2":"Kuala Krai","name_en":"Kampong Pasir Ira"},"geometry":{"type":"Point","coordinates":[102.13333,5.616669999999999]}},{"type":"feature","properties":{"country_en":"Malaysia","name":"Kampong Pasir Kandang","name_adm0":"Malaysia","name_adm1":"Perak","name_adm2":"Kuala Kangsar","name_en":"Kampong Pasir Kandang"},"geometry":{"type":"Point","coordinates":[100.98333,4.88333]}},{"type":"feature","properties":{"country_en":"Malaysia","name":"Kampong Pasir Minal","name_adm0":"Malaysia","name_adm1":"Terengganu","name_adm2":"Kemaman","name_en":"Kampong Pasir Minal"},"geometry":{"type":"Point","coordinates":[103.38299999999998,4.2223]}},{"type":"feature","properties":{"country_en":"Malaysia","name":"Kampong Paya","name_adm0":"Malaysia","name_adm1":"Kedah","name_adm2":"Kuala Muda","name_en":"Kampong Paya"},"geometry":{"type":"Point","coordinates":[100.41666999999998,5.81667]}},{"type":"feature","properties":{"country_en":"Malaysia","name":"Kampong Paya Luas","name_adm0":"Malaysia","name_adm1":"Pahang","name_adm2":"Temerloh","name_en":"Kampong Paya Luas"},"geometry":{"type":"Point","coordinates":[102.33332999999999,3.7166699999999997]}},{"type":"feature","properties":{"country_en":"Malaysia","name":"Kampong Paya Panjang","name_adm0":"Malaysia","name_adm1":"Pahang","name_adm2":"Bera","name_en":"Kampong Paya Panjang"},"geometry":{"type":"Point","coordinates":[102.4962,3.3386]}},{"type":"feature","properties":{"country_en":"Malaysia","name":"Kampong Paya Pasir","name_adm0":"Malaysia","name_adm1":"Pahang","name_adm2":"Maran","name_en":"Kampong Paya Pasir"},"geometry":{"type":"Point","coordinates":[102.6383,3.5351]}},{"type":"feature","properties":{"country_en":"Malaysia","name":"Kampong Permatang Bukit Meriam","name_adm0":"Malaysia","name_adm1":"Kedah","name_adm2":"Kuala Muda","name_en":"Kampong Permatang Bukit Meriam"},"geometry":{"type":"Point","coordinates":[100.36666999999998,5.63333]}},{"type":"feature","properties":{"country_en":"Malaysia","name":"Kampong Permatang Buloh","name_adm0":"Malaysia","name_adm1":"Kedah","name_adm2":"Yan","name_en":"Kampong Permatang Buloh"},"geometry":{"type":"Point","coordinates":[100.36311,5.95607]}},{"type":"feature","properties":{"country_en":"Malaysia","name":"Kampong Permatang Katong","name_adm0":"Malaysia","name_adm1":"Kedah","name_adm2":"Kuala Muda","name_en":"Kampong Permatang Katong"},"geometry":{"type":"Point","coordinates":[100.35,5.58333]}},{"type":"feature","properties":{"country_en":"Malaysia","name":"Kampong Pulau","name_adm0":"Malaysia","name_adm1":"Kedah","name_adm2":"Kota Setar","name_en":"Kampong Pulau"},"geometry":{"type":"Point","coordinates":[100.45,6.166669999999999]}},{"type":"feature","properties":{"country_en":"Malaysia","name":"Kampong Pulau","name_adm0":"Malaysia","name_adm1":"Melaka","name_adm2":"Melaka Tengah","name_en":"Kampong Pulau"},"geometry":{"type":"Point","coordinates":[102.23333,2.2]}},{"type":"feature","properties":{"country_en":"Malaysia","name":"Kampong Pulau Berangan","name_adm0":"Malaysia","name_adm1":"Terengganu","name_adm2":"Besut","name_en":"Kampong Pulau Berangan"},"geometry":{"type":"Point","coordinates":[102.53333,5.73333]}},{"type":"feature","properties":{"country_en":"Malaysia","name":"Kampong Pulau Berangan","name_adm0":"Malaysia","name_adm1":"Negeri Sembilan","name_adm2":"Seremban","name_en":"Kampong Pulau Berangan"},"geometry":{"type":"Point","coordinates":[101.8077,2.763]}},{"type":"feature","properties":{"country_en":"Malaysia","name":"Kampong Pulau Tengah","name_adm0":"Malaysia","name_adm1":"Kedah","name_adm2":"Pendang","name_en":"Kampong Pulau Tengah"},"geometry":{"type":"Point","coordinates":[100.6,6.05]}},{"type":"feature","properties":{"country_en":"Malaysia","name":"Kampong Pulau Tengah","name_adm0":"Malaysia","name_adm1":"Pulau Pinang","name_adm2":"Timur Laut","name_en":"Kampong Pulau Tengah"},"geometry":{"type":"Point","coordinates":[100.2831,5.32611]}},{"type":"feature","properties":{"country_en":"Malaysia","name":"Kampong Pulau Timbul","name_adm0":"Malaysia","name_adm1":"Kedah","name_adm2":"Kubang Pasu","name_en":"Kampong Pulau Timbul"},"geometry":{"type":"Point","coordinates":[100.36666999999998,6.26667]}},{"type":"feature","properties":{"country_en":"Malaysia","name":"Kampong Sepulai","name_adm0":"Malaysia","name_adm1":"Kelantan","name_adm2":"Pasir Puteh","name_en":"Kampong Sepulai"},"geometry":{"type":"Point","coordinates":[102.46667,5.86667]}},{"type":"feature","properties":{"country_en":"Malaysia","name":"Kampong Seputeh","name_adm0":"Malaysia","name_adm1":"Kedah","name_adm2":"Baling","name_en":"Kampong Seputeh"},"geometry":{"type":"Point","coordinates":[100.76667,5.53333]}},{"type":"feature","properties":{"country_en":"Malaysia","name":"Kampong Serandu","name_adm0":"Malaysia","name_adm1":"Pahang","name_adm2":"Pekan","name_en":"Kampong Serandu"},"geometry":{"type":"Point","coordinates":[103.4158,3.5763]}},{"type":"feature","properties":{"country_en":"Malaysia","name":"Kampong Serdang","name_adm0":"Malaysia","name_adm1":"Perak","name_adm2":"Manjung","name_en":"Kampong Serdang"},"geometry":{"type":"Point","coordinates":[100.91667,4.8]}},{"type":"feature","properties":{"country_en":"Malaysia","name":"Kampong Sungai Bari","name_adm0":"Malaysia","name_adm1":"Terengganu","name_adm2":"Setiu","name_en":"Kampong Sungai Bari"},"geometry":{"type":"Point","coordinates":[102.85599999999998,5.4066]}},{"type":"feature","properties":{"country_en":"Malaysia","name":"Kampong Sungai Batang","name_adm0":"Malaysia","name_adm1":"Perak","name_adm2":"Hilir Perak","name_en":"Kampong Sungai Batang"},"geometry":{"type":"Point","coordinates":[100.7906,3.8971]}},{"type":"feature","properties":{"country_en":"Malaysia","name":"Kampong Sungai Batu","name_adm0":"Malaysia","name_adm1":"Kedah","name_adm2":"Baling","name_en":"Kampong Sungai Batu"},"geometry":{"type":"Point","coordinates":[100.91667,5.683329999999999]}},{"type":"feature","properties":{"country_en":"Malaysia","name":"Kampong Sungai Rapat","name_adm0":"Malaysia","name_adm1":"Perak","name_adm2":"Kinta","name_en":"Kampong Sungai Rapat"},"geometry":{"type":"Point","coordinates":[101.1086,4.5742]}},{"type":"feature","properties":{"country_en":"Malaysia","name":"Kampong Sungai Raya","name_adm0":"Malaysia","name_adm1":"Selangor","name_adm2":"Hulu Langat","name_en":"Kampong Sungai Raya"},"geometry":{"type":"Point","coordinates":[101.76667,3.06667]}},{"type":"feature","properties":{"country_en":"Malaysia","name":"Kampong Tanjong Belanja","name_adm0":"Malaysia","name_adm1":"Pahang","name_adm2":"Jerantut","name_en":"Kampong Tanjong Belanja"},"geometry":{"type":"Point","coordinates":[102.41667,3.7833299999999994]}},{"type":"feature","properties":{"country_en":"Malaysia","name":"Kampong Tanjong Kapor","name_adm0":"Malaysia","name_adm1":"Kedah","name_adm2":"Kubang Pasu","name_en":"Kampong Tanjong Kapor"},"geometry":{"type":"Point","coordinates":[100.39444,6.23472]}},{"type":"feature","properties":{"country_en":"Malaysia","name":"Kampong Tanjong Minyak","name_adm0":"Malaysia","name_adm1":"Melaka","name_adm2":"Melaka Tengah","name_en":"Kampong Tanjong Minyak"},"geometry":{"type":"Point","coordinates":[102.2004,2.2666]}},{"type":"feature","properties":{"country_en":"Malaysia","name":"Kampong Tanjong Nipis","name_adm0":"Malaysia","name_adm1":"Perak","name_adm2":"Kerian","name_en":"Kampong Tanjong Nipis"},"geometry":{"type":"Point","coordinates":[100.46666999999998,5.01667]}},{"type":"feature","properties":{"country_en":"Malaysia","name":"Kampong Tanjong Pagan","name_adm0":"Malaysia","name_adm1":"Terengganu","name_adm2":"Dungun","name_en":"Kampong Tanjong Pagan"},"geometry":{"type":"Point","coordinates":[103.4,4.76667]}},{"type":"feature","properties":{"country_en":"Malaysia","name":"Kampong Tanjong Temiang","name_adm0":"Malaysia","name_adm1":"Johor","name_adm2":"Muar","name_en":"Kampong Tanjong Temiang"},"geometry":{"type":"Point","coordinates":[102.5751,2.0995]}},{"type":"feature","properties":{"country_en":"Malaysia","name":"Kampong Tasik Pauh","name_adm0":"Malaysia","name_adm1":"Kelantan","name_adm2":"Pasir Puteh","name_en":"Kampong Tasik Pauh"},"geometry":{"type":"Point","coordinates":[102.36667,5.9]}},{"type":"feature","properties":{"country_en":"Malaysia","name":"Kampong Tebakang","name_adm0":"Malaysia","name_adm1":"Terengganu","name_adm2":"Marang","name_en":"Kampong Tebakang"},"geometry":{"type":"Point","coordinates":[103.07789999999999,5.2244]}},{"type":"feature","properties":{"country_en":"Malaysia","name":"Kampong Telok Baharu","name_adm0":"Malaysia","name_adm1":"Kelantan","name_adm2":"Kota Bharu","name_en":"Kampong Telok Baharu"},"geometry":{"type":"Point","coordinates":[102.28332999999999,6.099999999999999]}},{"type":"feature","properties":{"country_en":"Malaysia","name":"Kampong Telok Batu Sawar","name_adm0":"Malaysia","name_adm1":"Pahang","name_adm2":"Temerloh","name_en":"Kampong Telok Batu Sawar"},"geometry":{"type":"Point","coordinates":[102.43332999999998,3.6499999999999995]}},{"type":"feature","properties":{"country_en":"Malaysia","name":"Kampong Telok Berangan","name_adm0":"Malaysia","name_adm1":"Kedah","name_adm2":"Kubang Pasu","name_en":"Kampong Telok Berangan"},"geometry":{"type":"Point","coordinates":[100.4,6.28333]}},{"type":"feature","properties":{"country_en":"Malaysia","name":"Kampong Terat Batu","name_adm0":"Malaysia","name_adm1":"Kedah","name_adm2":"Kulim","name_en":"Kampong Terat Batu"},"geometry":{"type":"Point","coordinates":[100.53333,5.549999999999999]}},{"type":"feature","properties":{"country_en":"Malaysia","name":"Kampong Terentang","name_adm0":"Malaysia","name_adm1":"Melaka","name_adm2":"Jasin","name_en":"Kampong Terentang"},"geometry":{"type":"Point","coordinates":[102.4613,2.2892]}},{"type":"feature","properties":{"country_en":"Malaysia","name":"Kampong Terong","name_adm0":"Malaysia","name_adm1":"Perak","name_adm2":"Larut \u0026 Matang","name_en":"Kampong Terong"},"geometry":{"type":"Point","coordinates":[100.68333,4.71667]}},{"type":"feature","properties":{"country_en":"Malaysia","name":"Kampong Titi Serong","name_adm0":"Malaysia","name_adm1":"Kedah","name_adm2":"Yan","name_en":"Kampong Titi Serong"},"geometry":{"type":"Point","coordinates":[100.39912,5.830149999999999]}},{"type":"feature","properties":{"country_en":"Malaysia","name":"Kampong Titian Rawa","name_adm0":"Malaysia","name_adm1":"Terengganu","name_adm2":"Kuala Terengganu","name_en":"Kampong Titian Rawa"},"geometry":{"type":"Point","coordinates":[103.11667,5.23333]}},{"type":"feature","properties":{"country_en":"Malaysia","name":"Kampong Tok Kamis","name_adm0":"Malaysia","name_adm1":"Kelantan","name_adm2":"Pasir Puteh","name_en":"Kampong Tok Kamis"},"geometry":{"type":"Point","coordinates":[102.41667,5.78333]}},{"type":"feature","properties":{"country_en":"Malaysia","name":"Kampong Tungku Tiga","name_adm0":"Malaysia","name_adm1":"Johor","name_adm2":"Segamat","name_en":"Kampong Tungku Tiga"},"geometry":{"type":"Point","coordinates":[102.8811,2.5499]}},{"type":"feature","properties":{"country_en":"Malaysia","name":"Kampong Ulu Beruas","name_adm0":"Malaysia","name_adm1":"Perak","name_adm2":"Perak Tengah","name_en":"Kampong Ulu Beruas"},"geometry":{"type":"Point","coordinates":[100.75,4.5166699999999995]}},{"type":"feature","properties":{"country_en":"Malaysia","name":"Kampong Ulu Cheka","name_adm0":"Malaysia","name_adm1":"Pahang","name_adm2":"Jerantut","name_en":"Kampong Ulu Cheka"},"geometry":{"type":"Point","coordinates":[102.193,3.9014]}},{"type":"feature","properties":{"country_en":"Malaysia","name":"Kampong Ulu Piul","name_adm0":"Malaysia","name_adm1":"Perak","name_adm2":"Kuala Kangsar","name_en":"Kampong Ulu Piul"},"geometry":{"type":"Point","coordinates":[100.86667,4.56667]}},{"type":"feature","properties":{"country_en":"Malaysia","name":"Kampong Ulu Sat","name_adm0":"Malaysia","name_adm1":"Terengganu","name_adm2":"Hulu Terengganu","name_en":"Kampong Ulu Sat"},"geometry":{"type":"Point","coordinates":[102.28332999999999,5.749999999999999]}},{"type":"feature","properties":{"country_en":"Malaysia","name":"Kampung Bikam","name_adm0":"Malaysia","name_adm1":"Perak","name_adm2":"Batang Padang","name_en":"Kampung Bikam"},"geometry":{"type":"Point","coordinates":[101.28332999999999,4.05]}},{"type":"feature","properties":{"country_en":"Malaysia","name":"Kampung Bintong","name_adm0":"Malaysia","name_adm1":"Perlis","name_adm2":"Perlis","name_en":"Kampung Bintong"},"geometry":{"type":"Point","coordinates":[100.18171,6.4444099999999995]}},{"type":"feature","properties":{"country_en":"Malaysia","name":"Kampung Bongor Kudong","name_adm0":"Malaysia","name_adm1":"Perlis","name_adm2":"Perlis","name_en":"Kampung Bongor Kudong"},"geometry":{"type":"Point","coordinates":[100.21667,6.33333]}},{"type":"feature","properties":{"country_en":"Malaysia","name":"Kampung Cin","name_adm0":"Malaysia","name_adm1":"Pahang","name_adm2":"Raub","name_en":"Kampung Cin"},"geometry":{"type":"Point","coordinates":[101.9557,4.0274]}},{"type":"feature","properties":{"country_en":"Malaysia","name":"Kampung Cong","name_adm0":"Malaysia","name_adm1":"Kedah","name_adm2":"Sik","name_en":"Kampung Cong"},"geometry":{"type":"Point","coordinates":[100.75187,5.88721]}},{"type":"feature","properties":{"country_en":"Malaysia","name":"Kampung Darat","name_adm0":"Malaysia","name_adm1":"Perlis","name_adm2":"Perlis","name_en":"Kampung Darat"},"geometry":{"type":"Point","coordinates":[100.23218,6.52118]}},{"type":"feature","properties":{"country_en":"Malaysia","name":"Kampung Guar Sanji","name_adm0":"Malaysia","name_adm1":"Perlis","name_adm2":"Perlis","name_en":"Kampung Guar Sanji"},"geometry":{"type":"Point","coordinates":[100.27869,6.41255]}},{"type":"feature","properties":{"country_en":"Malaysia","name":"Kampung Guar Syed Alwi","name_adm0":"Malaysia","name_adm1":"Perlis","name_adm2":"Perlis","name_en":"Kampung Guar Syed Alwi"},"geometry":{"type":"Point","coordinates":[100.19984,6.41979]}},{"type":"feature","properties":{"country_en":"Malaysia","name":"Kampung Petuh","name_adm0":"Malaysia","name_adm1":"Pahang","name_adm2":"Rompin","name_en":"Kampung Petuh"},"geometry":{"type":"Point","coordinates":[103.26359999999998,2.8739]}},{"type":"feature","properties":{"country_en":"Malaysia","name":"Kampung Pinang Tunggal","name_adm0":"Malaysia","name_adm1":"Pulau Pinang","name_adm2":"Seberang Perai Utara","name_en":"Kampung Pinang Tunggal"},"geometry":{"type":"Point","coordinates":[100.50051,5.56917]}},{"type":"feature","properties":{"country_en":"Malaysia","name":"Kampung Pondoi","name_adm0":"Malaysia","name_adm1":"Melaka","name_adm2":"Alor Gajah","name_en":"Kampung Pondoi"},"geometry":{"type":"Point","coordinates":[102.3289,2.4846]}},{"type":"feature","properties":{"country_en":"Malaysia","name":"Kampung Pesang","name_adm0":"Malaysia","name_adm1":"Sarawak","name_adm2":"Division Kuching","name_en":"Kampung Pesang"},"geometry":{"type":"Point","coordinates":[110.36666999999998,1.2]}},{"type":"feature","properties":{"country_en":"Malaysia","name":"Kampung Sungai Ular","name_adm0":"Malaysia","name_adm1":"Perak","name_adm2":"Hilir Perak","name_en":"Kampung Sungai Ular"},"geometry":{"type":"Point","coordinates":[100.73333,3.9833299999999996]}},{"type":"feature","properties":{"country_en":"Malaysia","name":"Kampung Sungia Buaya","name_adm0":"Malaysia","name_adm1":"Selangor","name_adm2":"Hulu Selangor","name_en":"Kampung Sungia Buaya"},"geometry":{"type":"Point","coordinates":[101.5221,3.3929999999999993]}},{"type":"feature","properties":{"country_en":"Malaysia","name":"Kampung Supa","name_adm0":"Malaysia","name_adm1":"Sarawak","name_adm2":"Division Betong","name_en":"Kampung Supa"},"geometry":{"type":"Point","coordinates":[111.38333,2.4999999999999996]}},{"type":"feature","properties":{"country_en":"Malaysia","name":"Kampung Surau","name_adm0":"Malaysia","name_adm1":"Kedah","name_adm2":"Baling","name_en":"Kampung Surau"},"geometry":{"type":"Point","coordinates":[100.73734999999999,5.528]}},{"type":"feature","properties":{"country_en":"Malaysia","name":"Kampung Surau","name_adm0":"Malaysia","name_adm1":"Perlis","name_adm2":"Perlis","name_en":"Kampung Surau"},"geometry":{"type":"Point","coordinates":[100.2064,6.39059]}},{"type":"feature","properties":{"country_en":"Malaysia","name":"Kampung Tanjung Batu","name_adm0":"Malaysia","name_adm1":"Pahang","name_adm2":"Pekan","name_en":"Kampung Tanjung Batu"},"geometry":{"type":"Point","coordinates":[103.3138,3.5361]}},{"type":"feature","properties":{"country_en":"Malaysia","name":"Kampung Tanjung Besar","name_adm0":"Malaysia","name_adm1":"Pahang","name_adm2":"Lipis","name_en":"Kampung Tanjung Besar"},"geometry":{"type":"Point","coordinates":[102.1886,4.17]}},{"type":"feature","properties":{"country_en":"Malaysia","name":"Kampung Sungai Tong","name_adm0":"Malaysia","name_adm1":"Terengganu","name_adm2":"Setiu","name_en":"Kampung Sungai Tong"},"geometry":{"type":"Point","coordinates":[102.88389999999998,5.3591999999999995]}},{"type":"feature","properties":{"country_en":"Malaysia","name":"Kampung Tanjung Pulai","name_adm0":"Malaysia","name_adm1":"Pahang","name_adm2":"Pekan","name_en":"Kampung Tanjung Pulai"},"geometry":{"type":"Point","coordinates":[103.1613,3.5231999999999997]}},{"type":"feature","properties":{"country_en":"Malaysia","name":"Kampung Temai Hilir","name_adm0":"Malaysia","name_adm1":"Pahang","name_adm2":"Pekan","name_en":"Kampung Temai Hilir"},"geometry":{"type":"Point","coordinates":[103.2352,3.5352]}},{"type":"feature","properties":{"country_en":"Malaysia","name":"Kampung Temiang","name_adm0":"Malaysia","name_adm1":"Pahang","name_adm2":"Maran","name_en":"Kampung Temiang"},"geometry":{"type":"Point","coordinates":[102.7056,3.5037]}},{"type":"feature","properties":{"country_en":"Malaysia","name":"Kampung Terabak","name_adm0":"Malaysia","name_adm1":"Kedah","name_adm2":"Baling","name_en":"Kampung Terabak"},"geometry":{"type":"Point","coordinates":[100.89086,5.75629]}},{"type":"feature","properties":{"country_en":"Malaysia","name":"Rumah Ribai","name_adm0":"Malaysia","name_adm1":"Sarawak","name_adm2":"Division Kapit","name_en":"Rumah Ribai"},"geometry":{"type":"Point","coordinates":[113.51912,1.87302]}},{"type":"feature","properties":{"country_en":"Malaysia","name":"Mukim 1","name_adm0":"Malaysia","name_adm1":"Pulau Pinang","name_adm2":"Seberang Perai Tengah","name_en":"Mukim 1"},"geometry":{"type":"Point","coordinates":[100.393989,5.38594]}},{"type":"feature","properties":{"country_en":"Malaysia","name":"Dato' Keramat","name_adm0":"Malaysia","name_adm1":"Pulau Pinang","name_adm2":"Timur Laut","name_en":"Dato' Keramat"},"geometry":{"type":"Point","coordinates":[100.32156,5.410479999999999]}},{"type":"feature","properties":{"country_en":"Malaysia","name":"Bukit Fraser","name_adm0":"Malaysia","name_adm1":"Selangor","name_adm2":"Hulu Selangor","name_en":"Bukit Fraser"},"geometry":{"type":"Point","coordinates":[101.7412,3.7125999999999997]}},{"type":"feature","properties":{"country_en":"Malaysia","name":"Kampong Baru Subang","name_adm0":"Malaysia","name_adm1":"Selangor","name_adm2":"Petaling","name_en":"Kampong Baru Subang"},"geometry":{"type":"Point","coordinates":[101.53333,3.1499999999999995]}},{"type":"feature","properties":{"country_en":"Malaysia","name":"Kampung Cerating","name_adm0":"Malaysia","name_adm1":"Pahang","name_adm2":"Kuantan","name_en":"Kampung Cerating"},"geometry":{"type":"Point","coordinates":[103.3889,4.1241]}},{"type":"feature","properties":{"country_en":"Malaysia","name":"Tambunan","name_adm0":"Malaysia","name_adm1":"Sabah","name_adm2":"Division Pedalaman","name_en":"Tambunan"},"geometry":{"type":"Point","coordinates":[116.4,5.71667]}},{"type":"feature","properties":{"country_en":"Malaysia","name":"Tamparuli","name_adm0":"Malaysia","name_adm1":"Sabah","name_adm2":"Division Pantai Barat Selatan","name_en":"Tamparuli"},"geometry":{"type":"Point","coordinates":[116.26667,6.13333]}},{"type":"feature","properties":{"country_en":"Malaysia","name":"Tanjung Piandang","name_adm0":"Malaysia","name_adm1":"Perak","name_adm2":"Kerian","name_en":"Tanjung Piandang"},"geometry":{"type":"Point","coordinates":[100.38105,5.07236]}},{"type":"feature","properties":{"country_en":"Malaysia","name":"Permatang Pasir","name_adm0":"Malaysia","name_adm1":"Selangor","name_adm2":"Kuala Langat","name_en":"Permatang Pasir"},"geometry":{"type":"Point","coordinates":[101.43333,2.83333]}},{"type":"feature","properties":{"country_en":"Malaysia","name":"Kampung Sungai Manila","name_adm0":"Malaysia","name_adm1":"Perak","name_adm2":"Hilir Perak","name_en":"Kampung Sungai Manila"},"geometry":{"type":"Point","coordinates":[101.0273,4.0481]}},{"type":"feature","properties":{"country_en":"Malaysia","name":"Negeri Sembilan","name_adm0":"Malaysia","name_adm1":"Negeri Sembilan","name_adm2":"Seremban","name_en":"Negeri Sembilan"},"geometry":{"type":"Point","coordinates":[101.8054615,2.822858]}},{"type":"feature","properties":{"country_en":"Malaysia","name":"Jalan Telok Ewa","name_adm0":"Malaysia","name_adm1":"Kedah","name_adm2":"Langkawi","name_en":"Jalan Telok Ewa"},"geometry":{"type":"Point","coordinates":[99.7639915,6.4167215]}},{"type":"feature","properties":{"country_en":"Malaysia","name":"Taman Juta","name_adm0":"Malaysia","name_adm1":"Selangor","name_adm2":"Hulu Selangor","name_en":"Taman Juta"},"geometry":{"type":"Point","coordinates":[101.6584,3.5747]}},{"type":"feature","properties":{"country_en":"Malaysia","name":"Taman Sri Batik","name_adm0":"Malaysia","name_adm1":"Perak","name_adm2":"Manjung","name_en":"Taman Sri Batik"},"geometry":{"type":"Point","coordinates":[100.9518,4.1773]}},{"type":"feature","properties":{"country_en":"Malaysia","name":"Pulau Ketam","name_adm0":"Malaysia","name_adm1":"Selangor","name_adm2":"Klang","name_en":"Pulau Ketam"},"geometry":{"type":"Point","coordinates":[101.252598,3.021732]}},{"type":"feature","properties":{"country_en":"Malaysia","name":"Taman Nam Seng","name_adm0":"Malaysia","name_adm1":"Melaka","name_adm2":"Melaka Tengah","name_en":"Taman Nam Seng"},"geometry":{"type":"Point","coordinates":[102.252899,2.20338]}},{"type":"feature","properties":{"country_en":"Malaysia","name":"Taman Bukit Margosa","name_adm0":"Malaysia","name_adm1":"Negeri Sembilan","name_adm2":"Seremban","name_en":"Taman Bukit Margosa"},"geometry":{"type":"Point","coordinates":[102.77349999999998,2.5505]}},{"type":"feature","properties":{"country_en":"Malaysia","name":"Sarawak","name_adm0":"Malaysia","name_adm1":"Sarawak","name_en":"Sarawak"},"geometry":{"type":"Point","coordinates":[113.5,2.4999999999999996]}},{"type":"feature","properties":{"country_en":"Malaysia","name":"Taman Batu View","name_adm0":"Malaysia","name_adm1":"Kuala Lumpur","name_adm2":"Kuala Lumpur","name_en":"Taman Batu View"},"geometry":{"type":"Point","coordinates":[101.674003,3.2340979999999995]}},{"type":"feature","properties":{"country_en":"Malaysia","name":"Lubok Antu","name_adm0":"Malaysia","name_adm1":"Sarawak","name_adm2":"Division Sri Aman","name_en":"Lubok Antu"},"geometry":{"type":"Point","coordinates":[111.970263,1.159536]}},{"type":"feature","properties":{"country_en":"Malaysia","name":"Pulau Kerengga","name_adm0":"Malaysia","name_adm1":"Terengganu","name_adm2":"Marang","name_en":"Pulau Kerengga"},"geometry":{"type":"Point","coordinates":[103.240156,5.143519]}},{"type":"feature","properties":{"country_en":"Malaysia","name":"Pontian","name_adm0":"Malaysia","name_adm1":"Johor","name_adm2":"Pontian","name_en":"Pontian"},"geometry":{"type":"Point","coordinates":[103.384265,1.495751]}},{"type":"feature","properties":{"country_en":"Malaysia","name":"Lenggeng","name_adm0":"Malaysia","name_adm1":"Negeri Sembilan","name_adm2":"Seremban","name_en":"Lenggeng"},"geometry":{"type":"Point","coordinates":[101.9314955,2.890666]}},{"type":"feature","properties":{"country_en":"Malaysia","name":"Sabak","name_adm0":"Malaysia","name_adm1":"Selangor","name_adm2":"Sabak Bernam","name_en":"Sabak"},"geometry":{"type":"Point","coordinates":[100.9879,3.7698000000000005]}},{"type":"feature","properties":{"country_en":"Malaysia","name":"Kampong Balabakan","name_adm0":"Malaysia","name_adm1":"Sabah","name_adm2":"Division Pantai Barat Selatan","name_en":"Kampong Balabakan"},"geometry":{"type":"Point","coordinates":[116.45,6.03333]}},{"type":"feature","properties":{"country_en":"Malaysia","name":"Ulu Tiram","name_adm0":"Malaysia","name_adm1":"Johor","name_adm2":"Johor Bahru","name_en":"Ulu Tiram"},"geometry":{"type":"Point","coordinates":[103.81666999999999,1.6]}},{"type":"feature","properties":{"country_en":"Malaysia","name":"Kampung Pinang Jawa","name_adm0":"Malaysia","name_adm1":"Sarawak","name_adm2":"Division Kuching","name_en":"Kampung Pinang Jawa"},"geometry":{"type":"Point","coordinates":[110.71667,1.48333]}},{"type":"feature","properties":{"country_en":"Malaysia","name":"Kampung Paya","name_adm0":"Malaysia","name_adm1":"Negeri Sembilan","name_adm2":"Port Dickson","name_en":"Kampung Paya"},"geometry":{"type":"Point","coordinates":[101.8184,2.544]}},{"type":"feature","properties":{"country_en":"Malaysia","name":"Kg Genting Malek","name_adm0":"Malaysia","name_adm1":"Selangor","name_adm2":"Hulu Selangor","name_en":"Kg Genting Malek"},"geometry":{"type":"Point","coordinates":[101.6639,3.4686]}},{"type":"feature","properties":{"country_en":"Malaysia","name":"Taman Sri Bukit","name_adm0":"Malaysia","name_adm1":"Selangor","name_adm2":"Hulu Langat","name_en":"Taman Sri Bukit"},"geometry":{"type":"Point","coordinates":[101.6655,3.5726999999999998]}},{"type":"feature","properties":{"country_en":"Malaysia","name":"Binatang","name_adm0":"Malaysia","name_adm1":"Sarawak","name_adm2":"Division Sarikei","name_en":"Binatang"},"geometry":{"type":"Point","coordinates":[111.63333,2.16667]}},{"type":"feature","properties":{"country_en":"Malaysia","name":"Berincang","name_adm0":"Malaysia","name_adm1":"Pahang","name_adm2":"Cameron Highlands","name_en":"Berincang"},"geometry":{"type":"Point","coordinates":[101.3922,4.4885]}},{"type":"feature","properties":{"country_en":"Malaysia","name":"Kampong Abok","name_adm0":"Malaysia","name_adm1":"Negeri Sembilan","name_adm2":"Seremban","name_en":"Kampong Abok"},"geometry":{"type":"Point","coordinates":[101.9499,2.7024]}},{"type":"feature","properties":{"country_en":"Malaysia","name":"Happy Valley","name_adm0":"Malaysia","name_adm1":"Pulau Pinang","name_adm2":"Timur Laut","name_en":"Happy Valley"},"geometry":{"type":"Point","coordinates":[100.28333,5.3999999999999995]}},{"type":"feature","properties":{"country_en":"Malaysia","name":"Gadong","name_adm0":"Malaysia","name_adm1":"Sabah","name_adm2":"Division Pedalaman","name_en":"Gadong"},"geometry":{"type":"Point","coordinates":[115.90000000000002,5.616669999999999]}},{"type":"feature","properties":{"country_en":"Malaysia","name":"Jorak","name_adm0":"Malaysia","name_adm1":"Johor","name_adm2":"Muar","name_en":"Jorak"},"geometry":{"type":"Point","coordinates":[102.6463,2.1273]}},{"type":"feature","properties":{"country_en":"Malaysia","name":"Kampong Gaya","name_adm0":"Malaysia","name_adm1":"Sabah","name_adm2":"Division Pantai Barat Selatan","name_en":"Kampong Gaya"},"geometry":{"type":"Point","coordinates":[116.05989999999998,6.0047]}},{"type":"feature","properties":{"country_en":"Malaysia","name":"Kampong Gunong Soga","name_adm0":"Malaysia","name_adm1":"Johor","name_adm2":"Batu Pahat","name_en":"Kampong Gunong Soga"},"geometry":{"type":"Point","coordinates":[102.953,1.853]}},{"type":"feature","properties":{"country_en":"Malaysia","name":"Kampong Kepong","name_adm0":"Malaysia","name_adm1":"Terengganu","name_adm2":"Kuala Terengganu","name_en":"Kampong Kepong"},"geometry":{"type":"Point","coordinates":[102.16667,5.95]}},{"type":"feature","properties":{"country_en":"Malaysia","name":"Kampong Pasir Semut","name_adm0":"Malaysia","name_adm1":"Terengganu","name_adm2":"Kemaman","name_en":"Kampong Pasir Semut"},"geometry":{"type":"Point","coordinates":[103.3313,4.2201]}},{"type":"feature","properties":{"country_en":"Malaysia","name":"Kampong Pelawan","name_adm0":"Malaysia","name_adm1":"Perak","name_adm2":"Hilir Perak","name_en":"Kampong Pelawan"},"geometry":{"type":"Point","coordinates":[101.18332999999998,4.06667]}},{"type":"feature","properties":{"country_en":"Malaysia","name":"Kampong Pengkalan Damar","name_adm0":"Malaysia","name_adm1":"Perak","name_adm2":"Manjung","name_en":"Kampong Pengkalan Damar"},"geometry":{"type":"Point","coordinates":[100.71667,4.5166699999999995]}},{"type":"feature","properties":{"country_en":"Malaysia","name":"Kampong Sedili Kechil","name_adm0":"Malaysia","name_adm1":"Johor","name_adm2":"Kota Tinggi","name_en":"Kampong Sedili Kechil"},"geometry":{"type":"Point","coordinates":[104.1437,1.8415000000000001]}},{"type":"feature","properties":{"country_en":"Malaysia","name":"Kampong Raja","name_adm0":"Malaysia","name_adm1":"Kedah","name_adm2":"Kuala Muda","name_en":"Kampong Raja"},"geometry":{"type":"Point","coordinates":[100.65,6.28333]}},{"type":"feature","properties":{"country_en":"Malaysia","name":"Kampong Sekudai","name_adm0":"Malaysia","name_adm1":"Johor","name_adm2":"Johor Bahru","name_en":"Kampong Sekudai"},"geometry":{"type":"Point","coordinates":[103.73209999999999,1.4671]}},{"type":"feature","properties":{"country_en":"Malaysia","name":"Kampong Sungai Suloh","name_adm0":"Malaysia","name_adm1":"Johor","name_adm2":"Batu Pahat","name_en":"Kampong Sungai Suloh"},"geometry":{"type":"Point","coordinates":[102.9519,1.7791]}},{"type":"feature","properties":{"country_en":"Malaysia","name":"Kampong Tambak Jawa","name_adm0":"Malaysia","name_adm1":"Selangor","name_adm2":"Kuala Selangor","name_en":"Kampong Tambak Jawa"},"geometry":{"type":"Point","coordinates":[101.31667,3.1833299999999998]}},{"type":"feature","properties":{"country_en":"Malaysia","name":"Kampong Tanjong Bedara","name_adm0":"Malaysia","name_adm1":"Melaka","name_adm2":"Alor Gajah","name_en":"Kampong Tanjong Bedara"},"geometry":{"type":"Point","coordinates":[102.08,2.3016]}},{"type":"feature","properties":{"country_en":"Malaysia","name":"Kampung Pulau Tawar","name_adm0":"Malaysia","name_adm1":"Pahang","name_adm2":"Jerantut","name_en":"Kampung Pulau Tawar"},"geometry":{"type":"Point","coordinates":[102.4298,3.8769]}},{"type":"feature","properties":{"country_en":"Malaysia","name":"Kampung Sabai","name_adm0":"Malaysia","name_adm1":"Pahang","name_adm2":"Bentung","name_en":"Kampung Sabai"},"geometry":{"type":"Point","coordinates":[102.0518,3.4350999999999994]}},{"type":"feature","properties":{"country_en":"Malaysia","name":"Kampung Sedili Besar","name_adm0":"Malaysia","name_adm1":"Johor","name_adm2":"Kota Tinggi","name_en":"Kampung Sedili Besar"},"geometry":{"type":"Point","coordinates":[104.1223,1.9302999999999997]}},{"type":"feature","properties":{"country_en":"Malaysia","name":"Pokok Asam","name_adm0":"Malaysia","name_adm1":"Perak","name_adm2":"Larut \u0026 Matang","name_en":"Pokok Asam"},"geometry":{"type":"Point","coordinates":[100.75,4.83333]}},{"type":"feature","properties":{"country_en":"Malaysia","name":"Pasir Penambang","name_adm0":"Malaysia","name_adm1":"Selangor","name_adm2":"Kuala Selangor","name_en":"Pasir Penambang"},"geometry":{"type":"Point","coordinates":[101.25,3.35]}},{"type":"feature","properties":{"country_en":"Malaysia","name":"Titi Serong","name_adm0":"Malaysia","name_adm1":"Perak","name_adm2":"Kerian","name_en":"Titi Serong"},"geometry":{"type":"Point","coordinates":[100.45,5.1]}},{"type":"feature","properties":{"country_en":"Malaysia","name":"Chamek","name_adm0":"Malaysia","name_adm1":"Johor","name_adm2":"Keluang","name_en":"Chamek"},"geometry":{"type":"Point","coordinates":[103.2406,2.1397999999999997]}},{"type":"feature","properties":{"country_en":"Malaysia","name":"Kangkar Chemaran","name_adm0":"Malaysia","name_adm1":"Johor","name_adm2":"Kota Tinggi","name_en":"Kangkar Chemaran"},"geometry":{"type":"Point","coordinates":[104.1966,1.5751]}},{"type":"feature","properties":{"country_en":"Malaysia","name":"Kejaman","name_adm0":"Malaysia","name_adm1":"Sarawak","name_adm2":"Division Kapit","name_en":"Kejaman"},"geometry":{"type":"Point","coordinates":[113.75,2.65]}},{"type":"feature","properties":{"country_en":"Malaysia","name":"Keretang","name_adm0":"Malaysia","name_adm1":"Sabah","name_adm2":"Division Kudat","name_en":"Keretang"},"geometry":{"type":"Point","coordinates":[116.74999999999999,7.01667]}},{"type":"feature","properties":{"country_en":"Malaysia","name":"Matang","name_adm0":"Malaysia","name_adm1":"Sarawak","name_adm2":"Division Kuching","name_en":"Matang"},"geometry":{"type":"Point","coordinates":[110.01667,1.06667]}},{"type":"feature","properties":{"country_en":"Malaysia","name":"Pasir Hitam","name_adm0":"Malaysia","name_adm1":"Kedah","name_adm2":"Langkawi","name_en":"Pasir Hitam"},"geometry":{"type":"Point","coordinates":[99.79453,6.42512]}},{"type":"feature","properties":{"country_en":"Malaysia","name":"Samawang","name_adm0":"Malaysia","name_adm1":"Sabah","name_adm2":"Division Sandakan","name_en":"Samawang"},"geometry":{"type":"Point","coordinates":[117.98729999999999,5.7741]}},{"type":"feature","properties":{"country_en":"Malaysia","name":"Sungai Lembing","name_adm0":"Malaysia","name_adm1":"Pahang","name_adm2":"Kuantan","name_en":"Sungai Lembing"},"geometry":{"type":"Point","coordinates":[103.0361,3.9178]}},{"type":"feature","properties":{"country_en":"Malaysia","name":"Silam","name_adm0":"Malaysia","name_adm1":"Sabah","name_adm2":"Division Tawau","name_en":"Silam"},"geometry":{"type":"Point","coordinates":[118.22784,4.97724]}},{"type":"feature","properties":{"country_en":"Malaysia","name":"Weston","name_adm0":"Malaysia","name_adm1":"Sabah","name_adm2":"Division Pedalaman","name_en":"Weston"},"geometry":{"type":"Point","coordinates":[115.61667,5.21667]}},{"type":"feature","properties":{"country_en":"Malaysia","name":"Nanga Medamit","name_adm0":"Malaysia","name_adm1":"Sarawak","name_adm2":"Division Limbang","name_en":"Nanga Medamit"},"geometry":{"type":"Point","coordinates":[114.91666999999998,4.46667]}},{"type":"feature","properties":{"country_en":"Malaysia","name":"Taman Melodies","name_adm0":"Malaysia","name_adm1":"Johor","name_adm2":"Johor Bahru","name_en":"Taman Melodies"},"geometry":{"type":"Point","coordinates":[103.7614,1.4901]}},{"type":"feature","properties":{"country_en":"Malaysia","name":"Kampung Gertak Sanggul","name_adm0":"Malaysia","name_adm1":"Pulau Pinang","name_adm2":"Barat Daya","name_en":"Kampung Gertak Sanggul"},"geometry":{"type":"Point","coordinates":[100.19181999999999,5.2833499999999995]}},{"type":"feature","properties":{"country_en":"Malaysia","name":"Kampung Kuala Teriang","name_adm0":"Malaysia","name_adm1":"Kedah","name_adm2":"Langkawi","name_en":"Kampung Kuala Teriang"},"geometry":{"type":"Point","coordinates":[100.65735,6.22471]}},{"type":"feature","properties":{"country_en":"Malaysia","name":"Batu","name_adm0":"Malaysia","name_adm1":"Selangor","name_adm2":"Gombak","name_en":"Batu"},"geometry":{"type":"Point","coordinates":[101.674003,3.236433]}},{"type":"feature","properties":{"country_en":"Malaysia","name":"Pekan Jitra","name_adm0":"Malaysia","name_adm1":"Kedah","name_adm2":"Kubang Pasu","name_en":"Pekan Jitra"},"geometry":{"type":"Point","coordinates":[100.419239,6.26327]}},{"type":"feature","properties":{"country_en":"Malaysia","name":"Petaling","name_adm0":"Malaysia","name_adm1":"Selangor","name_adm2":"Petaling","name_en":"Petaling"},"geometry":{"type":"Point","coordinates":[101.58333,3.08333]}},{"type":"feature","properties":{"country_en":"Malaysia","name":"Kuala Lumpur","name_adm0":"Malaysia","name_adm1":"Kuala Lumpur","name_en":"Kuala Lumpur"},"geometry":{"type":"Point","coordinates":[101.68653,3.1430899999999995]}},{"type":"feature","properties":{"country_en":"Malaysia","name":"Bandar","name_adm0":"Malaysia","name_adm1":"Selangor","name_adm2":"Kuala Langat","name_en":"Bandar"},"geometry":{"type":"Point","coordinates":[101.43333,2.86667]}},{"type":"feature","properties":{"country_en":"Malaysia","name":"Gemencih","name_adm0":"Malaysia","name_adm1":"Negeri Sembilan","name_adm2":"Tampin","name_en":"Gemencih"},"geometry":{"type":"Point","coordinates":[102.3989,2.5331]}},{"type":"feature","properties":{"country_en":"Malaysia","name":"Gedong","name_adm0":"Malaysia","name_adm1":"Sarawak","name_adm2":"Division Samarahan","name_en":"Gedong"},"geometry":{"type":"Point","coordinates":[110.68333,1.23333]}},{"type":"feature","properties":{"country_en":"Malaysia","name":"Kampong Jabi","name_adm0":"Malaysia","name_adm1":"Johor","name_adm2":"Segamat","name_en":"Kampong Jabi"},"geometry":{"type":"Point","coordinates":[102.8046,2.5379]}},{"type":"feature","properties":{"country_en":"Malaysia","name":"Kampong Kuala Jempol","name_adm0":"Malaysia","name_adm1":"Negeri Sembilan","name_adm2":"Jempol","name_en":"Kampong Kuala Jempol"},"geometry":{"type":"Point","coordinates":[102.3682,2.8025999999999995]}},{"type":"feature","properties":{"country_en":"Malaysia","name":"Naka","name_adm0":"Malaysia","name_adm1":"Kedah","name_adm2":"Padang Terap","name_en":"Naka"},"geometry":{"type":"Point","coordinates":[100.66915999999999,6.14214]}},{"type":"feature","properties":{"country_en":"Malaysia","name":"Kampong Pasir Segambut","name_adm0":"Malaysia","name_adm1":"Kuala Lumpur","name_adm2":"Kuala Lumpur","name_en":"Kampong Pasir Segambut"},"geometry":{"type":"Point","coordinates":[101.65,3.1833299999999998]}},{"type":"feature","properties":{"country_en":"Malaysia","name":"Kampung Alur Janggus","name_adm0":"Malaysia","name_adm1":"Kedah","name_adm2":"Kota Setar","name_en":"Kampung Alur Janggus"},"geometry":{"type":"Point","coordinates":[100.31156,6.17386]}},{"type":"feature","properties":{"country_en":"Malaysia","name":"Kampung Hulu Caluk","name_adm0":"Malaysia","name_adm1":"Terengganu","name_adm2":"Setiu","name_en":"Kampung Hulu Caluk"},"geometry":{"type":"Point","coordinates":[102.83333,5.43333]}},{"type":"feature","properties":{"country_en":"Malaysia","name":"Kampung Jabi","name_adm0":"Malaysia","name_adm1":"Terengganu","name_adm2":"Besut","name_en":"Kampung Jabi"},"geometry":{"type":"Point","coordinates":[102.55618,5.68381]}},{"type":"feature","properties":{"country_en":"Malaysia","name":"Kampung Relung","name_adm0":"Malaysia","name_adm1":"Kedah","name_adm2":"Padang Terap","name_en":"Kampung Relung"},"geometry":{"type":"Point","coordinates":[100.71426,5.96427]}},{"type":"feature","properties":{"country_en":"Malaysia","name":"Kampung Sebuyau","name_adm0":"Malaysia","name_adm1":"Sarawak","name_adm2":"Division Samarahan","name_en":"Kampung Sebuyau"},"geometry":{"type":"Point","coordinates":[110.63333,1.41667]}},{"type":"feature","properties":{"country_en":"Malaysia","name":"Kampung Sedenak","name_adm0":"Malaysia","name_adm1":"Johor","name_adm2":"Johor Bahru","name_en":"Kampung Sedenak"},"geometry":{"type":"Point","coordinates":[103.52759999999999,1.7114]}},{"type":"feature","properties":{"country_en":"Malaysia","name":"Kampung Tengah","name_adm0":"Malaysia","name_adm1":"Johor","name_adm2":"Segamat","name_en":"Kampung Tengah"},"geometry":{"type":"Point","coordinates":[102.8116,2.5246999999999997]}},{"type":"feature","properties":{"country_en":"Malaysia","name":"Kuala Sanglang","name_adm0":"Malaysia","name_adm1":"Perlis","name_adm2":"Perlis","name_en":"Kuala Sanglang"},"geometry":{"type":"Point","coordinates":[100.19644,6.261159999999999]}},{"type":"feature","properties":{"country_en":"Malaysia","name":"Mambang di Awan","name_adm0":"Malaysia","name_adm1":"Perak","name_adm2":"Batang Padang","name_en":"Mambang di Awan"},"geometry":{"type":"Point","coordinates":[101.15,4.26667]}},{"type":"feature","properties":{"country_en":"Malaysia","name":"Melur","name_adm0":"Malaysia","name_adm1":"Kelantan","name_adm2":"Kota Bharu","name_en":"Melur"},"geometry":{"type":"Point","coordinates":[102.29422,5.9656]}},{"type":"feature","properties":{"country_en":"Malaysia","name":"Pulai","name_adm0":"Malaysia","name_adm1":"Kedah","name_adm2":"Baling","name_en":"Pulai"},"geometry":{"type":"Point","coordinates":[100.89540999999998,5.65489]}},{"type":"feature","properties":{"country_en":"Malaysia","name":"Setul","name_adm0":"Malaysia","name_adm1":"Negeri Sembilan","name_adm2":"Seremban","name_en":"Setul"},"geometry":{"type":"Point","coordinates":[101.91667,2.8]}},{"type":"feature","properties":{"country_en":"Malaysia","name":"Rantau Panjang","name_adm0":"Malaysia","name_adm1":"Perak","name_adm2":"Selama","name_en":"Rantau Panjang"},"geometry":{"type":"Point","coordinates":[100.72927,5.23692]}},{"type":"feature","properties":{"country_en":"Malaysia","name":"Sungai Ara","name_adm0":"Malaysia","name_adm1":"Sarawak","name_adm2":"Division Sri Aman","name_en":"Sungai Ara"},"geometry":{"type":"Point","coordinates":[111.88333,1.18333]}},{"type":"feature","properties":{"country_en":"Malaysia","name":"Tenghilan","name_adm0":"Malaysia","name_adm1":"Sabah","name_adm2":"Division Pantai Barat Selatan","name_en":"Tenghilan"},"geometry":{"type":"Point","coordinates":[116.31667,6.233329999999999]}},{"type":"feature","properties":{"country_en":"Malaysia","name":"Tanjung Tualang","name_adm0":"Malaysia","name_adm1":"Perak","name_adm2":"Kinta","name_en":"Tanjung Tualang"},"geometry":{"type":"Point","coordinates":[101.06667,4.31667]}},{"type":"feature","properties":{"country_en":"Malaysia","name":"Bukit Kangkar","name_adm0":"Malaysia","name_adm1":"Johor","name_adm2":"Muar","name_en":"Bukit Kangkar"},"geometry":{"type":"Point","coordinates":[102.5583,2.1739]}},{"type":"feature","properties":{"country_en":"Malaysia","name":"Bukit Siput","name_adm0":"Malaysia","name_adm1":"Johor","name_adm2":"Segamat","name_en":"Bukit Siput"},"geometry":{"type":"Point","coordinates":[102.8425,2.485]}},{"type":"feature","properties":{"country_en":"Malaysia","name":"Matu","name_adm0":"Malaysia","name_adm1":"Sarawak","name_adm2":"Division Mukah","name_en":"Matu"},"geometry":{"type":"Point","coordinates":[111.53333,2.68333]}},{"type":"feature","properties":{"country_en":"Malaysia","name":"Lubok Antu","name_adm0":"Malaysia","name_adm1":"Sarawak","name_adm2":"Division Sri Aman","name_en":"Lubok Antu"},"geometry":{"type":"Point","coordinates":[112,1.2499999999999998]}},{"type":"feature","properties":{"country_en":"Malaysia","name":"Manchis","name_adm0":"Malaysia","name_adm1":"Pahang","name_adm2":"Bentung","name_en":"Manchis"},"geometry":{"type":"Point","coordinates":[102.1618,3.2018]}},{"type":"feature","properties":{"country_en":"Malaysia","name":"Padang Endau","name_adm0":"Malaysia","name_adm1":"Pahang","name_adm2":"Rompin","name_en":"Padang Endau"},"geometry":{"type":"Point","coordinates":[103.61503999999998,2.6556799999999994]}},{"type":"feature","properties":{"country_en":"Malaysia","name":"Nenasi","name_adm0":"Malaysia","name_adm1":"Pahang","name_adm2":"Pekan","name_en":"Nenasi"},"geometry":{"type":"Point","coordinates":[103.4444,3.1373]}},{"type":"feature","properties":{"country_en":"Malaysia","name":"Pertang","name_adm0":"Malaysia","name_adm1":"Negeri Sembilan","name_adm2":"Jelebu","name_en":"Pertang"},"geometry":{"type":"Point","coordinates":[102.2171,2.9597]}},{"type":"feature","properties":{"country_en":"Malaysia","name":"Pulai","name_adm0":"Malaysia","name_adm1":"Perak","name_adm2":"Kinta","name_en":"Pulai"},"geometry":{"type":"Point","coordinates":[101.9449,4.7913]}},{"type":"feature","properties":{"country_en":"Malaysia","name":"Rompin","name_adm0":"Malaysia","name_adm1":"Negeri Sembilan","name_adm2":"Jempol","name_en":"Rompin"},"geometry":{"type":"Point","coordinates":[102.5047,2.7083]}},{"type":"feature","properties":{"country_en":"Malaysia","name":"Telemong","name_adm0":"Malaysia","name_adm1":"Pahang","name_adm2":"Bentung","name_en":"Telemong"},"geometry":{"type":"Point","coordinates":[102.0855,3.2889999999999997]}},{"type":"feature","properties":{"country_en":"Malaysia","name":"Seremban","name_adm0":"Malaysia","name_adm1":"Negeri Sembilan","name_adm2":"Seremban","name_en":"Seremban"},"geometry":{"type":"Point","coordinates":[101.9381,2.7297]}},{"type":"feature","properties":{"country_en":"Malaysia","name":"Kg Luak","name_adm0":"Malaysia","name_adm1":"Sarawak","name_adm2":"Division Miri","name_en":"Kg Luak"},"geometry":{"type":"Point","coordinates":[113.96824049999998,4.3638915]}},{"type":"feature","properties":{"country_en":"Malaysia","name":"Taman Desa Baru","name_adm0":"Malaysia","name_adm1":"Terengganu","name_adm2":"Kuala Terengganu","name_en":"Taman Desa Baru"},"geometry":{"type":"Point","coordinates":[103.11039999999998,5.3167]}},{"type":"feature","properties":{"country_en":"Malaysia","name":"Taman Desa Impiana","name_adm0":"Malaysia","name_adm1":"Kedah","name_adm2":"Kota Setar","name_en":"Taman Desa Impiana"},"geometry":{"type":"Point","coordinates":[100.53026999999999,5.3498]}},{"type":"feature","properties":{"country_en":"Malaysia","name":"Taman Desa Jawi","name_adm0":"Malaysia","name_adm1":"Pulau Pinang","name_adm2":"Seberang Perai Selatan","name_en":"Taman Desa Jawi"},"geometry":{"type":"Point","coordinates":[100.7534,4.2971]}},{"type":"feature","properties":{"country_en":"Malaysia","name":"Taman Desa Jaya","name_adm0":"Malaysia","name_adm1":"Terengganu","name_adm2":"Kuala Terengganu","name_en":"Taman Desa Jaya"},"geometry":{"type":"Point","coordinates":[103.11039999999998,5.3167]}},{"type":"feature","properties":{"country_en":"Malaysia","name":"Taman Rasah Jaya","name_adm0":"Malaysia","name_adm1":"Negeri Sembilan","name_adm2":"Seremban","name_en":"Taman Rasah Jaya"},"geometry":{"type":"Point","coordinates":[101.9458,2.6767999999999996]}},{"type":"feature","properties":{"country_en":"Malaysia","name":"Taman Sri Ayu","name_adm0":"Malaysia","name_adm1":"Kedah","name_adm2":"Langkawi","name_en":"Taman Sri Ayu"},"geometry":{"type":"Point","coordinates":[100.34383,6.08922]}},{"type":"feature","properties":{"country_en":"Malaysia","name":"Taman Kuala Selangor","name_adm0":"Malaysia","name_adm1":"Selangor","name_adm2":"Kuala Selangor","name_en":"Taman Kuala Selangor"},"geometry":{"type":"Point","coordinates":[101.25,3.35]}},{"type":"feature","properties":{"country_en":"Malaysia","name":"Taman Pandan Mewah","name_adm0":"Malaysia","name_adm1":"Selangor","name_adm2":"Hulu Langat","name_en":"Taman Pandan Mewah"},"geometry":{"type":"Point","coordinates":[101.748906,3.129103]}},{"type":"feature","properties":{"country_en":"Malaysia","name":"Bukit Bertam","name_adm0":"Malaysia","name_adm1":"Perak","name_adm2":"Selama","name_en":"Bukit Bertam"},"geometry":{"type":"Point","coordinates":[100.4667,5.36301]}},{"type":"feature","properties":{"country_en":"Malaysia","name":"Kampung Chuping","name_adm0":"Malaysia","name_adm1":"Perlis","name_adm2":"Perlis","name_en":"Kampung Chuping"},"geometry":{"type":"Point","coordinates":[100.25576,6.5013]}},{"type":"feature","properties":{"country_en":"Malaysia","name":"Kampong Belachan","name_adm0":"Malaysia","name_adm1":"Pulau Pinang","name_adm2":"Timur Laut","name_en":"Kampong Belachan"},"geometry":{"type":"Point","coordinates":[100.30679999999998,5.451599999999999]}},{"type":"feature","properties":{"country_en":"Malaysia","name":"Kampung Abu Baker Baginda","name_adm0":"Malaysia","name_adm1":"Selangor","name_adm2":"Sepang","name_en":"Kampung Abu Baker Baginda"},"geometry":{"type":"Point","coordinates":[101.7323,2.9576]}},{"type":"feature","properties":{"country_en":"Malaysia","name":"Kampung Bukit Setongkol","name_adm0":"Malaysia","name_adm1":"Pahang","name_adm2":"Kuantan","name_en":"Kampung Bukit Setongkol"},"geometry":{"type":"Point","coordinates":[103.3068,3.7995]}},{"type":"feature","properties":{"country_en":"Malaysia","name":"Kampung Bagan Hulu","name_adm0":"Malaysia","name_adm1":"Kedah","name_adm2":"Kuala Muda","name_en":"Kampung Bagan Hulu"},"geometry":{"type":"Point","coordinates":[100.36804,5.668609999999999]}},{"type":"feature","properties":{"country_en":"Malaysia","name":"Kancung Laut","name_adm0":"Malaysia","name_adm1":"Selangor","name_adm2":"Kuala Langat","name_en":"Kancung Laut"},"geometry":{"type":"Point","coordinates":[101.45,2.7333299999999996]}},{"type":"feature","properties":{"country_en":"Malaysia","name":"Tuaran","name_adm0":"Malaysia","name_adm1":"Sabah","name_adm2":"Division Pantai Barat Selatan","name_en":"Tuaran"},"geometry":{"type":"Point","coordinates":[116.23139999999998,6.1774]}},{"type":"feature","properties":{"country_en":"Malaysia","name":"Durian Tunggal","name_adm0":"Malaysia","name_adm1":"Melaka","name_adm2":"Alor Gajah","name_en":"Durian Tunggal"},"geometry":{"type":"Point","coordinates":[102.31166599999999,2.2984989999999996]}},{"type":"feature","properties":{"country_en":"Malaysia","name":"Perak","name_adm0":"Malaysia","name_adm1":"Pahang","name_adm2":"Temerloh","name_en":"Perak"},"geometry":{"type":"Point","coordinates":[102.42211099999999,3.4428579999999998]}},{"type":"feature","properties":{"country_en":"Malaysia","name":"Meradong","name_adm0":"Malaysia","name_adm1":"Sarawak","name_adm2":"Division Sarikei","name_en":"Meradong"},"geometry":{"type":"Point","coordinates":[111.69120699999999,2.118299]}},{"type":"feature","properties":{"country_en":"Malaysia","name":"Bagan","name_adm0":"Malaysia","name_adm1":"Johor","name_adm2":"Batu Pahat","name_en":"Bagan"},"geometry":{"type":"Point","coordinates":[102.857136,1.8607174999999998]}},{"type":"feature","properties":{"country_en":"Malaysia","name":"Jelei","name_adm0":"Malaysia","name_adm1":"Negeri Sembilan","name_adm2":"Jempol","name_en":"Jelei"},"geometry":{"type":"Point","coordinates":[102.4059,2.8094344999999996]}},{"type":"feature","properties":{"country_en":"Malaysia","name":"Lenggong","name_adm0":"Malaysia","name_adm1":"Perak","name_adm2":"Hulu Perak","name_en":"Lenggong"},"geometry":{"type":"Point","coordinates":[101.011047,5.168908]}},{"type":"feature","properties":{"country_en":"Malaysia","name":"Durian Sebatang","name_adm0":"Malaysia","name_adm1":"Perak","name_adm2":"Hilir Perak","name_en":"Durian Sebatang"},"geometry":{"type":"Point","coordinates":[101.017648,4.026199]}},{"type":"feature","properties":{"country_en":"Malaysia","name":"Sungai Segamat","name_adm0":"Malaysia","name_adm1":"Johor","name_adm2":"Segamat","name_en":"Sungai Segamat"},"geometry":{"type":"Point","coordinates":[102.81133499999999,2.51558]}},{"type":"feature","properties":{"country_en":"Malaysia","name":"Limbang","name_adm0":"Malaysia","name_adm1":"Sarawak","name_adm2":"Division Limbang","name_en":"Limbang"},"geometry":{"type":"Point","coordinates":[114.98394,4.67036]}},{"type":"feature","properties":{"country_en":"Malaysia","name":"Pekan","name_adm0":"Malaysia","name_adm1":"Pahang","name_adm2":"Pekan","name_en":"Pekan"},"geometry":{"type":"Point","coordinates":[103.394308,3.487719]}},{"type":"feature","properties":{"country_en":"Malaysia","name":"Kerunai","name_adm0":"Malaysia","name_adm1":"Perak","name_adm2":"Hulu Perak","name_en":"Kerunai"},"geometry":{"type":"Point","coordinates":[101.107521,5.574298999999999]}},{"type":"feature","properties":{"country_en":"Malaysia","name":"Bukit Katil","name_adm0":"Malaysia","name_adm1":"Melaka","name_adm2":"Melaka Tengah","name_en":"Bukit Katil"},"geometry":{"type":"Point","coordinates":[102.289237,2.26303]}},{"type":"feature","properties":{"country_en":"Malaysia","name":"Taman Tanjung","name_adm0":"Malaysia","name_adm1":"Negeri Sembilan","name_adm2":"Port Dickson","name_en":"Taman Tanjung"},"geometry":{"type":"Point","coordinates":[101.7935,2.5535]}},{"type":"feature","properties":{"country_en":"Malaysia","name":"Batang Padang","name_adm0":"Malaysia","name_adm1":"Perak","name_adm2":"Batang Padang","name_en":"Batang Padang"},"geometry":{"type":"Point","coordinates":[101.261611,4.1982]}},{"type":"feature","properties":{"country_en":"Malaysia","name":"Taman Satra","name_adm0":"Malaysia","name_adm1":"Selangor","name_adm2":"Kuala Langat","name_en":"Taman Satra"},"geometry":{"type":"Point","coordinates":[101.9239,2.4285]}},{"type":"feature","properties":{"country_en":"Malaysia","name":"Batu Berendam","name_adm0":"Malaysia","name_adm1":"Melaka","name_adm2":"Melaka Tengah","name_en":"Batu Berendam"},"geometry":{"type":"Point","coordinates":[102.2822145,2.278272]}},{"type":"feature","properties":{"country_en":"Malaysia","name":"Bendang Teja","name_adm0":"Malaysia","name_adm1":"Perak","name_adm2":"Kinta","name_en":"Bendang Teja"},"geometry":{"type":"Point","coordinates":[101.05327599999998,4.396219]}},{"type":"feature","properties":{"country_en":"Malaysia","name":"Taman Malinja","name_adm0":"Malaysia","name_adm1":"Melaka","name_adm2":"Melaka Tengah","name_en":"Taman Malinja"},"geometry":{"type":"Point","coordinates":[102.7083,2.5679]}},{"type":"feature","properties":{"country_en":"Malaysia","name":"Taman Maluri","name_adm0":"Malaysia","name_adm1":"Kedah","name_adm2":"Kubang Pasu","name_en":"Taman Maluri"},"geometry":{"type":"Point","coordinates":[99.85201,6.32708]}},{"type":"feature","properties":{"country_en":"Malaysia","name":"Taman Manong","name_adm0":"Malaysia","name_adm1":"Negeri Sembilan","name_adm2":"Seremban","name_en":"Taman Manong"},"geometry":{"type":"Point","coordinates":[102.31139999999999,2.2109]}},{"type":"feature","properties":{"country_en":"Malaysia","name":"Taman Mas Merah","name_adm0":"Malaysia","name_adm1":"Johor","name_adm2":"Muar","name_en":"Taman Mas Merah"},"geometry":{"type":"Point","coordinates":[102.5616,2.0316]}},{"type":"feature","properties":{"country_en":"Malaysia","name":"Taman Melati","name_adm0":"Malaysia","name_adm1":"Kedah","name_adm2":"Kota Setar","name_en":"Taman Melati"},"geometry":{"type":"Point","coordinates":[100.2896,5.323809999999999]}},{"type":"feature","properties":{"country_en":"Malaysia","name":"Taman Selasih Satu","name_adm0":"Malaysia","name_adm1":"Terengganu","name_adm2":"Kemaman","name_en":"Taman Selasih Satu"},"geometry":{"type":"Point","coordinates":[103.43419999999999,4.4778]}},{"type":"feature","properties":{"country_en":"Malaysia","name":"Taman Seri Wangi","name_adm0":"Malaysia","name_adm1":"Terengganu","name_adm2":"Dungun","name_en":"Taman Seri Wangi"},"geometry":{"type":"Point","coordinates":[103.2043,3.7529999999999997]}},{"type":"feature","properties":{"country_en":"Malaysia","name":"Taman Sri Mutiara","name_adm0":"Malaysia","name_adm1":"Johor","name_adm2":"Batu Pahat","name_en":"Taman Sri Mutiara"},"geometry":{"type":"Point","coordinates":[103.33939999999998,2.0329]}},{"type":"feature","properties":{"country_en":"Malaysia","name":"Kampung Nibong Tengah","name_adm0":"Malaysia","name_adm1":"Perak","name_adm2":"Larut \u0026 Matang","name_en":"Kampung Nibong Tengah"},"geometry":{"type":"Point","coordinates":[101.0793,4.5064]}},{"type":"feature","properties":{"country_en":"Malaysia","name":"Kampung Pengkalan Sungai Kerang","name_adm0":"Malaysia","name_adm1":"Perak","name_adm2":"Larut \u0026 Matang","name_en":"Kampung Pengkalan Sungai Kerang"},"geometry":{"type":"Point","coordinates":[100.6815,4.596499999999999]}},{"type":"feature","properties":{"country_en":"Malaysia","name":"Kampung Sg Raya","name_adm0":"Malaysia","name_adm1":"Negeri Sembilan","name_adm2":"Port Dickson","name_en":"Kampung Sg Raya"},"geometry":{"type":"Point","coordinates":[102.6183,2.0986]}},{"type":"feature","properties":{"country_en":"Malaysia","name":"Ulu Triang","name_adm0":"Malaysia","name_adm1":"Negeri Sembilan","name_adm2":"Jelebu","name_en":"Ulu Triang"},"geometry":{"type":"Point","coordinates":[102.2327,2.7123]}},{"type":"feature","properties":{"country_en":"Malaysia","name":"Kampung Permatang Panjang","name_adm0":"Malaysia","name_adm1":"Johor","name_adm2":"Segamat","name_en":"Kampung Permatang Panjang"},"geometry":{"type":"Point","coordinates":[102.6758,2.4348999999999994]}},{"type":"feature","properties":{"country_en":"Malaysia","name":"Taman Ria","name_adm0":"Malaysia","name_adm1":"Johor","name_adm2":"Segamat","name_en":"Taman Ria"},"geometry":{"type":"Point","coordinates":[102.5819,2.0776]}},{"type":"feature","properties":{"country_en":"Malaysia","name":"Kg Ulu Rening","name_adm0":"Malaysia","name_adm1":"Selangor","name_adm2":"Hulu Selangor","name_en":"Kg Ulu Rening"},"geometry":{"type":"Point","coordinates":[101.6952,3.4861]}},{"type":"feature","properties":{"country_en":"Malaysia","name":"Kampung Rambai","name_adm0":"Malaysia","name_adm1":"Negeri Sembilan","name_adm2":"Seremban","name_en":"Kampung Rambai"},"geometry":{"type":"Point","coordinates":[102.8037,2.6089]}},{"type":"feature","properties":{"country_en":"Malaysia","name":"Kampung Kepala Batas","name_adm0":"Malaysia","name_adm1":"Perak","name_adm2":"Larut \u0026 Matang","name_en":"Kampung Kepala Batas"},"geometry":{"type":"Point","coordinates":[100.50329,5.281979999999999]}},{"type":"feature","properties":{"country_en":"Malaysia","name":"Kampung Bukit Jaya","name_adm0":"Malaysia","name_adm1":"Perak","name_adm2":"Larut \u0026 Matang","name_en":"Kampung Bukit Jaya"},"geometry":{"type":"Point","coordinates":[100.74598,5.41515]}},{"type":"feature","properties":{"country_en":"Malaysia","name":"Kampung Tok Paduka","name_adm0":"Malaysia","name_adm1":"Perak","name_adm2":"Larut \u0026 Matang","name_en":"Kampung Tok Paduka"},"geometry":{"type":"Point","coordinates":[100.48563999999999,5.51028]}},{"type":"feature","properties":{"country_en":"Malaysia","name":"Kampung Anak Kurau","name_adm0":"Malaysia","name_adm1":"Perak","name_adm2":"Larut \u0026 Matang","name_en":"Kampung Anak Kurau"},"geometry":{"type":"Point","coordinates":[100.78333,4.95]}},{"type":"feature","properties":{"country_en":"Malaysia","name":"Taman Seri Budi","name_adm0":"Malaysia","name_adm1":"Melaka","name_adm2":"Melaka Tengah","name_en":"Taman Seri Budi"},"geometry":{"type":"Point","coordinates":[102.2189,2.3825]}},{"type":"feature","properties":{"country_en":"Malaysia","name":"Taman Ria","name_adm0":"Malaysia","name_adm1":"Perak","name_adm2":"Larut \u0026 Matang","name_en":"Taman Ria"},"geometry":{"type":"Point","coordinates":[101.124,4.627]}},{"type":"feature","properties":{"country_en":"Malaysia","name":"Kampung Larut Permai","name_adm0":"Malaysia","name_adm1":"Perak","name_adm2":"Larut \u0026 Matang","name_en":"Kampung Larut Permai"},"geometry":{"type":"Point","coordinates":[100.7505,4.1208]}},{"type":"feature","properties":{"country_en":"Malaysia","name":"Kampung Larut Tih","name_adm0":"Malaysia","name_adm1":"Perak","name_adm2":"Larut \u0026 Matang","name_en":"Kampung Larut Tih"},"geometry":{"type":"Point","coordinates":[100.92197,5.69447]}},{"type":"feature","properties":{"country_en":"Malaysia","name":"Kampung Pasir","name_adm0":"Malaysia","name_adm1":"Perak","name_adm2":"Larut \u0026 Matang","name_en":"Kampung Pasir"},"geometry":{"type":"Point","coordinates":[100.3933,5.71659]}},{"type":"feature","properties":{"country_en":"Malaysia","name":"Taman Tanjung Karang","name_adm0":"Malaysia","name_adm1":"Selangor","name_adm2":"Kuala Selangor","name_en":"Taman Tanjung Karang"},"geometry":{"type":"Point","coordinates":[101.1673,3.3965]}},{"type":"feature","properties":{"country_en":"Malaysia","name":"Taman Seri Tiram","name_adm0":"Malaysia","name_adm1":"Selangor","name_adm2":"Kuala Selangor","name_en":"Taman Seri Tiram"},"geometry":{"type":"Point","coordinates":[101.5309,3.6693]}},{"type":"feature","properties":{"country_en":"Malaysia","name":"Taman Bagan Pasir","name_adm0":"Malaysia","name_adm1":"Perak","name_adm2":"Hilir Perak","name_en":"Taman Bagan Pasir"},"geometry":{"type":"Point","coordinates":[100.8229,3.8804999999999996]}},{"type":"feature","properties":{"country_en":"Malaysia","name":"Kampung Titi Ijok","name_adm0":"Malaysia","name_adm1":"Perak","name_adm2":"Selama","name_en":"Kampung Titi Ijok"},"geometry":{"type":"Point","coordinates":[100.7,5.133329999999999]}},{"type":"feature","properties":{"country_en":"Malaysia","name":"Kampung Bukit Kuda","name_adm0":"Malaysia","name_adm1":"Melaka","name_adm2":"Jasin","name_en":"Kampung Bukit Kuda"},"geometry":{"type":"Point","coordinates":[102.327,2.8366]}},{"type":"feature","properties":{"country_en":"Malaysia","name":"Taman Panglima Pak","name_adm0":"Malaysia","name_adm1":"Melaka","name_adm2":"Jasin","name_en":"Taman Panglima Pak"},"geometry":{"type":"Point","coordinates":[102.4053,2.1392]}},{"type":"feature","properties":{"country_en":"Malaysia","name":"Taman Permatang","name_adm0":"Malaysia","name_adm1":"Perak","name_adm2":"Manjung","name_en":"Taman Permatang"},"geometry":{"type":"Point","coordinates":[101.1207,4.6297999999999995]}},{"type":"feature","properties":{"country_en":"Malaysia","name":"Taman Kenari","name_adm0":"Malaysia","name_adm1":"Perak","name_adm2":"Manjung","name_en":"Taman Kenari"},"geometry":{"type":"Point","coordinates":[101.0961,4.8213]}},{"type":"feature","properties":{"country_en":"Malaysia","name":"Taman Indah Ria","name_adm0":"Malaysia","name_adm1":"Perak","name_adm2":"Manjung","name_en":"Taman Indah Ria"},"geometry":{"type":"Point","coordinates":[101.1653,4.6612]}},{"type":"feature","properties":{"country_en":"Malaysia","name":"Kampung Tanjung Lengkong","name_adm0":"Malaysia","name_adm1":"Perak","name_adm2":"Selama","name_en":"Kampung Tanjung Lengkong"},"geometry":{"type":"Point","coordinates":[100.78838999999999,5.28893]}},{"type":"feature","properties":{"country_en":"Malaysia","name":"Taman Maju","name_adm0":"Malaysia","name_adm1":"Selangor","name_adm2":"Hulu Langat","name_en":"Taman Maju"},"geometry":{"type":"Point","coordinates":[102.41329999999999,2.2927]}},{"type":"feature","properties":{"country_en":"Malaysia","name":"Taman Sungai Nangka","name_adm0":"Malaysia","name_adm1":"Selangor","name_adm2":"Kuala Langat","name_en":"Taman Sungai Nangka"},"geometry":{"type":"Point","coordinates":[102.15,3.53333]}},{"type":"feature","properties":{"country_en":"Malaysia","name":"Kampung Pulau Banting","name_adm0":"Malaysia","name_adm1":"Selangor","name_adm2":"Kuala Langat","name_en":"Kampung Pulau Banting"},"geometry":{"type":"Point","coordinates":[102.2279,2.4501]}},{"type":"feature","properties":{"country_en":"Malaysia","name":"Kampung Jijan","name_adm0":"Malaysia","name_adm1":"Negeri Sembilan","name_adm2":"Seremban","name_en":"Kampung Jijan"},"geometry":{"type":"Point","coordinates":[102.5736,3.3438999999999997]}},{"type":"feature","properties":{"country_en":"Malaysia","name":"Kampung Pauh","name_adm0":"Malaysia","name_adm1":"Perak","name_adm2":"Larut \u0026 Matang","name_en":"Kampung Pauh"},"geometry":{"type":"Point","coordinates":[100.9611,4.7771]}},{"type":"feature","properties":{"country_en":"Malaysia","name":"Kampung Kurnia Jaya","name_adm0":"Malaysia","name_adm1":"Perak","name_adm2":"Larut \u0026 Matang","name_en":"Kampung Kurnia Jaya"},"geometry":{"type":"Point","coordinates":[100.77954999999999,5.05007]}},{"type":"feature","properties":{"country_en":"Malaysia","name":"Kampung Jana Baru","name_adm0":"Malaysia","name_adm1":"Perak","name_adm2":"Larut \u0026 Matang","name_en":"Kampung Jana Baru"},"geometry":{"type":"Point","coordinates":[100.47505,5.06854]}},{"type":"feature","properties":{"country_en":"Malaysia","name":"Kampung Rahmat","name_adm0":"Malaysia","name_adm1":"Perak","name_adm2":"Larut \u0026 Matang","name_en":"Kampung Rahmat"},"geometry":{"type":"Point","coordinates":[101.0883,4.5053]}},{"type":"feature","properties":{"country_en":"Malaysia","name":"Taman Sri Bangi Ii","name_adm0":"Malaysia","name_adm1":"Selangor","name_adm2":"Hulu Langat","name_en":"Taman Sri Bangi Ii"},"geometry":{"type":"Point","coordinates":[101.5331,2.825]}},{"type":"feature","properties":{"country_en":"Malaysia","name":"Taman Bukit Cantik","name_adm0":"Malaysia","name_adm1":"Selangor","name_adm2":"Hulu Langat","name_en":"Taman Bukit Cantik"},"geometry":{"type":"Point","coordinates":[102.3002,2.2221999999999995]}},{"type":"feature","properties":{"country_en":"Malaysia","name":"Kampung Orang Asli Bukit Putus","name_adm0":"Malaysia","name_adm1":"Melaka","name_adm2":"Alor Gajah","name_en":"Kampung Orang Asli Bukit Putus"},"geometry":{"type":"Point","coordinates":[102.3501,2.4835]}},{"type":"feature","properties":{"country_en":"Malaysia","name":"Taman Saga","name_adm0":"Malaysia","name_adm1":"Selangor","name_adm2":"Klang","name_en":"Taman Saga"},"geometry":{"type":"Point","coordinates":[100.9834,3.6782]}},{"type":"feature","properties":{"country_en":"Malaysia","name":"Kampung Sungai Batu","name_adm0":"Malaysia","name_adm1":"Perak","name_adm2":"Hilir Perak","name_en":"Kampung Sungai Batu"},"geometry":{"type":"Point","coordinates":[100.6262,4.4325]}},{"type":"feature","properties":{"country_en":"Malaysia","name":"Kampung Seri Air Kuning","name_adm0":"Malaysia","name_adm1":"Negeri Sembilan","name_adm2":"Tampin","name_en":"Kampung Seri Air Kuning"},"geometry":{"type":"Point","coordinates":[102.3194,2.706]}},{"type":"feature","properties":{"country_en":"Malaysia","name":"Taman Seri Air Kuning","name_adm0":"Malaysia","name_adm1":"Negeri Sembilan","name_adm2":"Tampin","name_en":"Taman Seri Air Kuning"},"geometry":{"type":"Point","coordinates":[102.4855,2.5173]}},{"type":"feature","properties":{"country_en":"Malaysia","name":"Kampung Baru Bukit Pilah","name_adm0":"Malaysia","name_adm1":"Negeri Sembilan","name_adm2":"Jempol","name_en":"Kampung Baru Bukit Pilah"},"geometry":{"type":"Point","coordinates":[102.5552,3.5218999999999996]}},{"type":"feature","properties":{"country_en":"Malaysia","name":"Kampung Sungai Malau Dalam","name_adm0":"Malaysia","name_adm1":"Perak","name_adm2":"Selama","name_en":"Kampung Sungai Malau Dalam"},"geometry":{"type":"Point","coordinates":[100.66884,5.13719]}},{"type":"feature","properties":{"country_en":"Malaysia","name":"Kampung Panchor","name_adm0":"Malaysia","name_adm1":"Negeri Sembilan","name_adm2":"Seremban","name_en":"Kampung Panchor"},"geometry":{"type":"Point","coordinates":[102.24599999999998,2.3491]}},{"type":"feature","properties":{"country_en":"Malaysia","name":"Taman Tunku Puan Ohik","name_adm0":"Malaysia","name_adm1":"Negeri Sembilan","name_adm2":"Jempol","name_en":"Taman Tunku Puan Ohik"},"geometry":{"type":"Point","coordinates":[102.3726,2.8071]}},{"type":"feature","properties":{"country_en":"Malaysia","name":"Kampong Hang Tuah","name_adm0":"Malaysia","name_adm1":"Selangor","name_adm2":"Kuala Selangor","name_en":"Kampong Hang Tuah"},"geometry":{"type":"Point","coordinates":[100.95,4.16667]}},{"type":"feature","properties":{"country_en":"Malaysia","name":"Kampung Nyior Gading","name_adm0":"Malaysia","name_adm1":"Terengganu","name_adm2":"Kemaman","name_en":"Kampung Nyior Gading"},"geometry":{"type":"Point","coordinates":[103.218,3.7503999999999995]}},{"type":"feature","properties":{"country_en":"Malaysia","name":"Kampung Lubuk Batu","name_adm0":"Malaysia","name_adm1":"Kedah","name_adm2":"Baling","name_en":"Kampung Lubuk Batu"},"geometry":{"type":"Point","coordinates":[100.89999999999999,4.8]}},{"type":"feature","properties":{"country_en":"Malaysia","name":"Kampung Lanai","name_adm0":"Malaysia","name_adm1":"Kedah","name_adm2":"Baling","name_en":"Kampung Lanai"},"geometry":{"type":"Point","coordinates":[100.75448,5.69517]}},{"type":"feature","properties":{"country_en":"Malaysia","name":"Kampung Padang","name_adm0":"Malaysia","name_adm1":"Kedah","name_adm2":"Baling","name_en":"Kampung Padang"},"geometry":{"type":"Point","coordinates":[100.80515,5.66695]}},{"type":"feature","properties":{"country_en":"Malaysia","name":"Taman Seri Muda","name_adm0":"Malaysia","name_adm1":"Perak","name_adm2":"Kerian","name_en":"Taman Seri Muda"},"geometry":{"type":"Point","coordinates":[100.55243999999999,5.41509]}},{"type":"feature","properties":{"country_en":"Malaysia","name":"Kampung Mengkuang Masjid","name_adm0":"Malaysia","name_adm1":"Kedah","name_adm2":"Baling","name_en":"Kampung Mengkuang Masjid"},"geometry":{"type":"Point","coordinates":[100.49832,5.40013]}},{"type":"feature","properties":{"country_en":"Malaysia","name":"Kampung Batu 18 Dalam","name_adm0":"Malaysia","name_adm1":"Kedah","name_adm2":"Bandar Baharu","name_en":"Kampung Batu 18 Dalam"},"geometry":{"type":"Point","coordinates":[100.5159,5.6308]}},{"type":"feature","properties":{"country_en":"Malaysia","name":"Kampung Sungai Setu","name_adm0":"Malaysia","name_adm1":"Kedah","name_adm2":"Bandar Baharu","name_en":"Kampung Sungai Setu"},"geometry":{"type":"Point","coordinates":[100.43584,5.148579999999999]}},{"type":"feature","properties":{"country_en":"Malaysia","name":"Kampung Garok Gunting","name_adm0":"Malaysia","name_adm1":"Kedah","name_adm2":"Baling","name_en":"Kampung Garok Gunting"},"geometry":{"type":"Point","coordinates":[100.8852,5.797829999999999]}},{"type":"feature","properties":{"country_en":"Malaysia","name":"Taman Permai","name_adm0":"Malaysia","name_adm1":"Kedah","name_adm2":"Baling","name_en":"Taman Permai"},"geometry":{"type":"Point","coordinates":[100.38969,5.38136]}},{"type":"feature","properties":{"country_en":"Malaysia","name":"Kampung Carok Kapas","name_adm0":"Malaysia","name_adm1":"Kedah","name_adm2":"Baling","name_en":"Kampung Carok Kapas"},"geometry":{"type":"Point","coordinates":[100.84999999999998,5.58333]}},{"type":"feature","properties":{"country_en":"Malaysia","name":"Kampung Carok Rotan Mas","name_adm0":"Malaysia","name_adm1":"Kedah","name_adm2":"Baling","name_en":"Kampung Carok Rotan Mas"},"geometry":{"type":"Point","coordinates":[100.65255,5.88004]}},{"type":"feature","properties":{"country_en":"Malaysia","name":"Taman Bakti","name_adm0":"Malaysia","name_adm1":"Pahang","name_adm2":"Lipis","name_en":"Taman Bakti"},"geometry":{"type":"Point","coordinates":[101.0712,4.6613]}},{"type":"feature","properties":{"country_en":"Malaysia","name":"Kampung Sungai Itam Dalam","name_adm0":"Malaysia","name_adm1":"Kedah","name_adm2":"Bandar Baharu","name_en":"Kampung Sungai Itam Dalam"},"geometry":{"type":"Point","coordinates":[100.67124999999999,5.25057]}},{"type":"feature","properties":{"country_en":"Malaysia","name":"Kampung Sungai Kasai","name_adm0":"Malaysia","name_adm1":"Kedah","name_adm2":"Bandar Baharu","name_en":"Kampung Sungai Kasai"},"geometry":{"type":"Point","coordinates":[100.69634,5.30969]}},{"type":"feature","properties":{"country_en":"Malaysia","name":"Taman Golden Wood","name_adm0":"Malaysia","name_adm1":"Selangor","name_adm2":"Hulu Selangor","name_en":"Taman Golden Wood"},"geometry":{"type":"Point","coordinates":[101.52879999999999,3.6664]}},{"type":"feature","properties":{"country_en":"Malaysia","name":"Kampung Hassan","name_adm0":"Malaysia","name_adm1":"Selangor","name_adm2":"Hulu Selangor","name_en":"Kampung Hassan"},"geometry":{"type":"Point","coordinates":[101.8802,3.9774999999999996]}},{"type":"feature","properties":{"country_en":"Malaysia","name":"Kampung Bilal","name_adm0":"Malaysia","name_adm1":"Selangor","name_adm2":"Hulu Selangor","name_en":"Kampung Bilal"},"geometry":{"type":"Point","coordinates":[102.52859,3.4949]}},{"type":"feature","properties":{"country_en":"Malaysia","name":"Kampung Bantang","name_adm0":"Malaysia","name_adm1":"Perak","name_adm2":"Batang Padang","name_en":"Kampung Bantang"},"geometry":{"type":"Point","coordinates":[101.0255,3.8066999999999998]}},{"type":"feature","properties":{"country_en":"Malaysia","name":"Kampung Org Asli","name_adm0":"Malaysia","name_adm1":"Perak","name_adm2":"Batang Padang","name_en":"Kampung Org Asli"},"geometry":{"type":"Point","coordinates":[101.869,3.2113]}},{"type":"feature","properties":{"country_en":"Malaysia","name":"Kampung Samy","name_adm0":"Malaysia","name_adm1":"Perak","name_adm2":"Batang Padang","name_en":"Kampung Samy"},"geometry":{"type":"Point","coordinates":[100.78816,4.97965]}},{"type":"feature","properties":{"country_en":"Malaysia","name":"Kampong Ketoyong Baru","name_adm0":"Malaysia","name_adm1":"Perak","name_adm2":"Batang Padang","name_en":"Kampong Ketoyong Baru"},"geometry":{"type":"Point","coordinates":[101.5092,3.6981]}},{"type":"feature","properties":{"country_en":"Malaysia","name":"Kampung Sabar Jaya","name_adm0":"Malaysia","name_adm1":"Perak","name_adm2":"Batang Padang","name_en":"Kampung Sabar Jaya"},"geometry":{"type":"Point","coordinates":[101.9277,3.8299]}},{"type":"feature","properties":{"country_en":"Malaysia","name":"Taman Desa Kenanga","name_adm0":"Malaysia","name_adm1":"Perak","name_adm2":"Perak Tengah","name_en":"Taman Desa Kenanga"},"geometry":{"type":"Point","coordinates":[100.9723,3.7655]}},{"type":"feature","properties":{"country_en":"Malaysia","name":"Taman Bemban","name_adm0":"Malaysia","name_adm1":"Perak","name_adm2":"Kinta","name_en":"Taman Bemban"},"geometry":{"type":"Point","coordinates":[100.7097,4.1964]}},{"type":"feature","properties":{"country_en":"Malaysia","name":"Kampung Mak Teh","name_adm0":"Malaysia","name_adm1":"Perak","name_adm2":"Batang Padang","name_en":"Kampung Mak Teh"},"geometry":{"type":"Point","coordinates":[102.10907,4.3566]}},{"type":"feature","properties":{"country_en":"Malaysia","name":"Kampung Baru Banir","name_adm0":"Malaysia","name_adm1":"Perak","name_adm2":"Batang Padang","name_en":"Kampung Baru Banir"},"geometry":{"type":"Point","coordinates":[102.0853,4.1671]}},