{"type":"FeatureCollection","features":[{"type":"feature","properties":{"country_en":"Norway","name":"Bjørnskinn","name_adm0":"Norge","name_adm1":"Nordland Fylke","name_adm2":"Andøy Kommune","name_en":"Bjørnskinn"},"geometry":{"type":"Point","coordinates":[15.643609999999999,69.00139]}},{"type":"feature","properties":{"country_en":"Norway","name":"Bjørtuft","name_adm0":"Norge","name_adm1":"Telemark Fylke","name_adm2":"Tinn Kommune","name_en":"Bjørtuft"},"geometry":{"type":"Point","coordinates":[8.73333,59.916669999999996]}},{"type":"feature","properties":{"country_en":"Norway","name":"Breidvik","name_adm0":"Norge","name_adm1":"Troms Fylke","name_adm2":"Harstad Kommune","name_en":"Breidvik"},"geometry":{"type":"Point","coordinates":[16.566669999999995,68.73333]}},{"type":"feature","properties":{"country_en":"Norway","name":"Breidvik","name_adm0":"Norge","name_adm1":"Nordland Fylke","name_adm2":"Hadsel Kommune","name_en":"Breidvik"},"geometry":{"type":"Point","coordinates":[14.733329999999999,68.58333]}},{"type":"feature","properties":{"country_en":"Norway","name":"Breivikbotn","name_adm0":"Norge","name_adm1":"Finnmark Fylke","name_adm2":"Hasvik Kommune","name_en":"Breivikbotn"},"geometry":{"type":"Point","coordinates":[22.28486,70.58871]}},{"type":"feature","properties":{"country_en":"Norway","name":"Brekka","name_adm0":"Norge","name_adm1":"Aust-Agder Fylke","name_adm2":"Arendal Kommune","name_en":"Brekka"},"geometry":{"type":"Point","coordinates":[8.8,58.566669999999995]}},{"type":"feature","properties":{"country_en":"Norway","name":"Dale","name_adm0":"Norge","name_adm1":"Oppland Fylke","name_adm2":"Sel Kommune","name_en":"Dale"},"geometry":{"type":"Point","coordinates":[9.5,61.78333]}},{"type":"feature","properties":{"country_en":"Norway","name":"Elda","name_adm0":"Norge","name_adm1":"Nord-Trøndelag Fylke","name_adm2":"Namdalseid Kommune","name_en":"Elda"},"geometry":{"type":"Point","coordinates":[11.21667,64.18333]}},{"type":"feature","properties":{"country_en":"Norway","name":"Eldøy","name_adm0":"Norge","name_adm1":"Hordaland Fylke","name_adm2":"Stord Kommune","name_en":"Eldøy"},"geometry":{"type":"Point","coordinates":[5.5,59.76667]}},{"type":"feature","properties":{"country_en":"Norway","name":"Fjell","name_adm0":"Norge","name_adm1":"Akershus Fylke","name_adm2":"Nes Kommune","name_en":"Fjell"},"geometry":{"type":"Point","coordinates":[11.41667,60.04999999999999]}},{"type":"feature","properties":{"country_en":"Norway","name":"Maudal","name_adm0":"Norge","name_adm1":"Rogaland Fylke","name_adm2":"Gjesdal Kommune","name_en":"Maudal"},"geometry":{"type":"Point","coordinates":[6.35,58.76667]}},{"type":"feature","properties":{"country_en":"Norway","name":"Medby","name_adm0":"Norge","name_adm1":"Troms Fylke","name_adm2":"Torsken Kommune","name_en":"Medby"},"geometry":{"type":"Point","coordinates":[17.03333,69.28332999999999]}},{"type":"feature","properties":{"country_en":"Norway","name":"Skitenelv","name_adm0":"Norge","name_adm1":"Troms Fylke","name_adm2":"Tromsø Kommune","name_en":"Skitenelv"},"geometry":{"type":"Point","coordinates":[19.4,69.78333]}},{"type":"feature","properties":{"country_en":"Norway","name":"Meisingset","name_adm0":"Norge","name_adm1":"Møre og Romsdal Fylke","name_adm2":"Tingvoll Kommune","name_en":"Meisingset"},"geometry":{"type":"Point","coordinates":[8.28,62.856109999999994]}},{"type":"feature","properties":{"country_en":"Norway","name":"Skorvangen","name_adm0":"Norge","name_adm1":"Oppland Fylke","name_adm2":"Vågå Kommune","name_en":"Skorvangen"},"geometry":{"type":"Point","coordinates":[8.96667,61.93333]}},{"type":"feature","properties":{"country_en":"Norway","name":"Sordal","name_adm0":"Norge","name_adm1":"Aust-Agder Fylke","name_adm2":"Bygland Kommune","name_en":"Sordal"},"geometry":{"type":"Point","coordinates":[7.6,58.98333]}},{"type":"feature","properties":{"country_en":"Norway","name":"Steigen","name_adm0":"Norge","name_adm1":"Nordland Fylke","name_adm2":"Steigen Kommune","name_en":"Steigen"},"geometry":{"type":"Point","coordinates":[14.981939999999998,67.93556]}},{"type":"feature","properties":{"country_en":"Norway","name":"Steine","name_adm0":"Norge","name_adm1":"Nordland Fylke","name_adm2":"Bø Kommune","name_en":"Steine"},"geometry":{"type":"Point","coordinates":[14.483330000000002,68.61667]}},{"type":"feature","properties":{"country_en":"Norway","name":"Storneshamn","name_adm0":"Norge","name_adm1":"Troms Fylke","name_adm2":"Nordreisa Kommune","name_en":"Storneshamn"},"geometry":{"type":"Point","coordinates":[21.05,69.89999999999999]}},{"type":"feature","properties":{"country_en":"Norway","name":"Ytterlendingen","name_adm0":"Norge","name_adm1":"Nordland Fylke","name_adm2":"Rana Kommune","name_en":"Ytterlendingen"},"geometry":{"type":"Point","coordinates":[14.13333,66.36667]}},{"type":"feature","properties":{"country_en":"Norway","name":"Steinsland","name_adm0":"Norge","name_adm1":"Hordaland Fylke","name_adm2":"Sund Kommune","name_en":"Steinsland"},"geometry":{"type":"Point","coordinates":[5.09903,60.1959]}},{"type":"feature","properties":{"country_en":"Norway","name":"Holsgrenda","name_adm0":"Norge","name_adm1":"Sør-Trøndelag Fylke","name_adm2":"Oppdal Kommune","name_en":"Holsgrenda"},"geometry":{"type":"Point","coordinates":[9.387622,62.574672]}},{"type":"feature","properties":{"country_en":"Norway","name":"Slattum","name_adm0":"Norge","name_adm1":"Akershus Fylke","name_adm2":"Nittedal Kommune","name_en":"Slattum"},"geometry":{"type":"Point","coordinates":[10.91667,59.99999999999999]}},{"type":"feature","properties":{"country_en":"Norway","name":"Tunge","name_adm0":"Norge","name_adm1":"Rogaland Fylke","name_adm2":"Randaberg Kommune","name_en":"Tunge"},"geometry":{"type":"Point","coordinates":[5.58333,59.03333]}},{"type":"feature","properties":{"country_en":"Norway","name":"Årfor","name_adm0":"Norge","name_adm1":"Nord-Trøndelag Fylke","name_adm2":"Nærøy Kommune","name_en":"Aarfor"},"geometry":{"type":"Point","coordinates":[11.96667,64.95]}},{"type":"feature","properties":{"country_en":"Norway","name":"Årland","name_adm0":"Norge","name_adm1":"Hordaland Fylke","name_adm2":"Austevoll Kommune","name_en":"Aarland"},"geometry":{"type":"Point","coordinates":[5.1,59.99999999999999]}},{"type":"feature","properties":{"country_en":"Norway","name":"Bjørnstad","name_adm0":"Norge","name_adm1":"Møre og Romsdal Fylke","name_adm2":"Rindal Kommune","name_en":"Bjørnstad"},"geometry":{"type":"Point","coordinates":[9.2,63.06667000000001]}},{"type":"feature","properties":{"country_en":"Norway","name":"Bjørnstad","name_adm0":"Norge","name_adm1":"Finnmark Fylke","name_adm2":"Alta Kommune","name_en":"Bjørnstad"},"geometry":{"type":"Point","coordinates":[23.5,69.91667]}},{"type":"feature","properties":{"country_en":"Norway","name":"Blæstad","name_adm0":"Norge","name_adm1":"Hedmark Fylke","name_adm2":"Trysil Kommune","name_en":"Blæstad"},"geometry":{"type":"Point","coordinates":[11.96667,61.383329999999994]}},{"type":"feature","properties":{"country_en":"Norway","name":"Brekkhus","name_adm0":"Norge","name_adm1":"Hordaland Fylke","name_adm2":"Voss Kommune","name_en":"Brekkhus"},"geometry":{"type":"Point","coordinates":[6.15,60.733329999999995]}},{"type":"feature","properties":{"country_en":"Norway","name":"Brennsdal","name_adm0":"Norge","name_adm1":"Sogn og Fjordane Fylke","name_adm2":"Hyllestad Kommune","name_en":"Brennsdal"},"geometry":{"type":"Point","coordinates":[5.3999999999999995,61.08332999999999]}},{"type":"feature","properties":{"country_en":"Norway","name":"Brøderud","name_adm0":"Norge","name_adm1":"Hedmark Fylke","name_adm2":"Kongsvinger Kommune","name_en":"Brøderud"},"geometry":{"type":"Point","coordinates":[12.1,60.25]}},{"type":"feature","properties":{"country_en":"Norway","name":"Broem","name_adm0":"Norge","name_adm1":"Nord-Trøndelag Fylke","name_adm2":"Namsos Kommune","name_en":"Broem"},"geometry":{"type":"Point","coordinates":[11.3,64.49999999999999]}},{"type":"feature","properties":{"country_en":"Norway","name":"Brørs","name_adm0":"Norge","name_adm1":"Nord-Trøndelag Fylke","name_adm2":"Namdalseid Kommune","name_en":"Brørs"},"geometry":{"type":"Point","coordinates":[11.25,64.25]}},{"type":"feature","properties":{"country_en":"Norway","name":"Dåri","name_adm0":"Norge","name_adm1":"Vest-Agder Fylke","name_adm2":"Farsund Kommune","name_en":"Dåri"},"geometry":{"type":"Point","coordinates":[6.93333,58.11667]}},{"type":"feature","properties":{"country_en":"Norway","name":"Doglo","name_adm0":"Norge","name_adm1":"Hedmark Fylke","name_adm2":"Ringsaker Kommune","name_en":"Doglo"},"geometry":{"type":"Point","coordinates":[11.03333,60.85]}},{"type":"feature","properties":{"country_en":"Norway","name":"Fåsdal","name_adm0":"Norge","name_adm1":"Vest-Agder Fylke","name_adm2":"Flekkefjord Kommune","name_en":"Fåsdal"},"geometry":{"type":"Point","coordinates":[6.73333,58.433330000000005]}},{"type":"feature","properties":{"country_en":"Norway","name":"Fattnes","name_adm0":"Norge","name_adm1":"Rogaland Fylke","name_adm2":"Suldal Kommune","name_en":"Fattnes"},"geometry":{"type":"Point","coordinates":[6.299999999999999,59.53333]}},{"type":"feature","properties":{"country_en":"Norway","name":"Flatebygd","name_adm0":"Norge","name_adm1":"Aust-Agder Fylke","name_adm2":"Evje og Hornnes Kommune","name_en":"Flatebygd"},"geometry":{"type":"Point","coordinates":[7.81667,58.6]}},{"type":"feature","properties":{"country_en":"Norway","name":"Flateland","name_adm0":"Norge","name_adm1":"Telemark Fylke","name_adm2":"Hjartdal Kommune","name_en":"Flateland"},"geometry":{"type":"Point","coordinates":[8.65,59.60000000000001]}},{"type":"feature","properties":{"country_en":"Norway","name":"Flathus","name_adm0":"Norge","name_adm1":"Telemark Fylke","name_adm2":"Sauherad Kommune","name_en":"Flathus"},"geometry":{"type":"Point","coordinates":[9.33333,59.41667]}},{"type":"feature","properties":{"country_en":"Norway","name":"Flatval","name_adm0":"Norge","name_adm1":"Sør-Trøndelag Fylke","name_adm2":"Frøya Kommune","name_en":"Flatval"},"geometry":{"type":"Point","coordinates":[8.76667,63.68332999999999]}},{"type":"feature","properties":{"country_en":"Norway","name":"Fossheim","name_adm0":"Norge","name_adm1":"Nordland Fylke","name_adm2":"Grane Kommune","name_en":"Fossheim"},"geometry":{"type":"Point","coordinates":[13.4,65.53333]}},{"type":"feature","properties":{"country_en":"Norway","name":"Fuglli","name_adm0":"Norge","name_adm1":"Troms Fylke","name_adm2":"Målselv Kommune","name_en":"Fuglli"},"geometry":{"type":"Point","coordinates":[18.33333,69.23333]}},{"type":"feature","properties":{"country_en":"Norway","name":"Furuset","name_adm0":"Norge","name_adm1":"Akershus Fylke","name_adm2":"Ullensaker Kommune","name_en":"Furuset"},"geometry":{"type":"Point","coordinates":[11.28333,60.15]}},{"type":"feature","properties":{"country_en":"Norway","name":"Fuskeland","name_adm0":"Norge","name_adm1":"Vest-Agder Fylke","name_adm2":"Mandal Kommune","name_en":"Fuskeland"},"geometry":{"type":"Point","coordinates":[7.51667,58.11667]}},{"type":"feature","properties":{"country_en":"Norway","name":"Fykse","name_adm0":"Norge","name_adm1":"Hordaland Fylke","name_adm2":"Kvam Kommune","name_en":"Fykse"},"geometry":{"type":"Point","coordinates":[6.28333,60.39999999999999]}},{"type":"feature","properties":{"country_en":"Norway","name":"Gaulavik","name_adm0":"Norge","name_adm1":"Vest-Agder Fylke","name_adm2":"Audnedal Kommune","name_en":"Gaulavik"},"geometry":{"type":"Point","coordinates":[7.38333,58.41667]}},{"type":"feature","properties":{"country_en":"Norway","name":"Gaupar","name_adm0":"Norge","name_adm1":"Oppland Fylke","name_adm2":"Lom Kommune","name_en":"Gaupar"},"geometry":{"type":"Point","coordinates":[8.4,61.75]}},{"type":"feature","properties":{"country_en":"Norway","name":"Gaustad","name_adm0":"Norge","name_adm1":"Hedmark Fylke","name_adm2":"Eidskog Kommune","name_en":"Gaustad"},"geometry":{"type":"Point","coordinates":[12.15,59.96666999999999]}},{"type":"feature","properties":{"country_en":"Norway","name":"Glorvika","name_adm0":"Norge","name_adm1":"Hedmark Fylke","name_adm2":"Åsnes Kommune","name_en":"Glorvika"},"geometry":{"type":"Point","coordinates":[11.96667,60.68333]}},{"type":"feature","properties":{"country_en":"Norway","name":"Hopla","name_adm0":"Norge","name_adm1":"Nord-Trøndelag Fylke","name_adm2":"Levanger Kommune","name_en":"Hopla"},"geometry":{"type":"Point","coordinates":[10.96667,63.599999999999994]}},{"type":"feature","properties":{"country_en":"Norway","name":"Horndalen","name_adm0":"Norge","name_adm1":"Hedmark Fylke","name_adm2":"Elverum Kommune","name_en":"Horndalen"},"geometry":{"type":"Point","coordinates":[11.633329999999999,60.96667]}},{"type":"feature","properties":{"country_en":"Norway","name":"Horne","name_adm0":"Norge","name_adm1":"Sogn og Fjordane Fylke","name_adm2":"Naustdal Kommune","name_en":"Horne"},"geometry":{"type":"Point","coordinates":[5.2666699999999995,61.5]}},{"type":"feature","properties":{"country_en":"Norway","name":"Hornes","name_adm0":"Norge","name_adm1":"Nord-Trøndelag Fylke","name_adm2":"Flatanger Kommune","name_en":"Hornes"},"geometry":{"type":"Point","coordinates":[10.65,64.43333]}},{"type":"feature","properties":{"country_en":"Norway","name":"Hovde","name_adm0":"Norge","name_adm1":"Sør-Trøndelag Fylke","name_adm2":"Ørland Kommune","name_en":"Hovde"},"geometry":{"type":"Point","coordinates":[9.65,63.68332999999999]}},{"type":"feature","properties":{"country_en":"Norway","name":"Hovde","name_adm0":"Norge","name_adm1":"Hedmark Fylke","name_adm2":"Stor-Elvdal Kommune","name_en":"Hovde"},"geometry":{"type":"Point","coordinates":[11.33333,61.25000000000001]}},{"type":"feature","properties":{"country_en":"Norway","name":"Hovde","name_adm0":"Norge","name_adm1":"Telemark Fylke","name_adm2":"Hjartdal Kommune","name_en":"Hovde"},"geometry":{"type":"Point","coordinates":[8.81667,59.74999999999999]}},{"type":"feature","properties":{"country_en":"Norway","name":"Hovden","name_adm0":"Norge","name_adm1":"Telemark Fylke","name_adm2":"Tokke Kommune","name_en":"Hovden"},"geometry":{"type":"Point","coordinates":[8.16667,59.55]}},{"type":"feature","properties":{"country_en":"Norway","name":"Husby","name_adm0":"Norge","name_adm1":"Sør-Trøndelag Fylke","name_adm2":"Rissa Kommune","name_en":"Husby"},"geometry":{"type":"Point","coordinates":[10.11667,63.75]}},{"type":"feature","properties":{"country_en":"Norway","name":"Husby","name_adm0":"Norge","name_adm1":"Møre og Romsdal Fylke","name_adm2":"Aure Kommune","name_en":"Husby"},"geometry":{"type":"Point","coordinates":[8.4,63.24999999999999]}},{"type":"feature","properties":{"country_en":"Norway","name":"Husdalen","name_adm0":"Norge","name_adm1":"Sør-Trøndelag Fylke","name_adm2":"Orkdal Kommune","name_en":"Husdalen"},"geometry":{"type":"Point","coordinates":[9.88333,63.36667]}},{"type":"feature","properties":{"country_en":"Norway","name":"Huseby","name_adm0":"Norge","name_adm1":"Akershus Fylke","name_adm2":"Sørum Kommune","name_en":"Huseby"},"geometry":{"type":"Point","coordinates":[11.31667,59.99999999999999]}},{"type":"feature","properties":{"country_en":"Norway","name":"Jamtjorda","name_adm0":"Norge","name_adm1":"Nordland Fylke","name_adm2":"Rana Kommune","name_en":"Jamtjorda"},"geometry":{"type":"Point","coordinates":[13.8,66.3]}},{"type":"feature","properties":{"country_en":"Norway","name":"Jarlsberg","name_adm0":"Norge","name_adm1":"Vestfold Fylke","name_adm2":"Tønsberg Kommune","name_en":"Jarlsberg"},"geometry":{"type":"Point","coordinates":[10.35,59.28333]}},{"type":"feature","properties":{"country_en":"Norway","name":"Lenvik","name_adm0":"Norge","name_adm1":"Nordland Fylke","name_adm2":"Evenes Kommune","name_en":"Lenvik"},"geometry":{"type":"Point","coordinates":[17.06667,68.51667]}},{"type":"feature","properties":{"country_en":"Norway","name":"Lerrisfjord","name_adm0":"Norge","name_adm1":"Finnmark Fylke","name_adm2":"Alta Kommune","name_en":"Lerrisfjord"},"geometry":{"type":"Point","coordinates":[23.51694,70.28221999999998]}},{"type":"feature","properties":{"country_en":"Norway","name":"Lervik","name_adm0":"Norge","name_adm1":"Nord-Trøndelag Fylke","name_adm2":"Mosvik Kommune","name_en":"Lervik"},"geometry":{"type":"Point","coordinates":[10.683329999999998,63.83333]}},{"type":"feature","properties":{"country_en":"Norway","name":"Ljøkel","name_adm0":"Norge","name_adm1":"Sør-Trøndelag Fylke","name_adm2":"Orkdal Kommune","name_en":"Mel"},"geometry":{"type":"Point","coordinates":[9.76667,63.199999999999996]}},{"type":"feature","properties":{"country_en":"Norway","name":"Ljøner","name_adm0":"Norge","name_adm1":"Hedmark Fylke","name_adm2":"Eidskog Kommune","name_en":"Ljøner"},"geometry":{"type":"Point","coordinates":[11.9,59.93333]}},{"type":"feature","properties":{"country_en":"Norway","name":"Moldtua","name_adm0":"Norge","name_adm1":"Sør-Trøndelag Fylke","name_adm2":"Snillfjord Kommune","name_en":"Moldtua"},"geometry":{"type":"Point","coordinates":[9.48333,63.56667]}},{"type":"feature","properties":{"country_en":"Norway","name":"Momrak","name_adm0":"Norge","name_adm1":"Telemark Fylke","name_adm2":"Fyresdal Kommune","name_en":"Momrak"},"geometry":{"type":"Point","coordinates":[8.13333,59.133329999999994]}},{"type":"feature","properties":{"country_en":"Norway","name":"Møri","name_adm0":"Norge","name_adm1":"Sør-Trøndelag Fylke","name_adm2":"Åfjord Kommune","name_en":"Møri"},"geometry":{"type":"Point","coordinates":[10.21667,63.91667]}},{"type":"feature","properties":{"country_en":"Norway","name":"Morki","name_adm0":"Norge","name_adm1":"Hordaland Fylke","name_adm2":"Radøy Kommune","name_en":"Morki"},"geometry":{"type":"Point","coordinates":[5.06944,60.63305999999999]}},{"type":"feature","properties":{"country_en":"Norway","name":"Mørkved","name_adm0":"Norge","name_adm1":"Nordland Fylke","name_adm2":"Bodø Kommune","name_en":"Mørkved"},"geometry":{"type":"Point","coordinates":[14.533329999999998,67.28333]}},{"type":"feature","properties":{"country_en":"Norway","name":"Mørstad","name_adm0":"Norge","name_adm1":"Hedmark Fylke","name_adm2":"Åmot Kommune","name_en":"Mørstad"},"geometry":{"type":"Point","coordinates":[11.38333,61.11667]}},{"type":"feature","properties":{"country_en":"Norway","name":"Mørsvik","name_adm0":"Norge","name_adm1":"Nordland Fylke","name_adm2":"Sørfold Kommune","name_en":"Mørsvik"},"geometry":{"type":"Point","coordinates":[15.85,67.7]}},{"type":"feature","properties":{"country_en":"Norway","name":"Nerebø","name_adm0":"Norge","name_adm1":"Aust-Agder Fylke","name_adm2":"Grimstad Kommune","name_en":"Nerebø"},"geometry":{"type":"Point","coordinates":[8.45,58.33333]}},{"type":"feature","properties":{"country_en":"Norway","name":"Okkelberg","name_adm0":"Norge","name_adm1":"Nord-Trøndelag Fylke","name_adm2":"Stjørdal Kommune","name_en":"Okkelberg"},"geometry":{"type":"Point","coordinates":[11.083329999999998,63.53333]}},{"type":"feature","properties":{"country_en":"Norway","name":"Olderbakken","name_adm0":"Norge","name_adm1":"Troms Fylke","name_adm2":"Tromsø Kommune","name_en":"Olderbakken"},"geometry":{"type":"Point","coordinates":[19.76667,69.58333]}},{"type":"feature","properties":{"country_en":"Norway","name":"Olestad","name_adm0":"Norge","name_adm1":"Hedmark Fylke","name_adm2":"Ringsaker Kommune","name_en":"Olestad"},"geometry":{"type":"Point","coordinates":[10.683329999999998,61.11667]}},{"type":"feature","properties":{"country_en":"Norway","name":"Ølveset","name_adm0":"Norge","name_adm1":"Hordaland Fylke","name_adm2":"Fjell Kommune","name_en":"Ølveset"},"geometry":{"type":"Point","coordinates":[5.04583,60.32611]}},{"type":"feature","properties":{"country_en":"Norway","name":"Osnes","name_adm0":"Norge","name_adm1":"Hordaland Fylke","name_adm2":"Etne Kommune","name_en":"Osnes"},"geometry":{"type":"Point","coordinates":[5.91667,59.650000000000006]}},{"type":"feature","properties":{"country_en":"Norway","name":"Ospedalen","name_adm0":"Norge","name_adm1":"Vest-Agder Fylke","name_adm2":"Søgne Kommune","name_en":"Ospedalen"},"geometry":{"type":"Point","coordinates":[7.666670000000001,58.099999999999994]}},{"type":"feature","properties":{"country_en":"Norway","name":"Ramberg","name_adm0":"Norge","name_adm1":"Nordland Fylke","name_adm2":"Bø Kommune","name_en":"Ramberg"},"geometry":{"type":"Point","coordinates":[14.616669999999997,68.63333]}},{"type":"feature","properties":{"country_en":"Norway","name":"Prestfoss","name_adm0":"Norge","name_adm1":"Buskerud Fylke","name_adm2":"Sigdal Kommune","name_en":"Prestfoss"},"geometry":{"type":"Point","coordinates":[9.63022,60.04223]}},{"type":"feature","properties":{"country_en":"Norway","name":"Ramsland","name_adm0":"Norge","name_adm1":"Vest-Agder Fylke","name_adm2":"Lindesnes Kommune","name_en":"Ramsland"},"geometry":{"type":"Point","coordinates":[7.1,58.03333]}},{"type":"feature","properties":{"country_en":"Norway","name":"Ramsøya","name_adm0":"Norge","name_adm1":"Hedmark Fylke","name_adm2":"Kongsvinger Kommune","name_en":"Ramsøya"},"geometry":{"type":"Point","coordinates":[12.03333,60.36667]}},{"type":"feature","properties":{"country_en":"Norway","name":"Reitan","name_adm0":"Norge","name_adm1":"Nord-Trøndelag Fylke","name_adm2":"Namsos Kommune","name_en":"Reitan"},"geometry":{"type":"Point","coordinates":[11.33333,64.36667]}},{"type":"feature","properties":{"country_en":"Norway","name":"Revset","name_adm0":"Norge","name_adm1":"Sør-Trøndelag Fylke","name_adm2":"Midtre Gauldal Kommune","name_en":"Revset"},"geometry":{"type":"Point","coordinates":[10.45,63]}},{"type":"feature","properties":{"country_en":"Norway","name":"Revsneshamn","name_adm0":"Norge","name_adm1":"Finnmark Fylke","name_adm2":"Kvalsund Kommune","name_en":"Revsneshamn"},"geometry":{"type":"Point","coordinates":[24.35306,70.68111]}},{"type":"feature","properties":{"country_en":"Norway","name":"Rinde","name_adm0":"Norge","name_adm1":"Telemark Fylke","name_adm2":"Kragerø Kommune","name_en":"Rinde"},"geometry":{"type":"Point","coordinates":[9.31667,58.9]}},{"type":"feature","properties":{"country_en":"Norway","name":"Ringereid","name_adm0":"Norge","name_adm1":"Sogn og Fjordane Fylke","name_adm2":"Høyanger Kommune","name_en":"Ringereid"},"geometry":{"type":"Point","coordinates":[5.53333,61.11667]}},{"type":"feature","properties":{"country_en":"Norway","name":"Risnes","name_adm0":"Norge","name_adm1":"Hordaland Fylke","name_adm2":"Masfjorden Kommune","name_en":"Risnes"},"geometry":{"type":"Point","coordinates":[5.199999999999999,60.83332999999999]}},{"type":"feature","properties":{"country_en":"Norway","name":"Robøle","name_adm0":"Norge","name_adm1":"Oppland Fylke","name_adm2":"Øystre Slidre Kommune","name_en":"Robøle"},"geometry":{"type":"Point","coordinates":[9.11667,61.166669999999996]}},{"type":"feature","properties":{"country_en":"Norway","name":"Rød","name_adm0":"Norge","name_adm1":"Sør-Trøndelag Fylke","name_adm2":"Melhus Kommune","name_en":"Rød"},"geometry":{"type":"Point","coordinates":[9.999999999999998,63.1]}},{"type":"feature","properties":{"country_en":"Norway","name":"Åkrehamn","name_adm0":"Norge","name_adm1":"Rogaland Fylke","name_adm2":"Karmøy Kommune","name_en":"Akrehavn"},"geometry":{"type":"Point","coordinates":[5.18333,59.266670000000005]}},{"type":"feature","properties":{"country_en":"Norway","name":"Filtvet","name_adm0":"Norge","name_adm1":"Buskerud Fylke","name_adm2":"Hurum Kommune","name_en":"Filtvet"},"geometry":{"type":"Point","coordinates":[10.615,59.573609999999995]}},{"type":"feature","properties":{"country_en":"Norway","name":"Grimstad","name_adm0":"Norge","name_adm1":"Aust-Agder Fylke","name_adm2":"Grimstad Kommune","name_en":"Grimstad"},"geometry":{"type":"Point","coordinates":[8.59343,58.3405]}},{"type":"feature","properties":{"country_en":"Norway","name":"Kragerø","name_adm0":"Norge","name_adm1":"Telemark Fylke","name_adm2":"Kragerø Kommune","name_en":"Kragero"},"geometry":{"type":"Point","coordinates":[9.414939999999998,58.8693]}},{"type":"feature","properties":{"country_en":"Norway","name":"Koppang","name_adm0":"Norge","name_adm1":"Hedmark Fylke","name_adm2":"Stor-Elvdal Kommune","name_en":"Koppang"},"geometry":{"type":"Point","coordinates":[11.05548,61.57065]}},{"type":"feature","properties":{"country_en":"Norway","name":"Melsomvik","name_adm0":"Norge","name_adm1":"Vestfold Fylke","name_adm2":"Stokke Kommune","name_en":"Melsomvik"},"geometry":{"type":"Point","coordinates":[10.34472,59.22388999999999]}},{"type":"feature","properties":{"country_en":"Norway","name":"Rånåsfoss","name_adm0":"Norge","name_adm1":"Akershus Fylke","name_adm2":"Sørum Kommune","name_en":"Raanaasfoss"},"geometry":{"type":"Point","coordinates":[11.33738,60.03116]}},{"type":"feature","properties":{"country_en":"Norway","name":"Bergeløkka","name_adm0":"Norge","name_adm1":"Buskerud Fylke","name_adm2":"Ringerike Kommune","name_en":"Bergeløkka"},"geometry":{"type":"Point","coordinates":[10.370235,60.097984999999994]}},{"type":"feature","properties":{"country_en":"Norway","name":"Stamsund","name_adm0":"Norge","name_adm1":"Nordland Fylke","name_adm2":"Vestvågøy Kommune","name_en":"Stamsund"},"geometry":{"type":"Point","coordinates":[13.80528,68.12583]}},{"type":"feature","properties":{"country_en":"Norway","name":"Stabekk","name_adm0":"Norge","name_adm1":"Akershus Fylke","name_adm2":"Bærum Kommune","name_en":"Stabekk"},"geometry":{"type":"Point","coordinates":[10.60556,59.9075]}},{"type":"feature","properties":{"country_en":"Norway","name":"Vossavangen","name_adm0":"Norge","name_adm1":"Hordaland Fylke","name_adm2":"Voss Kommune","name_en":"Vossavangen"},"geometry":{"type":"Point","coordinates":[6.42286,60.62295999999999]}},{"type":"feature","properties":{"country_en":"Norway","name":"Birkestrand","name_adm0":"Norge","name_adm1":"Finnmark Fylke","name_adm2":"Tana Kommune","name_en":"Birkestrand"},"geometry":{"type":"Point","coordinates":[28.442444,70.509324]}},{"type":"feature","properties":{"country_en":"Norway","name":"Stor-Elvdal Kommune","name_adm0":"Norge","name_adm1":"Hedmark Fylke","name_adm2":"Stor-Elvdal Kommune","name_en":"Stor-Elvdal Kommune"},"geometry":{"type":"Point","coordinates":[11.04759,61.57198]}},{"type":"feature","properties":{"country_en":"Norway","name":"Åkenes","name_adm0":"Norge","name_adm1":"Nordland Fylke","name_adm2":"Andøy Kommune","name_en":"Aaknes"},"geometry":{"type":"Point","coordinates":[15.45,68.96667]}},{"type":"feature","properties":{"country_en":"Norway","name":"Åker","name_adm0":"Norge","name_adm1":"Nordland Fylke","name_adm2":"Dønna Kommune","name_en":"Aaker"},"geometry":{"type":"Point","coordinates":[12.56667,66.16667]}},{"type":"feature","properties":{"country_en":"Norway","name":"Ånstad","name_adm0":"Norge","name_adm1":"Nordland Fylke","name_adm2":"Hadsel Kommune","name_en":"Aanstad"},"geometry":{"type":"Point","coordinates":[14.699999999999998,68.53333]}},{"type":"feature","properties":{"country_en":"Norway","name":"Arabygdi","name_adm0":"Norge","name_adm1":"Telemark Fylke","name_adm2":"Vinje Kommune","name_en":"Arabygdi"},"geometry":{"type":"Point","coordinates":[7.749999999999999,59.76667]}},{"type":"feature","properties":{"country_en":"Norway","name":"Auma","name_adm0":"Norge","name_adm1":"Hedmark Fylke","name_adm2":"Tynset Kommune","name_en":"Auma"},"geometry":{"type":"Point","coordinates":[10.66667,62.21666999999999]}},{"type":"feature","properties":{"country_en":"Norway","name":"Aunevollen","name_adm0":"Norge","name_adm1":"Sør-Trøndelag Fylke","name_adm2":"Holtålen Kommune","name_en":"Aunevollen"},"geometry":{"type":"Point","coordinates":[11.35,62.93333]}},{"type":"feature","properties":{"country_en":"Norway","name":"Aursfjordbotn","name_adm0":"Norge","name_adm1":"Troms Fylke","name_adm2":"Målselv Kommune","name_en":"Aursfjordbotn"},"geometry":{"type":"Point","coordinates":[18.7,69.25]}},{"type":"feature","properties":{"country_en":"Norway","name":"Bergsmo","name_adm0":"Norge","name_adm1":"Nord-Trøndelag Fylke","name_adm2":"Grong Kommune","name_en":"Bergsmo"},"geometry":{"type":"Point","coordinates":[12.21667,64.48333]}},{"type":"feature","properties":{"country_en":"Norway","name":"Bokholmen","name_adm0":"Norge","name_adm1":"Nordland Fylke","name_adm2":"Narvik Kommune","name_en":"Bokholmen"},"geometry":{"type":"Point","coordinates":[17.55,68.18332999999998]}},{"type":"feature","properties":{"country_en":"Norway","name":"Børte","name_adm0":"Norge","name_adm1":"Telemark Fylke","name_adm2":"Tokke Kommune","name_en":"Børte"},"geometry":{"type":"Point","coordinates":[7.81667,59.58333]}},{"type":"feature","properties":{"country_en":"Norway","name":"Botn","name_adm0":"Norge","name_adm1":"Troms Fylke","name_adm2":"Lenvik Kommune","name_en":"Botn"},"geometry":{"type":"Point","coordinates":[17.916669999999996,69.5]}},{"type":"feature","properties":{"country_en":"Norway","name":"Bruflat","name_adm0":"Norge","name_adm1":"Oppland Fylke","name_adm2":"Etnedal Kommune","name_en":"Bruflat"},"geometry":{"type":"Point","coordinates":[10.6,60.64999999999999]}},{"type":"feature","properties":{"country_en":"Norway","name":"Bruland","name_adm0":"Norge","name_adm1":"Sogn og Fjordane Fylke","name_adm2":"Førde Kommune","name_en":"Bruland"},"geometry":{"type":"Point","coordinates":[5.9,61.43332999999999]}},{"type":"feature","properties":{"country_en":"Norway","name":"Brunkeberg","name_adm0":"Norge","name_adm1":"Telemark Fylke","name_adm2":"Kviteseid Kommune","name_en":"Brunkeberg"},"geometry":{"type":"Point","coordinates":[8.48333,59.43332999999999]}},{"type":"feature","properties":{"country_en":"Norway","name":"Eidanger","name_adm0":"Norge","name_adm1":"Telemark Fylke","name_adm2":"Porsgrunn Kommune","name_en":"Eidanger"},"geometry":{"type":"Point","coordinates":[9.7,59.11667]}},{"type":"feature","properties":{"country_en":"Norway","name":"Eidsbukta","name_adm0":"Norge","name_adm1":"Nordland Fylke","name_adm2":"Meløy Kommune","name_en":"Eidsbukta"},"geometry":{"type":"Point","coordinates":[13.73333,66.83333]}},{"type":"feature","properties":{"country_en":"Norway","name":"Eidsfoss","name_adm0":"Norge","name_adm1":"Vestfold Fylke","name_adm2":"Hof Kommune","name_en":"Eidsfoss"},"geometry":{"type":"Point","coordinates":[10.03333,59.60000000000001]}},{"type":"feature","properties":{"country_en":"Norway","name":"Fagernes","name_adm0":"Norge","name_adm1":"Nordland Fylke","name_adm2":"Narvik Kommune","name_en":"Fagernes"},"geometry":{"type":"Point","coordinates":[17.45611,68.41333]}},{"type":"feature","properties":{"country_en":"Norway","name":"Færavåg","name_adm0":"Norge","name_adm1":"Hordaland Fylke","name_adm2":"Tysnes Kommune","name_en":"Færavåg"},"geometry":{"type":"Point","coordinates":[5.45,59.98333000000001]}},{"type":"feature","properties":{"country_en":"Norway","name":"Bekkelaget","name_adm0":"Norge","name_adm1":"Oslo Fylke","name_adm2":"Bydel Nordstrand","name_en":"Bekkelaget"},"geometry":{"type":"Point","coordinates":[10.7775,59.88389]}},{"type":"feature","properties":{"country_en":"Norway","name":"Morvik","name_adm0":"Norge","name_adm1":"Hordaland Fylke","name_adm2":"Bergen Kommune","name_en":"Morvik"},"geometry":{"type":"Point","coordinates":[5.27556,60.47111]}},{"type":"feature","properties":{"country_en":"Norway","name":"Fonnes","name_adm0":"Norge","name_adm1":"Hordaland Fylke","name_adm2":"Austrheim Kommune","name_en":"Fonnes"},"geometry":{"type":"Point","coordinates":[4.9825,60.80528000000001]}},{"type":"feature","properties":{"country_en":"Norway","name":"Haddeland","name_adm0":"Norge","name_adm1":"Telemark Fylke","name_adm2":"Vinje Kommune","name_en":"Haddeland"},"geometry":{"type":"Point","coordinates":[8.03333,59.7]}},{"type":"feature","properties":{"country_en":"Norway","name":"Hebnes","name_adm0":"Norge","name_adm1":"Rogaland Fylke","name_adm2":"Suldal Kommune","name_en":"Hebnes"},"geometry":{"type":"Point","coordinates":[5.966669999999999,59.36666999999999]}},{"type":"feature","properties":{"country_en":"Norway","name":"Hedal","name_adm0":"Norge","name_adm1":"Oppland Fylke","name_adm2":"Sør-Aurdal Kommune","name_en":"Hedal"},"geometry":{"type":"Point","coordinates":[9.7,60.61666999999999]}},{"type":"feature","properties":{"country_en":"Norway","name":"Higrav","name_adm0":"Norge","name_adm1":"Nordland Fylke","name_adm2":"Hadsel Kommune","name_en":"Higrav"},"geometry":{"type":"Point","coordinates":[14.766670000000001,68.36667]}},{"type":"feature","properties":{"country_en":"Norway","name":"Hillestad","name_adm0":"Norge","name_adm1":"Buskerud Fylke","name_adm2":"Kongsberg Kommune","name_en":"Hillestad"},"geometry":{"type":"Point","coordinates":[9.66667,59.58333]}},{"type":"feature","properties":{"country_en":"Norway","name":"Hjellvikvåg","name_adm0":"Norge","name_adm1":"Hordaland Fylke","name_adm2":"Osterøy Kommune","name_en":"Hjelvik"},"geometry":{"type":"Point","coordinates":[5.416669999999999,60.55]}},{"type":"feature","properties":{"country_en":"Norway","name":"Ifjord","name_adm0":"Norge","name_adm1":"Finnmark Fylke","name_adm2":"Lebesby Kommune","name_en":"Ifjord"},"geometry":{"type":"Point","coordinates":[27.38333,70.91667]}},{"type":"feature","properties":{"country_en":"Norway","name":"Igeland","name_adm0":"Norge","name_adm1":"Troms Fylke","name_adm2":"Ibestad Kommune","name_en":"Igeland"},"geometry":{"type":"Point","coordinates":[17.21667,68.8]}},{"type":"feature","properties":{"country_en":"Norway","name":"Igerøya","name_adm0":"Norge","name_adm1":"Nordland Fylke","name_adm2":"Vega Kommune","name_en":"Igerøya"},"geometry":{"type":"Point","coordinates":[12.13333,65.68333]}},{"type":"feature","properties":{"country_en":"Norway","name":"Isdalstø","name_adm0":"Norge","name_adm1":"Hordaland Fylke","name_adm2":"Lindås Kommune","name_en":"Isdalstø"},"geometry":{"type":"Point","coordinates":[5.26942,60.555189999999996]}},{"type":"feature","properties":{"country_en":"Norway","name":"Kjeldebotn","name_adm0":"Norge","name_adm1":"Nordland Fylke","name_adm2":"Ballangen Kommune","name_en":"Kjeldebotn"},"geometry":{"type":"Point","coordinates":[16.662499999999998,68.40111]}},{"type":"feature","properties":{"country_en":"Norway","name":"Konsmo","name_adm0":"Norge","name_adm1":"Vest-Agder Fylke","name_adm2":"Audnedal Kommune","name_en":"Konsmo"},"geometry":{"type":"Point","coordinates":[7.35598,58.28529]}},{"type":"feature","properties":{"country_en":"Norway","name":"Mylla","name_adm0":"Norge","name_adm1":"Vest-Agder Fylke","name_adm2":"Vennesla Kommune","name_en":"Mylla"},"geometry":{"type":"Point","coordinates":[7.83333,58.3]}},{"type":"feature","properties":{"country_en":"Norway","name":"Myrland","name_adm0":"Norge","name_adm1":"Nordland Fylke","name_adm2":"Hadsel Kommune","name_en":"Myrland"},"geometry":{"type":"Point","coordinates":[15.06944,68.45861]}},{"type":"feature","properties":{"country_en":"Norway","name":"Myrset","name_adm0":"Norge","name_adm1":"Nordland Fylke","name_adm2":"Andøy Kommune","name_en":"Myrset"},"geometry":{"type":"Point","coordinates":[16.06667,69.15]}},{"type":"feature","properties":{"country_en":"Norway","name":"Nævernes","name_adm0":"Norge","name_adm1":"Nordland Fylke","name_adm2":"Brønnøy Kommune","name_en":"Nevernes"},"geometry":{"type":"Point","coordinates":[12.599999999999998,65.43333]}},{"type":"feature","properties":{"country_en":"Norway","name":"Namdalseid","name_adm0":"Norge","name_adm1":"Nord-Trøndelag Fylke","name_adm2":"Namdalseid Kommune","name_en":"Namdalseid"},"geometry":{"type":"Point","coordinates":[11.22139,64.22243]}},{"type":"feature","properties":{"country_en":"Norway","name":"Nåra","name_adm0":"Norge","name_adm1":"Sogn og Fjordane Fylke","name_adm2":"Solund Kommune","name_en":"Nåra"},"geometry":{"type":"Point","coordinates":[4.73333,61.01666999999999]}},{"type":"feature","properties":{"country_en":"Norway","name":"Nordby","name_adm0":"Norge","name_adm1":"Troms Fylke","name_adm2":"Balsfjord Kommune","name_en":"Nordby"},"geometry":{"type":"Point","coordinates":[18.83333,69.35]}},{"type":"feature","properties":{"country_en":"Norway","name":"Nordeide","name_adm0":"Norge","name_adm1":"Sogn og Fjordane Fylke","name_adm2":"Høyanger Kommune","name_en":"Nordeide"},"geometry":{"type":"Point","coordinates":[5.98333,61.18333]}},{"type":"feature","properties":{"country_en":"Norway","name":"Osvoll","name_adm0":"Norge","name_adm1":"Nordland Fylke","name_adm2":"Sortland Kommune","name_en":"Osvoll"},"geometry":{"type":"Point","coordinates":[15.483329999999999,68.68333]}},{"type":"feature","properties":{"country_en":"Norway","name":"Otterøy","name_adm0":"Norge","name_adm1":"Nord-Trøndelag Fylke","name_adm2":"Namsos Kommune","name_en":"Fosnes"},"geometry":{"type":"Point","coordinates":[11.3,64.51667]}},{"type":"feature","properties":{"country_en":"Norway","name":"Sandsøy","name_adm0":"Norge","name_adm1":"Troms Fylke","name_adm2":"Bjarkøy Kommune","name_en":"Sand"},"geometry":{"type":"Point","coordinates":[16.66667,68.95]}},{"type":"feature","properties":{"country_en":"Norway","name":"Sandve","name_adm0":"Norge","name_adm1":"Rogaland Fylke","name_adm2":"Karmøy Kommune","name_en":"Sandve"},"geometry":{"type":"Point","coordinates":[5.199999999999999,59.18332999999999]}},{"type":"feature","properties":{"country_en":"Norway","name":"Skardmunken","name_adm0":"Norge","name_adm1":"Troms Fylke","name_adm2":"Tromsø Kommune","name_en":"Skardmunken"},"geometry":{"type":"Point","coordinates":[19.61667,69.61666999999998]}},{"type":"feature","properties":{"country_en":"Norway","name":"Skantebygda","name_adm0":"Norge","name_adm1":"Østfold Fylke","name_adm2":"Rakkestad Kommune","name_en":"Skantebygda"},"geometry":{"type":"Point","coordinates":[11.233329999999999,59.39999999999999]}},{"type":"feature","properties":{"country_en":"Norway","name":"Skara","name_adm0":"Norge","name_adm1":"Hedmark Fylke","name_adm2":"Grue Kommune","name_en":"Skara"},"geometry":{"type":"Point","coordinates":[12.01667,60.39999999999999]}},{"type":"feature","properties":{"country_en":"Norway","name":"Skårvågen","name_adm0":"Norge","name_adm1":"Nordland Fylke","name_adm2":"Bø Kommune","name_en":"Skaarvaagen"},"geometry":{"type":"Point","coordinates":[14.41667,68.68333]}},{"type":"feature","properties":{"country_en":"Norway","name":"Skardsvåg","name_adm0":"Norge","name_adm1":"Troms Fylke","name_adm2":"Lenvik Kommune","name_en":"Skardsvang"},"geometry":{"type":"Point","coordinates":[18.01667,69.46667]}},{"type":"feature","properties":{"country_en":"Norway","name":"Skurtveit","name_adm0":"Norge","name_adm1":"Hordaland Fylke","name_adm2":"Meland Kommune","name_en":"Skurtveit"},"geometry":{"type":"Point","coordinates":[5.04139,60.57167]}},{"type":"feature","properties":{"country_en":"Norway","name":"Stausland","name_adm0":"Norge","name_adm1":"Vest-Agder Fylke","name_adm2":"Søgne Kommune","name_en":"Stausland"},"geometry":{"type":"Point","coordinates":[7.85,58.08333]}},{"type":"feature","properties":{"country_en":"Norway","name":"Storbukt","name_adm0":"Norge","name_adm1":"Troms Fylke","name_adm2":"Balsfjord Kommune","name_en":"Storbukt"},"geometry":{"type":"Point","coordinates":[19.06667,69.43333]}},{"type":"feature","properties":{"country_en":"Norway","name":"Storbukta","name_adm0":"Norge","name_adm1":"Finnmark Fylke","name_adm2":"Sør-Varanger Kommune","name_en":"Storbukta"},"geometry":{"type":"Point","coordinates":[29.616669999999996,69.76667]}},{"type":"feature","properties":{"country_en":"Norway","name":"Stordal","name_adm0":"Norge","name_adm1":"Nord-Trøndelag Fylke","name_adm2":"Meråker Kommune","name_en":"Stordal"},"geometry":{"type":"Point","coordinates":[11.85,63.31667]}},{"type":"feature","properties":{"country_en":"Norway","name":"Storebru","name_adm0":"Norge","name_adm1":"Sogn og Fjordane Fylke","name_adm2":"Flora Kommune","name_en":"Storebru"},"geometry":{"type":"Point","coordinates":[5.549999999999999,61.566669999999995]}},{"type":"feature","properties":{"country_en":"Norway","name":"Storeidet","name_adm0":"Norge","name_adm1":"Nordland Fylke","name_adm2":"Vestvågøy Kommune","name_en":"Storeidet"},"geometry":{"type":"Point","coordinates":[13.55,68.13333]}},{"type":"feature","properties":{"country_en":"Norway","name":"Svartdal","name_adm0":"Norge","name_adm1":"Telemark Fylke","name_adm2":"Seljord Kommune","name_en":"Svartdal"},"geometry":{"type":"Point","coordinates":[8.56667,59.58333]}},{"type":"feature","properties":{"country_en":"Norway","name":"Tessand","name_adm0":"Norge","name_adm1":"Oppland Fylke","name_adm2":"Vågå Kommune","name_en":"Tessand"},"geometry":{"type":"Point","coordinates":[8.96667,61.85000000000001]}},{"type":"feature","properties":{"country_en":"Norway","name":"Tysnes","name_adm0":"Norge","name_adm1":"Hordaland Fylke","name_adm2":"Tysnes Kommune","name_en":"Tysnes"},"geometry":{"type":"Point","coordinates":[5.549999999999999,60.04999999999999]}},{"type":"feature","properties":{"country_en":"Norway","name":"Tysse","name_adm0":"Norge","name_adm1":"Hordaland Fylke","name_adm2":"Osterøy Kommune","name_en":"Tysse"},"geometry":{"type":"Point","coordinates":[5.58333,60.61666999999999]}},{"type":"feature","properties":{"country_en":"Norway","name":"Valberg","name_adm0":"Norge","name_adm1":"Nordland Fylke","name_adm2":"Vestvågøy Kommune","name_en":"Valberg"},"geometry":{"type":"Point","coordinates":[13.953609999999998,68.19444]}},{"type":"feature","properties":{"country_en":"Norway","name":"Vangsgjelta","name_adm0":"Norge","name_adm1":"Hedmark Fylke","name_adm2":"Os Kommune","name_en":"Vangsgjelta"},"geometry":{"type":"Point","coordinates":[11.099999999999998,62.55]}},{"type":"feature","properties":{"country_en":"Norway","name":"Vangshamn","name_adm0":"Norge","name_adm1":"Troms Fylke","name_adm2":"Lenvik Kommune","name_en":"Vangshamn"},"geometry":{"type":"Point","coordinates":[18.01667,69.46667]}},{"type":"feature","properties":{"country_en":"Norway","name":"Vikane","name_adm0":"Norge","name_adm1":"Østfold Fylke","name_adm2":"Fredrikstad Kommune","name_en":"Vikane"},"geometry":{"type":"Point","coordinates":[10.799999999999999,59.21667000000001]}},{"type":"feature","properties":{"country_en":"Norway","name":"Vidrek","name_adm0":"Norge","name_adm1":"Nordland Fylke","name_adm2":"Narvik Kommune","name_en":"Vidrek"},"geometry":{"type":"Point","coordinates":[17.16,68.38917]}},{"type":"feature","properties":{"country_en":"Norway","name":"Vinja","name_adm0":"Norge","name_adm1":"Troms Fylke","name_adm2":"Dyrøy Kommune","name_en":"Vinja"},"geometry":{"type":"Point","coordinates":[17.38333,69.01667]}},{"type":"feature","properties":{"country_en":"Norway","name":"Vinsternes","name_adm0":"Norge","name_adm1":"Møre og Romsdal Fylke","name_adm2":"Aure Kommune","name_en":"Vinsternes"},"geometry":{"type":"Point","coordinates":[8.31667,63.24999999999999]}},{"type":"feature","properties":{"country_en":"Norway","name":"Stubberud","name_adm0":"Norge","name_adm1":"Buskerud Fylke","name_adm2":"Drammen Kommune","name_en":"Stubberud"},"geometry":{"type":"Point","coordinates":[9.68333,60.25]}},{"type":"feature","properties":{"country_en":"Norway","name":"Ongeltveitsjøen","name_adm0":"Norge","name_adm1":"Hordaland Fylke","name_adm2":"Fjell Kommune","name_en":"Ongeltveitsjøen"},"geometry":{"type":"Point","coordinates":[4.97083,60.404999999999994]}},{"type":"feature","properties":{"country_en":"Norway","name":"Abbedisso","name_adm0":"Norge","name_adm1":"Hordaland Fylke","name_adm2":"Askøy Kommune","name_en":"Abbedisso"},"geometry":{"type":"Point","coordinates":[5.01611,60.53778]}},{"type":"feature","properties":{"country_en":"Norway","name":"Holme","name_adm0":"Norge","name_adm1":"Hordaland Fylke","name_adm2":"Meland Kommune","name_en":"Holme"},"geometry":{"type":"Point","coordinates":[5.15444,60.52833]}},{"type":"feature","properties":{"country_en":"Norway","name":"Hjartdal","name_adm0":"Norge","name_adm1":"Telemark Fylke","name_adm2":"Hjartdal Kommune","name_en":"Hjartdal"},"geometry":{"type":"Point","coordinates":[8.6501,59.60074999999999]}},{"type":"feature","properties":{"country_en":"Norway","name":"Hjellvik","name_adm0":"Norge","name_adm1":"Nordland Fylke","name_adm2":"Sørfold Kommune","name_en":"Hjellvik"},"geometry":{"type":"Point","coordinates":[15.62583,68.16443999999998]}},{"type":"feature","properties":{"country_en":"Norway","name":"Breivika","name_adm0":"Norge","name_adm1":"Sør-Trøndelag Fylke","name_adm2":"Agdenes Kommune","name_en":"Breivika"},"geometry":{"type":"Point","coordinates":[10.2,63.95]}},{"type":"feature","properties":{"country_en":"Norway","name":"Steinsrud","name_adm0":"Norge","name_adm1":"Hedmark Fylke","name_adm2":"Stange Kommune","name_en":"Steinsrud"},"geometry":{"type":"Point","coordinates":[11.099999999999998,60.28333]}},{"type":"feature","properties":{"country_en":"Norway","name":"Rud","name_adm0":"Norge","name_adm1":"Oppland Fylke","name_adm2":"Østre Toten Kommune","name_en":"Rud"},"geometry":{"type":"Point","coordinates":[11.03333,60.383329999999994]}},{"type":"feature","properties":{"country_en":"Norway","name":"Orradalen","name_adm0":"Norge","name_adm1":"Hordaland Fylke","name_adm2":"Kvinnherad Kommune","name_en":"Orradalen"},"geometry":{"type":"Point","coordinates":[6.716669999999999,60.88333]}},{"type":"feature","properties":{"country_en":"Norway","name":"Bjørkan","name_adm0":"Norge","name_adm1":"Møre og Romsdal Fylke","name_adm2":"Sunndal Kommune","name_en":"Bjørkan"},"geometry":{"type":"Point","coordinates":[9.01667,63.28332999999999]}},{"type":"feature","properties":{"country_en":"Norway","name":"Uggdalseidet","name_adm0":"Norge","name_adm1":"Hordaland Fylke","name_adm2":"Tysnes Kommune","name_en":"Uggdalseidet"},"geometry":{"type":"Point","coordinates":[5.49472,59.99750000000001]}},{"type":"feature","properties":{"country_en":"Norway","name":"Lyngdal","name_adm0":"Norge","name_adm1":"Vest-Agder Fylke","name_adm2":"Lyngdal Kommune","name_en":"Lyngdal"},"geometry":{"type":"Point","coordinates":[7.07002,58.1376]}},{"type":"feature","properties":{"country_en":"Norway","name":"Kongsberg","name_adm0":"Norge","name_adm1":"Buskerud Fylke","name_adm2":"Kongsberg Kommune","name_en":"Kongsberg"},"geometry":{"type":"Point","coordinates":[9.65017,59.66858]}},{"type":"feature","properties":{"country_en":"Norway","name":"Åmot","name_adm0":"Norge","name_adm1":"Telemark Fylke","name_adm2":"Vinje Kommune","name_en":"Åmot"},"geometry":{"type":"Point","coordinates":[7.9877400000000005,59.57135999999999]}},{"type":"feature","properties":{"country_en":"Norway","name":"Åmot","name_adm0":"Norge","name_adm1":"Oppland Fylke","name_adm2":"Nordre Land Kommune","name_en":"Aamot"},"geometry":{"type":"Point","coordinates":[10.03333,60.99999999999999]}},{"type":"feature","properties":{"country_en":"Norway","name":"Bryggja","name_adm0":"Norge","name_adm1":"Sogn og Fjordane Fylke","name_adm2":"Vågsøy Kommune","name_en":"Bryggja"},"geometry":{"type":"Point","coordinates":[5.38333,61.93333]}},{"type":"feature","properties":{"country_en":"Norway","name":"Bu","name_adm0":"Norge","name_adm1":"Hordaland Fylke","name_adm2":"Eidfjord Kommune","name_en":"Bu"},"geometry":{"type":"Point","coordinates":[6.85,60.46667]}},{"type":"feature","properties":{"country_en":"Norway","name":"Furnes","name_adm0":"Norge","name_adm1":"Sogn og Fjordane Fylke","name_adm2":"Fjaler Kommune","name_en":"Furnes"},"geometry":{"type":"Point","coordinates":[5.05,61.300000000000004]}},{"type":"feature","properties":{"country_en":"Norway","name":"Hagavik","name_adm0":"Norge","name_adm1":"Hordaland Fylke","name_adm2":"Os Kommune","name_en":"Hagavik"},"geometry":{"type":"Point","coordinates":[5.43333,60.18332999999999]}},{"type":"feature","properties":{"country_en":"Norway","name":"Kråkstad","name_adm0":"Norge","name_adm1":"Sør-Trøndelag Fylke","name_adm2":"Selbu Kommune","name_en":"Kraakstad"},"geometry":{"type":"Point","coordinates":[11.13333,63.199999999999996]}},{"type":"feature","properties":{"country_en":"Norway","name":"Knarrvik","name_adm0":"Norge","name_adm1":"Hordaland Fylke","name_adm2":"Lindås Kommune","name_en":"Knarrvik"},"geometry":{"type":"Point","coordinates":[5.28833,60.54222]}},{"type":"feature","properties":{"country_en":"Norway","name":"Lindeberg","name_adm0":"Norge","name_adm1":"Akershus Fylke","name_adm2":"Sørum Kommune","name_en":"Lindeberg"},"geometry":{"type":"Point","coordinates":[11.13333,60.03333000000001]}},{"type":"feature","properties":{"country_en":"Norway","name":"Lonevåg","name_adm0":"Norge","name_adm1":"Hordaland Fylke","name_adm2":"Osterøy Kommune","name_en":"Lonevaag"},"geometry":{"type":"Point","coordinates":[5.49365,60.52619]}},{"type":"feature","properties":{"country_en":"Norway","name":"Nord-Fron","name_adm0":"Norge","name_adm1":"Oppland Fylke","name_adm2":"Nord-Fron Kommune","name_en":"Nord-Fron"},"geometry":{"type":"Point","coordinates":[9.75,61.599999999999994]}},{"type":"feature","properties":{"country_en":"Norway","name":"Øvrebø","name_adm0":"Norge","name_adm1":"Vest-Agder Fylke","name_adm2":"Vennesla Kommune","name_en":"Øvrebø"},"geometry":{"type":"Point","coordinates":[7.8,58.28333]}},{"type":"feature","properties":{"country_en":"Norway","name":"Rebbenes","name_adm0":"Norge","name_adm1":"Troms Fylke","name_adm2":"Karlsøy Kommune","name_en":"Rebbenes"},"geometry":{"type":"Point","coordinates":[18.95,70.06667]}},{"type":"feature","properties":{"country_en":"Norway","name":"Øyslebø","name_adm0":"Norge","name_adm1":"Vest-Agder Fylke","name_adm2":"Marnardal Kommune","name_en":"Øyslebø"},"geometry":{"type":"Point","coordinates":[7.549999999999999,58.16667]}},{"type":"feature","properties":{"country_en":"Norway","name":"Sistranda","name_adm0":"Norge","name_adm1":"Sør-Trøndelag Fylke","name_adm2":"Frøya Kommune","name_en":"Sistranda"},"geometry":{"type":"Point","coordinates":[8.83402,63.72555]}},{"type":"feature","properties":{"country_en":"Norway","name":"Sjøvegan","name_adm0":"Norge","name_adm1":"Troms Fylke","name_adm2":"Salangen Kommune","name_en":"Sjøvegan"},"geometry":{"type":"Point","coordinates":[17.847439999999995,68.87261999999998]}},{"type":"feature","properties":{"country_en":"Norway","name":"Sørum","name_adm0":"Norge","name_adm1":"Akershus Fylke","name_adm2":"Sørum Kommune","name_en":"Sorum"},"geometry":{"type":"Point","coordinates":[11.233329999999999,59.99999999999999]}},{"type":"feature","properties":{"country_en":"Norway","name":"Storsand","name_adm0":"Norge","name_adm1":"Buskerud Fylke","name_adm2":"Hurum Kommune","name_en":"Storsand"},"geometry":{"type":"Point","coordinates":[10.59389,59.65194]}},{"type":"feature","properties":{"country_en":"Norway","name":"Sundal","name_adm0":"Norge","name_adm1":"Sogn og Fjordane Fylke","name_adm2":"Eid Kommune","name_en":"Sundal"},"geometry":{"type":"Point","coordinates":[5.65,61.93333]}},{"type":"feature","properties":{"country_en":"Norway","name":"Uttian","name_adm0":"Norge","name_adm1":"Sør-Trøndelag Fylke","name_adm2":"Frøya Kommune","name_en":"Uttian"},"geometry":{"type":"Point","coordinates":[8.86667,63.76667]}},{"type":"feature","properties":{"country_en":"Norway","name":"Fagerstrand","name_adm0":"Norge","name_adm1":"Akershus Fylke","name_adm2":"Nesodden Kommune","name_en":"Fagerstrand"},"geometry":{"type":"Point","coordinates":[10.59306,59.734719999999996]}},{"type":"feature","properties":{"country_en":"Norway","name":"Sula Kommune","name_adm0":"Norge","name_adm1":"Møre og Romsdal Fylke","name_adm2":"Sula Kommune","name_en":"Sula Kommune"},"geometry":{"type":"Point","coordinates":[6.212289999999999,62.444469999999995]}},{"type":"feature","properties":{"country_en":"Norway","name":"Moss Kommune","name_adm0":"Norge","name_adm1":"Østfold Fylke","name_adm2":"Moss Kommune","name_en":"Moss Kommune"},"geometry":{"type":"Point","coordinates":[10.65968,59.43435999999999]}},{"type":"feature","properties":{"country_en":"Norway","name":"Flakk","name_adm0":"Norge","name_adm1":"Sør-Trøndelag Fylke","name_adm2":"Trondheim Kommune","name_en":"Flakk"},"geometry":{"type":"Point","coordinates":[10.202178,63.45213]}},{"type":"feature","properties":{"country_en":"Norway","name":"Tinvik","name_adm0":"Norge","name_adm1":"Vestfold Fylke","name_adm2":"Larvik Kommune","name_en":"Tinvik"},"geometry":{"type":"Point","coordinates":[10.36667,59.18332999999999]}},{"type":"feature","properties":{"country_en":"Norway","name":"Rørvika","name_adm0":"Norge","name_adm1":"Nordland Fylke","name_adm2":"Tysfjord Kommune","name_en":"Rørvika"},"geometry":{"type":"Point","coordinates":[16.58333,68.7]}},{"type":"feature","properties":{"country_en":"Norway","name":"Mortensnes","name_adm0":"Norge","name_adm1":"Finnmark Fylke","name_adm2":"Nesseby Kommune","name_en":"Mortensnes"},"geometry":{"type":"Point","coordinates":[29.000000000000004,70.11667]}},{"type":"feature","properties":{"country_en":"Norway","name":"Narestø","name_adm0":"Norge","name_adm1":"Aust-Agder Fylke","name_adm2":"Arendal Kommune","name_en":"Narestø"},"geometry":{"type":"Point","coordinates":[8.93667,58.524719999999995]}},{"type":"feature","properties":{"country_en":"Norway","name":"Færvik","name_adm0":"Norge","name_adm1":"Aust-Agder Fylke","name_adm2":"Arendal Kommune","name_en":"Færvik"},"geometry":{"type":"Point","coordinates":[8.81861,58.45528]}},{"type":"feature","properties":{"country_en":"Norway","name":"Noresund","name_adm0":"Norge","name_adm1":"Buskerud Fylke","name_adm2":"Krødsherad Kommune","name_en":"Noresund"},"geometry":{"type":"Point","coordinates":[9.62312,60.18032]}},{"type":"feature","properties":{"country_en":"Norway","name":"Dolmøy","name_adm0":"Norge","name_adm1":"Sør-Trøndelag Fylke","name_adm2":"Hitra Kommune","name_en":"Dolmøy"},"geometry":{"type":"Point","coordinates":[8.841419,63.65086899999999]}},{"type":"feature","properties":{"country_en":"Norway","name":"Sula","name_adm0":"Norge","name_adm1":"Sør-Trøndelag Fylke","name_adm2":"Frøya Kommune","name_en":"Sula"},"geometry":{"type":"Point","coordinates":[8.46239,63.847289]}},{"type":"feature","properties":{"country_en":"Norway","name":"Krokkleiva","name_adm0":"Norge","name_adm1":"Buskerud Fylke","name_adm2":"Hole Kommune","name_en":"Krokkleiva"},"geometry":{"type":"Point","coordinates":[10.287064999999998,60.078886]}},{"type":"feature","properties":{"country_en":"Norway","name":"Heggelia","name_adm0":"Norge","name_adm1":"Troms Fylke","name_adm2":"Målselv Kommune","name_en":"Heggelia"},"geometry":{"type":"Point","coordinates":[18.50887,69.04525]}},{"type":"feature","properties":{"country_en":"Norway","name":"Høljerast","name_adm0":"Norge","name_adm1":"Oppland Fylke","name_adm2":"Etnedal Kommune","name_en":"Høljerast"},"geometry":{"type":"Point","coordinates":[9.770493,60.83069]}},{"type":"feature","properties":{"country_en":"Norway","name":"Hyttelien","name_adm0":"Norge","name_adm1":"Hordaland Fylke","name_adm2":"Bergen Kommune","name_en":"Hyttelien"},"geometry":{"type":"Point","coordinates":[5.383986999999999,60.398931999999995]}},{"type":"feature","properties":{"country_en":"Norway","name":"Langnes","name_adm0":"Norge","name_adm1":"Finnmark Fylke","name_adm2":"Tana Kommune","name_en":"Langnes"},"geometry":{"type":"Point","coordinates":[28.3015,70.464054]}},{"type":"feature","properties":{"country_en":"Norway","name":"Ekne","name_adm0":"Norge","name_adm1":"Nord-Trøndelag Fylke","name_adm2":"Levanger Kommune","name_en":"Ekne"},"geometry":{"type":"Point","coordinates":[11.61667,64.13333]}},{"type":"feature","properties":{"country_en":"Norway","name":"Lyding","name_adm0":"Norge","name_adm1":"Vest-Agder Fylke","name_adm2":"Kvinesdal Kommune","name_en":"Lyding"},"geometry":{"type":"Point","coordinates":[6.971093,58.358894]}},{"type":"feature","properties":{"country_en":"Norway","name":"Alstahaug","name_adm0":"Norge","name_adm1":"Nordland Fylke","name_adm2":"Alstahaug Kommune","name_en":"Alstahaug"},"geometry":{"type":"Point","coordinates":[12.43333,65.9]}},{"type":"feature","properties":{"country_en":"Norway","name":"Alverstraumen","name_adm0":"Norge","name_adm1":"Hordaland Fylke","name_adm2":"Lindås Kommune","name_en":"Alverstraumen"},"geometry":{"type":"Point","coordinates":[5.21556,60.57917]}},{"type":"feature","properties":{"country_en":"Norway","name":"Aardal","name_adm0":"Norge","name_adm1":"Sogn og Fjordane Fylke","name_adm2":"Årdal Kommune","name_en":"Aardal"},"geometry":{"type":"Point","coordinates":[6.35,61.55]}},{"type":"feature","properties":{"country_en":"Norway","name":"Faukstad","name_adm0":"Norge","name_adm1":"Oppland Fylke","name_adm2":"Sel Kommune","name_en":"Faukstad"},"geometry":{"type":"Point","coordinates":[10.01667,61.26666999999999]}},{"type":"feature","properties":{"country_en":"Norway","name":"Bryggen","name_adm0":"Norge","name_adm1":"Hordaland Fylke","name_adm2":"Bergen Kommune","name_en":"Bryggen"},"geometry":{"type":"Point","coordinates":[5.32245,60.39733199999999]}},{"type":"feature","properties":{"country_en":"Norway","name":"Lerdalen","name_adm0":"Norge","name_adm1":"Østfold Fylke","name_adm2":"Halden Kommune","name_en":"Lerdalen"},"geometry":{"type":"Point","coordinates":[12.03333,59.04999999999999]}},{"type":"feature","properties":{"country_en":"Norway","name":"Favang","name_adm0":"Norge","name_adm1":"Oppland Fylke","name_adm2":"Ringebu Kommune","name_en":"Favang"},"geometry":{"type":"Point","coordinates":[10.166418999999998,61.456817]}},{"type":"feature","properties":{"country_en":"Norway","name":"Jusvik","name_adm0":"Norge","name_adm1":"Vest-Agder Fylke","name_adm2":"Kristiansand Kommune","name_en":"Jusvik"},"geometry":{"type":"Point","coordinates":[8.032302,58.204855]}},{"type":"feature","properties":{"country_en":"Norway","name":"Kolnes","name_adm0":"Norge","name_adm1":"Rogaland Fylke","name_adm2":"Sola Kommune","name_en":"Kolnes"},"geometry":{"type":"Point","coordinates":[5.58333,58.9]}},{"type":"feature","properties":{"country_en":"Norway","name":"Luster","name_adm0":"Norge","name_adm1":"Sogn og Fjordane Fylke","name_adm2":"Luster Kommune","name_en":"Luster"},"geometry":{"type":"Point","coordinates":[7.4622,61.445004]}},{"type":"feature","properties":{"country_en":"Norway","name":"Nordstedalsseter","name_adm0":"Norge","name_adm1":"Sogn og Fjordane Fylke","name_adm2":"Luster Kommune","name_en":"Nordstedalsseter"},"geometry":{"type":"Point","coordinates":[7.84324,61.663360499999996]}},{"type":"feature","properties":{"country_en":"Norway","name":"Syvde","name_adm0":"Norge","name_adm1":"Møre og Romsdal Fylke","name_adm2":"Vanylven Kommune","name_en":"Syvde"},"geometry":{"type":"Point","coordinates":[5.7410429999999995,62.09065699999999]}},{"type":"feature","properties":{"country_en":"Norway","name":"Dimmelsvik","name_adm0":"Norge","name_adm1":"Hordaland Fylke","name_adm2":"Kvinnherad Kommune","name_en":"Dimmelsvik"},"geometry":{"type":"Point","coordinates":[5.98333,59.949999999999996]}},{"type":"feature","properties":{"country_en":"Norway","name":"Gan","name_adm0":"Norge","name_adm1":"Akershus Fylke","name_adm2":"Fet Kommune","name_en":"Gan"},"geometry":{"type":"Point","coordinates":[11.21667,59.86667]}},{"type":"feature","properties":{"country_en":"Norway","name":"Ibestad Kommune","name_adm0":"Norge","name_adm1":"Troms Fylke","name_adm2":"Ibestad Kommune","name_en":"Ibestad Kommune"},"geometry":{"type":"Point","coordinates":[17.17661,68.77866]}},{"type":"feature","properties":{"country_en":"Norway","name":"Sande Kommune","name_adm0":"Norge","name_adm1":"Vestfold Fylke","name_adm2":"Sande Kommune","name_en":"Sande Kommune"},"geometry":{"type":"Point","coordinates":[10.20757,59.593619999999994]}},{"type":"feature","properties":{"country_en":"Norway","name":"Vefsn Kommune","name_adm0":"Norge","name_adm1":"Nordland Fylke","name_adm2":"Vefsn Kommune","name_en":"Vefsn Kommune"},"geometry":{"type":"Point","coordinates":[13.20024,65.84109]}},{"type":"feature","properties":{"country_en":"Norway","name":"Hadsel Kommune","name_adm0":"Norge","name_adm1":"Nordland Fylke","name_adm2":"Hadsel Kommune","name_en":"Hadsel Kommune"},"geometry":{"type":"Point","coordinates":[14.90835,68.56327999999999]}},{"type":"feature","properties":{"country_en":"Norway","name":"Audnedal Kommune","name_adm0":"Norge","name_adm1":"Vest-Agder Fylke","name_adm2":"Audnedal Kommune","name_en":"Audnedal Kommune"},"geometry":{"type":"Point","coordinates":[7.35487,58.28377999999999]}},{"type":"feature","properties":{"country_en":"Norway","name":"Lierne Kommune","name_adm0":"Norge","name_adm1":"Nord-Trøndelag Fylke","name_adm2":"Lierne Kommune","name_en":"Lierne Kommune"},"geometry":{"type":"Point","coordinates":[13.59249,64.46412999999998]}},{"type":"feature","properties":{"country_en":"Norway","name":"Brønnøy Kommune","name_adm0":"Norge","name_adm1":"Nordland Fylke","name_adm2":"Brønnøy Kommune","name_en":"Brønnøy Kommune"},"geometry":{"type":"Point","coordinates":[12.206259999999999,65.46785999999999]}},{"type":"feature","properties":{"country_en":"Norway","name":"Halden Kommune","name_adm0":"Norge","name_adm1":"Østfold Fylke","name_adm2":"Halden Kommune","name_en":"Halden Kommune"},"geometry":{"type":"Point","coordinates":[11.38709,59.12257999999999]}},{"type":"feature","properties":{"country_en":"Norway","name":"Lampeland","name_adm0":"Norge","name_adm1":"Buskerud Fylke","name_adm2":"Flesberg Kommune","name_en":"Lampeland"},"geometry":{"type":"Point","coordinates":[9.57912,59.83486]}},{"type":"feature","properties":{"country_en":"Norway","name":"Skansen","name_adm0":"Norge","name_adm1":"Oppland Fylke","name_adm2":"Gjøvik Kommune","name_en":"Skansen"},"geometry":{"type":"Point","coordinates":[11.6,60.83332999999999]}},{"type":"feature","properties":{"country_en":"Norway","name":"Solum","name_adm0":"Norge","name_adm1":"Akershus Fylke","name_adm2":"Aurskog-Høland Kommune","name_en":"Solum"},"geometry":{"type":"Point","coordinates":[11.78306,59.13306]}},{"type":"feature","properties":{"country_en":"Norway","name":"Leirfjord Kommune","name_adm0":"Norge","name_adm1":"Nordland Fylke","name_adm2":"Leirfjord Kommune","name_en":"Leirfjord Kommune"},"geometry":{"type":"Point","coordinates":[12.93667,66.06347999999998]}},{"type":"feature","properties":{"country_en":"Norway","name":"Tvedestrand Kommune","name_adm0":"Norge","name_adm1":"Aust-Agder Fylke","name_adm2":"Tvedestrand Kommune","name_en":"Tvedestrand Kommune"},"geometry":{"type":"Point","coordinates":[8.92637,58.62616]}},{"type":"feature","properties":{"country_en":"Norway","name":"Nedre Eiker Kommune","name_adm0":"Norge","name_adm1":"Buskerud Fylke","name_adm2":"Nedre Eiker Kommune","name_en":"Nedre Eiker Kommune"},"geometry":{"type":"Point","coordinates":[10.00736,59.75023]}},{"type":"feature","properties":{"country_en":"Norway","name":"Iveland Kommune","name_adm0":"Norge","name_adm1":"Aust-Agder Fylke","name_adm2":"Iveland Kommune","name_en":"Iveland Kommune"},"geometry":{"type":"Point","coordinates":[7.91817,58.4574]}},{"type":"feature","properties":{"country_en":"Norway","name":"Rabban","name_adm0":"Norge","name_adm1":"Sør-Trøndelag Fylke","name_adm2":"Ørland Kommune","name_en":"Rabban"},"geometry":{"type":"Point","coordinates":[9.66667,63.816669999999995]}},{"type":"feature","properties":{"country_en":"Norway","name":"Råbogen","name_adm0":"Norge","name_adm1":"Nordland Fylke","name_adm2":"Hadsel Kommune","name_en":"Råbogen"},"geometry":{"type":"Point","coordinates":[15.366669999999997,68.8]}},{"type":"feature","properties":{"country_en":"Norway","name":"Breidvik","name_adm0":"Norge","name_adm1":"Hordaland Fylke","name_adm2":"Fjell Kommune","name_en":"Breidvik"},"geometry":{"type":"Point","coordinates":[5.08333,60.46667]}},{"type":"feature","properties":{"country_en":"Norway","name":"Sletta","name_adm0":"Norge","name_adm1":"Hordaland Fylke","name_adm2":"Radøy Kommune","name_en":"Sletta"},"geometry":{"type":"Point","coordinates":[5.045,60.688610000000004]}},{"type":"feature","properties":{"country_en":"Norway","name":"Gronland","name_adm0":"Norge","name_adm1":"Oslo Fylke","name_adm2":"Bydel Gamle-oslo","name_en":"Gronland"},"geometry":{"type":"Point","coordinates":[10.75862,59.91261]}},{"type":"feature","properties":{"country_en":"Norway","name":"Aker Brygge","name_adm0":"Norge","name_adm1":"Oslo Fylke","name_adm2":"Bydel Frogner","name_en":"Aker Brygge"},"geometry":{"type":"Point","coordinates":[10.72643,59.90999]}},{"type":"feature","properties":{"country_en":"Norway","name":"Vaterland","name_adm0":"Norge","name_adm1":"Oslo Fylke","name_adm2":"Sentrum","name_en":"Vaterland"},"geometry":{"type":"Point","coordinates":[10.94998,59.198130000000006]}},{"type":"feature","properties":{"country_en":"Norway","name":"Ausvika","name_adm0":"Norge","name_adm1":"Vest-Agder Fylke","name_adm2":"Søgne Kommune","name_en":"Ausvika"},"geometry":{"type":"Point","coordinates":[7,58.05]}},{"type":"feature","properties":{"country_en":"Norway","name":"Jessheim","name_adm0":"Norge","name_adm1":"Akershus Fylke","name_adm2":"Ullensaker Kommune","name_en":"Jessheim"},"geometry":{"type":"Point","coordinates":[11.17515,60.141510000000004]}},{"type":"feature","properties":{"country_en":"Norway","name":"Fredrikstad","name_adm0":"Norge","name_adm1":"Østfold Fylke","name_adm2":"Fredrikstad Kommune","name_en":"Fredrikstad"},"geometry":{"type":"Point","coordinates":[10.929799999999998,59.2181]}},{"type":"feature","properties":{"country_en":"Norway","name":"Rognan","name_adm0":"Norge","name_adm1":"Nordland Fylke","name_adm2":"Saltdal Kommune","name_en":"Rognan"},"geometry":{"type":"Point","coordinates":[15.38778,67.09528]}},{"type":"feature","properties":{"country_en":"Norway","name":"Odda","name_adm0":"Norge","name_adm1":"Hordaland Fylke","name_adm2":"Odda Kommune","name_en":"Odda"},"geometry":{"type":"Point","coordinates":[6.54565,60.06912]}},{"type":"feature","properties":{"country_en":"Norway","name":"Granvin","name_adm0":"Norge","name_adm1":"Hordaland Fylke","name_adm2":"Granvin Kommune","name_en":"Granvin"},"geometry":{"type":"Point","coordinates":[6.719399999999999,60.52408]}},{"type":"feature","properties":{"country_en":"Norway","name":"Gaustad","name_adm0":"Norge","name_adm1":"Møre og Romsdal Fylke","name_adm2":"Eide Kommune","name_en":"Gaustad"},"geometry":{"type":"Point","coordinates":[7.16667,62.56667]}},{"type":"feature","properties":{"country_en":"Norway","name":"Hauge","name_adm0":"Norge","name_adm1":"Rogaland Fylke","name_adm2":"Sokndal Kommune","name_en":"Hauge"},"geometry":{"type":"Point","coordinates":[6.28121,58.34361]}},{"type":"feature","properties":{"country_en":"Norway","name":"Årstein","name_adm0":"Norge","name_adm1":"Troms Fylke","name_adm2":"Gratangen Kommune","name_en":"Aarstein"},"geometry":{"type":"Point","coordinates":[17.54224,68.69033]}},{"type":"feature","properties":{"country_en":"Norway","name":"Brekkum","name_adm0":"Norge","name_adm1":"Oppland Fylke","name_adm2":"Ringebu Kommune","name_en":"Brekkum"},"geometry":{"type":"Point","coordinates":[10.23333,61.46667]}},{"type":"feature","properties":{"country_en":"Norway","name":"Elset","name_adm0":"Norge","name_adm1":"Telemark Fylke","name_adm2":"Skien Kommune","name_en":"Elset"},"geometry":{"type":"Point","coordinates":[9.51667,59.18332999999999]}},{"type":"feature","properties":{"country_en":"Norway","name":"Fjerdingen","name_adm0":"Norge","name_adm1":"Nord-Trøndelag Fylke","name_adm2":"Grong Kommune","name_en":"Fjerdingen"},"geometry":{"type":"Point","coordinates":[12.599999999999998,64.63333]}},{"type":"feature","properties":{"country_en":"Norway","name":"Gladstad","name_adm0":"Norge","name_adm1":"Nordland Fylke","name_adm2":"Vega Kommune","name_en":"Gladstad"},"geometry":{"type":"Point","coordinates":[11.961369999999999,65.67732]}},{"type":"feature","properties":{"country_en":"Norway","name":"Hære","name_adm0":"Norge","name_adm1":"Buskerud Fylke","name_adm2":"Modum Kommune","name_en":"Hære"},"geometry":{"type":"Point","coordinates":[9.95,59.98333000000001]}},{"type":"feature","properties":{"country_en":"Norway","name":"Hommo","name_adm0":"Norge","name_adm1":"Telemark Fylke","name_adm2":"Vinje Kommune","name_en":"Hommo"},"geometry":{"type":"Point","coordinates":[8.01667,59.61666999999999]}},{"type":"feature","properties":{"country_en":"Norway","name":"Kåfjordelva","name_adm0":"Norge","name_adm1":"Troms Fylke","name_adm2":"Kåfjord Kommune","name_en":"Kaafjordelven"},"geometry":{"type":"Point","coordinates":[20.91667,69.46667]}},{"type":"feature","properties":{"country_en":"Norway","name":"Laudal","name_adm0":"Norge","name_adm1":"Vest-Agder Fylke","name_adm2":"Marnardal Kommune","name_en":"Laudal"},"geometry":{"type":"Point","coordinates":[7.499999999999999,58.25]}},{"type":"feature","properties":{"country_en":"Norway","name":"Lervik","name_adm0":"Norge","name_adm1":"Østfold Fylke","name_adm2":"Fredrikstad Kommune","name_en":"Lervik"},"geometry":{"type":"Point","coordinates":[10.75,59.266670000000005]}},{"type":"feature","properties":{"country_en":"Norway","name":"Marstein","name_adm0":"Norge","name_adm1":"Møre og Romsdal Fylke","name_adm2":"Rauma Kommune","name_en":"Marstein"},"geometry":{"type":"Point","coordinates":[7.85,62.45]}},{"type":"feature","properties":{"country_en":"Norway","name":"Mjelland","name_adm0":"Norge","name_adm1":"Telemark Fylke","name_adm2":"Notodden Kommune","name_en":"Mjelland"},"geometry":{"type":"Point","coordinates":[9,59.7]}},{"type":"feature","properties":{"country_en":"Norway","name":"Mjelstad","name_adm0":"Norge","name_adm1":"Hordaland Fylke","name_adm2":"Osterøy Kommune","name_en":"Mjelstad"},"geometry":{"type":"Point","coordinates":[5.416669999999999,60.53333]}},{"type":"feature","properties":{"country_en":"Norway","name":"Rafsbotn","name_adm0":"Norge","name_adm1":"Finnmark Fylke","name_adm2":"Alta Kommune","name_en":"Rafsbotn"},"geometry":{"type":"Point","coordinates":[23.53333,70.01667]}},{"type":"feature","properties":{"country_en":"Norway","name":"Rekeland","name_adm0":"Norge","name_adm1":"Rogaland Fylke","name_adm2":"Sokndal Kommune","name_en":"Rekeland"},"geometry":{"type":"Point","coordinates":[6.26667,58.36666999999999]}},{"type":"feature","properties":{"country_en":"Norway","name":"Risnes","name_adm0":"Norge","name_adm1":"Vest-Agder Fylke","name_adm2":"Kvinesdal Kommune","name_en":"Risnes"},"geometry":{"type":"Point","coordinates":[6.98333,58.66667]}},{"type":"feature","properties":{"country_en":"Norway","name":"Røvik","name_adm0":"Norge","name_adm1":"Møre og Romsdal Fylke","name_adm2":"Molde Kommune","name_en":"Røvik"},"geometry":{"type":"Point","coordinates":[7.43333,62.73333]}},{"type":"feature","properties":{"country_en":"Norway","name":"Svanvika","name_adm0":"Norge","name_adm1":"Møre og Romsdal Fylke","name_adm2":"Eide Kommune","name_en":"Svanvika"},"geometry":{"type":"Point","coordinates":[7.450000000000001,62.89999999999999]}},{"type":"feature","properties":{"country_en":"Norway","name":"Vatne","name_adm0":"Norge","name_adm1":"Møre og Romsdal Fylke","name_adm2":"Haram Kommune","name_en":"Vatne"},"geometry":{"type":"Point","coordinates":[6.6499999999999995,62.56667]}},{"type":"feature","properties":{"country_en":"Norway","name":"Svartnes","name_adm0":"Norge","name_adm1":"Finnmark Fylke","name_adm2":"Vardø Kommune","name_en":"Svartnes"},"geometry":{"type":"Point","coordinates":[31.033329999999996,70.35]}},{"type":"feature","properties":{"country_en":"Norway","name":"Potka","name_adm0":"Norge","name_adm1":"Troms Fylke","name_adm2":"Nordreisa Kommune","name_en":"Potka"},"geometry":{"type":"Point","coordinates":[21.25,69.68333]}},{"type":"feature","properties":{"country_en":"Norway","name":"Presteid","name_adm0":"Norge","name_adm1":"Nordland Fylke","name_adm2":"Hamarøy Kommune","name_en":"Presteid"},"geometry":{"type":"Point","coordinates":[15.649999999999999,68.08333]}},{"type":"feature","properties":{"country_en":"Norway","name":"Bamle","name_adm0":"Norge","name_adm1":"Telemark Fylke","name_adm2":"Bamble Kommune","name_en":"Bamle"},"geometry":{"type":"Point","coordinates":[9.56667,59.01666999999999]}},{"type":"feature","properties":{"country_en":"Norway","name":"Bergsbotn","name_adm0":"Norge","name_adm1":"Troms Fylke","name_adm2":"Berg Kommune","name_en":"Bergsbotn"},"geometry":{"type":"Point","coordinates":[17.46667,69.43333]}},{"type":"feature","properties":{"country_en":"Norway","name":"Fore","name_adm0":"Norge","name_adm1":"Nordland Fylke","name_adm2":"Meløy Kommune","name_en":"Fore"},"geometry":{"type":"Point","coordinates":[13.61667,66.91667]}},{"type":"feature","properties":{"country_en":"Norway","name":"Foss","name_adm0":"Norge","name_adm1":"Aust-Agder Fylke","name_adm2":"Evje og Hornnes Kommune","name_en":"Foss"},"geometry":{"type":"Point","coordinates":[7.533329999999999,58.433330000000005]}},{"type":"feature","properties":{"country_en":"Norway","name":"Hægeland","name_adm0":"Norge","name_adm1":"Vest-Agder Fylke","name_adm2":"Vennesla Kommune","name_en":"Hægeland"},"geometry":{"type":"Point","coordinates":[7.76667,58.25]}},{"type":"feature","properties":{"country_en":"Norway","name":"Harøysund","name_adm0":"Norge","name_adm1":"Møre og Romsdal Fylke","name_adm2":"Aukra Kommune","name_en":"Harøysund"},"geometry":{"type":"Point","coordinates":[6.95,62.86666999999999]}},{"type":"feature","properties":{"country_en":"Norway","name":"Gressli","name_adm0":"Norge","name_adm1":"Sør-Trøndelag Fylke","name_adm2":"Tydal Kommune","name_en":"Gressli"},"geometry":{"type":"Point","coordinates":[11.46667,63.06667000000001]}},{"type":"feature","properties":{"country_en":"Norway","name":"Holdhus","name_adm0":"Norge","name_adm1":"Hordaland Fylke","name_adm2":"Fusa Kommune","name_en":"Holdhus"},"geometry":{"type":"Point","coordinates":[5.83333,60.23333]}},{"type":"feature","properties":{"country_en":"Norway","name":"Hynnekleiv","name_adm0":"Norge","name_adm1":"Aust-Agder Fylke","name_adm2":"Froland Kommune","name_en":"Hynnekleiv"},"geometry":{"type":"Point","coordinates":[8.41667,58.6]}},{"type":"feature","properties":{"country_en":"Norway","name":"Karlstad","name_adm0":"Norge","name_adm1":"Troms Fylke","name_adm2":"Målselv Kommune","name_en":"Karlstad"},"geometry":{"type":"Point","coordinates":[18.5,69.21667]}},{"type":"feature","properties":{"country_en":"Norway","name":"Karlebotn","name_adm0":"Norge","name_adm1":"Finnmark Fylke","name_adm2":"Nesseby Kommune","name_en":"Karlebotn"},"geometry":{"type":"Point","coordinates":[28.56667,70.11667]}},{"type":"feature","properties":{"country_en":"Norway","name":"Korsnes","name_adm0":"Norge","name_adm1":"Nordland Fylke","name_adm2":"Tysfjord Kommune","name_en":"Korsnes"},"geometry":{"type":"Point","coordinates":[16.063609999999997,68.24943999999999]}},{"type":"feature","properties":{"country_en":"Norway","name":"Landro","name_adm0":"Norge","name_adm1":"Hordaland Fylke","name_adm2":"Fjell Kommune","name_en":"Landro"},"geometry":{"type":"Point","coordinates":[4.96139,60.42193999999999]}},{"type":"feature","properties":{"country_en":"Norway","name":"Øverås","name_adm0":"Norge","name_adm1":"Møre og Romsdal Fylke","name_adm2":"Vestnes Kommune","name_en":"Overaasjoen"},"geometry":{"type":"Point","coordinates":[6.95,62.64999999999999]}},{"type":"feature","properties":{"country_en":"Norway","name":"Vågaholmen","name_adm0":"Norge","name_adm1":"Nordland Fylke","name_adm2":"Rødøy Kommune","name_en":"Vågaholmen"},"geometry":{"type":"Point","coordinates":[13.287109999999998,66.71367]}},{"type":"feature","properties":{"country_en":"Norway","name":"Sandviksberget","name_adm0":"Norge","name_adm1":"Sør-Trøndelag Fylke","name_adm2":"Osen Kommune","name_en":"Sandviksberget"},"geometry":{"type":"Point","coordinates":[10.45,64.33333]}},{"type":"feature","properties":{"country_en":"Norway","name":"Tyldal","name_adm0":"Norge","name_adm1":"Hedmark Fylke","name_adm2":"Tynset Kommune","name_en":"Tyldal"},"geometry":{"type":"Point","coordinates":[10.799999999999999,62.13333]}},{"type":"feature","properties":{"country_en":"Norway","name":"Vik","name_adm0":"Norge","name_adm1":"Nordland Fylke","name_adm2":"Vågan Kommune","name_en":"Vik"},"geometry":{"type":"Point","coordinates":[14.1,68.31667]}},{"type":"feature","properties":{"country_en":"Norway","name":"Årdal","name_adm0":"Norge","name_adm1":"Sogn og Fjordane Fylke","name_adm2":"Gloppen Kommune","name_en":"Årdal"},"geometry":{"type":"Point","coordinates":[6.35,61.55]}},{"type":"feature","properties":{"country_en":"Norway","name":"Gulen Kommune","name_adm0":"Norge","name_adm1":"Sogn og Fjordane Fylke","name_adm2":"Gulen Kommune","name_en":"Gulen Kommune"},"geometry":{"type":"Point","coordinates":[5.089416,60.95320099999999]}},{"type":"feature","properties":{"country_en":"Norway","name":"Oslomarka","name_adm0":"Norge","name_adm1":"Oslo Fylke","name_adm2":"Oslomarka","name_en":"Oslomarka"},"geometry":{"type":"Point","coordinates":[10.733642,59.91923599999999]}},{"type":"feature","properties":{"country_en":"Norway","name":"Tranøy","name_adm0":"Norge","name_adm1":"Nordland Fylke","name_adm2":"Hamarøy Kommune","name_en":"Tranøy"},"geometry":{"type":"Point","coordinates":[15.658329999999998,68.18444]}},{"type":"feature","properties":{"country_en":"Norway","name":"Kristiansund Kommune","name_adm0":"Norge","name_adm1":"Møre og Romsdal Fylke","name_adm2":"Kristiansund Kommune","name_en":"Kristiansund Kommune"},"geometry":{"type":"Point","coordinates":[7.715148,63.235637]}},{"type":"feature","properties":{"country_en":"Norway","name":"Eide Kommune","name_adm0":"Norge","name_adm1":"Møre og Romsdal Fylke","name_adm2":"Eide Kommune","name_en":"Eide Kommune"},"geometry":{"type":"Point","coordinates":[7.348909,63.01012]}},{"type":"feature","properties":{"country_en":"Norway","name":"Granvin Kommune","name_adm0":"Norge","name_adm1":"Hordaland Fylke","name_adm2":"Granvin Kommune","name_en":"Granvin Kommune"},"geometry":{"type":"Point","coordinates":[6.636195,60.5843095]}},{"type":"feature","properties":{"country_en":"Norway","name":"Skien Kommune","name_adm0":"Norge","name_adm1":"Telemark Fylke","name_adm2":"Skien Kommune","name_en":"Skien Kommune"},"geometry":{"type":"Point","coordinates":[9.61052,59.20747999999999]}},{"type":"feature","properties":{"country_en":"Norway","name":"Flekkefjord Kommune","name_adm0":"Norge","name_adm1":"Vest-Agder Fylke","name_adm2":"Flekkefjord Kommune","name_en":"Flekkefjord Kommune"},"geometry":{"type":"Point","coordinates":[6.66345,58.29791]}},{"type":"feature","properties":{"country_en":"Norway","name":"Sogndal Kommune","name_adm0":"Norge","name_adm1":"Sogn og Fjordane Fylke","name_adm2":"Sogndal Kommune","name_en":"Sogndal Kommune"},"geometry":{"type":"Point","coordinates":[7.10301,61.23144]}},{"type":"feature","properties":{"country_en":"Norway","name":"Flakstad Kommune","name_adm0":"Norge","name_adm1":"Nordland Fylke","name_adm2":"Flakstad Kommune","name_en":"Flakstad Kommune"},"geometry":{"type":"Point","coordinates":[13.2331,68.09292]}},{"type":"feature","properties":{"country_en":"Norway","name":"Målselv Kommune","name_adm0":"Norge","name_adm1":"Troms Fylke","name_adm2":"Målselv Kommune","name_en":"Målselv Kommune"},"geometry":{"type":"Point","coordinates":[18.61498,69.12389]}},{"type":"feature","properties":{"country_en":"Norway","name":"Narvik Kommune","name_adm0":"Norge","name_adm1":"Nordland Fylke","name_adm2":"Narvik Kommune","name_en":"Narvik Kommune"},"geometry":{"type":"Point","coordinates":[17.42775,68.43896]}},{"type":"feature","properties":{"country_en":"Norway","name":"Nissedal Kommune","name_adm0":"Norge","name_adm1":"Telemark Fylke","name_adm2":"Nissedal Kommune","name_en":"Nissedal Kommune"},"geometry":{"type":"Point","coordinates":[8.52127,59.01958]}},{"type":"feature","properties":{"country_en":"Norway","name":"Årdal Kommune","name_adm0":"Norge","name_adm1":"Sogn og Fjordane Fylke","name_adm2":"Årdal Kommune","name_en":"Årdal Kommune"},"geometry":{"type":"Point","coordinates":[7.702039999999999,61.23638999999999]}},{"type":"feature","properties":{"country_en":"Norway","name":"Førde Kommune","name_adm0":"Norge","name_adm1":"Sogn og Fjordane Fylke","name_adm2":"Førde Kommune","name_en":"Førde Kommune"},"geometry":{"type":"Point","coordinates":[5.85397,61.45044999999999]}},{"type":"feature","properties":{"country_en":"Norway","name":"Stavanger Kommune","name_adm0":"Norge","name_adm1":"Rogaland Fylke","name_adm2":"Stavanger Kommune","name_en":"Stavanger Kommune"},"geometry":{"type":"Point","coordinates":[5.728559999999999,58.96941]}},{"type":"feature","properties":{"country_en":"Norway","name":"Nord-Aurdal Kommune","name_adm0":"Norge","name_adm1":"Oppland Fylke","name_adm2":"Nord-Aurdal Kommune","name_en":"Nord-Aurdal Kommune"},"geometry":{"type":"Point","coordinates":[9.23661,60.98531]}},{"type":"feature","properties":{"country_en":"Norway","name":"Sirdal Kommune","name_adm0":"Norge","name_adm1":"Vest-Agder Fylke","name_adm2":"Sirdal Kommune","name_en":"Sirdal Kommune"},"geometry":{"type":"Point","coordinates":[6.71585,58.6651]}},{"type":"feature","properties":{"country_en":"Norway","name":"Grimstad Kommune","name_adm0":"Norge","name_adm1":"Aust-Agder Fylke","name_adm2":"Grimstad Kommune","name_en":"Grimstad Kommune"},"geometry":{"type":"Point","coordinates":[8.59703,58.34623]}},{"type":"feature","properties":{"country_en":"Norway","name":"Hatteng","name_adm0":"Norge","name_adm1":"Troms Fylke","name_adm2":"Storfjord Kommune","name_en":"Hatteng"},"geometry":{"type":"Point","coordinates":[19.95944,69.27072]}},{"type":"feature","properties":{"country_en":"Norway","name":"Fagerli","name_adm0":"Norge","name_adm1":"Troms Fylke","name_adm2":"Lenvik Kommune","name_en":"Fagerli"},"geometry":{"type":"Point","coordinates":[18.51667,69.06667]}},{"type":"feature","properties":{"country_en":"Norway","name":"Sjøåsen","name_adm0":"Norge","name_adm1":"Nord-Trøndelag Fylke","name_adm2":"Namdalseid Kommune","name_en":"Sjøåsen"},"geometry":{"type":"Point","coordinates":[11.22185,64.30882]}},{"type":"feature","properties":{"country_en":"Norway","name":"Liland","name_adm0":"Norge","name_adm1":"Nordland Fylke","name_adm2":"Vågan Kommune","name_en":"Liland"},"geometry":{"type":"Point","coordinates":[14.749999999999998,68.33333]}},{"type":"feature","properties":{"country_en":"Norway","name":"Moen","name_adm0":"Norge","name_adm1":"Troms Fylke","name_adm2":"Dyrøy Kommune","name_en":"Moen"},"geometry":{"type":"Point","coordinates":[17.800559999999997,69.11833]}},{"type":"feature","properties":{"country_en":"Norway","name":"Moen","name_adm0":"Norge","name_adm1":"Nordland Fylke","name_adm2":"Brønnøy Kommune","name_en":"Moen"},"geometry":{"type":"Point","coordinates":[13.23333,65.91667]}},{"type":"feature","properties":{"country_en":"Norway","name":"Ytre Sandvik","name_adm0":"Norge","name_adm1":"Finnmark Fylke","name_adm2":"Porsanger Kommune","name_en":"Ytre Sandvik"},"geometry":{"type":"Point","coordinates":[25.16667,70.31667]}},{"type":"feature","properties":{"country_en":"Norway","name":"Kiberg","name_adm0":"Norge","name_adm1":"Finnmark Fylke","name_adm2":"Vardø Kommune","name_en":"Kiberg"},"geometry":{"type":"Point","coordinates":[30.999999999999996,70.28333]}},{"type":"feature","properties":{"country_en":"Norway","name":"Lavik","name_adm0":"Norge","name_adm1":"Sogn og Fjordane Fylke","name_adm2":"Høyanger Kommune","name_en":"Lavik"},"geometry":{"type":"Point","coordinates":[5.5,61.1]}},{"type":"feature","properties":{"country_en":"Norway","name":"Rypefjord","name_adm0":"Norge","name_adm1":"Finnmark Fylke","name_adm2":"Hammerfest Kommune","name_en":"Rypefjord"},"geometry":{"type":"Point","coordinates":[23.66667,70.63333]}},{"type":"feature","properties":{"country_en":"Norway","name":"Klokkarstua","name_adm0":"Norge","name_adm1":"Buskerud Fylke","name_adm2":"Hurum Kommune","name_en":"Klokkarstua"},"geometry":{"type":"Point","coordinates":[10.459048,59.61355900000001]}},{"type":"feature","properties":{"country_en":"Norway","name":"Fyllingsdalen","name_adm0":"Norge","name_adm1":"Hordaland Fylke","name_adm2":"Bergen Kommune","name_en":"Fyllingsdalen"},"geometry":{"type":"Point","coordinates":[5.283308,60.352729]}},{"type":"feature","properties":{"country_en":"Norway","name":"Bjørøyhamn","name_adm0":"Norge","name_adm1":"Hordaland Fylke","name_adm2":"Fjell Kommune","name_en":"Bjørøyhamn"},"geometry":{"type":"Point","coordinates":[5.184345,60.325418]}},{"type":"feature","properties":{"country_en":"Norway","name":"Borøy","name_adm0":"Norge","name_adm1":"Aust-Agder Fylke","name_adm2":"Tvedestrand Kommune","name_en":"Borøy"},"geometry":{"type":"Point","coordinates":[9.001063999999998,58.584004]}},{"type":"feature","properties":{"country_en":"Norway","name":"Linesøya","name_adm0":"Norge","name_adm1":"Sør-Trøndelag Fylke","name_adm2":"Åfjord Kommune","name_en":"Linesøya"},"geometry":{"type":"Point","coordinates":[9.950265,64.05349999999999]}},{"type":"feature","properties":{"country_en":"Norway","name":"Fagerheim","name_adm0":"Norge","name_adm1":"Sør-Trøndelag Fylke","name_adm2":"Trondheim Kommune","name_en":"Fagerheim"},"geometry":{"type":"Point","coordinates":[10.452589,63.446768]}},{"type":"feature","properties":{"country_en":"Norway","name":"Holtålen Kommune","name_adm0":"Norge","name_adm1":"Sør-Trøndelag Fylke","name_adm2":"Holtålen Kommune","name_en":"Holtålen Kommune"},"geometry":{"type":"Point","coordinates":[11.29284,62.84318]}},{"type":"feature","properties":{"country_en":"Norway","name":"Alstahaug Kommune","name_adm0":"Norge","name_adm1":"Nordland Fylke","name_adm2":"Alstahaug Kommune","name_en":"Alstahaug Kommune"},"geometry":{"type":"Point","coordinates":[12.60211,66.01937]}},{"type":"feature","properties":{"country_en":"Norway","name":"Haram Kommune","name_adm0":"Norge","name_adm1":"Møre og Romsdal Fylke","name_adm2":"Haram Kommune","name_en":"Haram Kommune"},"geometry":{"type":"Point","coordinates":[6.44483,62.59898]}},{"type":"feature","properties":{"country_en":"Norway","name":"Harstad Kommune","name_adm0":"Norge","name_adm1":"Troms Fylke","name_adm2":"Harstad Kommune","name_en":"Harstad Kommune"},"geometry":{"type":"Point","coordinates":[16.5293,68.79896]}},{"type":"feature","properties":{"country_en":"Norway","name":"Yven","name_adm0":"Norge","name_adm1":"Østfold Fylke","name_adm2":"Sarpsborg Kommune","name_en":"Yven"},"geometry":{"type":"Point","coordinates":[11.079411,59.265354]}},{"type":"feature","properties":{"country_en":"Norway","name":"Gudvangen","name_adm0":"Norge","name_adm1":"Sogn og Fjordane Fylke","name_adm2":"Aurland Kommune","name_en":"Gudvangen"},"geometry":{"type":"Point","coordinates":[6.83333,60.866670000000006]}},{"type":"feature","properties":{"country_en":"Norway","name":"Hetlevik","name_adm0":"Norge","name_adm1":"Hordaland Fylke","name_adm2":"Askøy Kommune","name_en":"Hetlevik"},"geometry":{"type":"Point","coordinates":[5.15222,60.42694]}},{"type":"feature","properties":{"country_en":"Norway","name":"Hjellum","name_adm0":"Norge","name_adm1":"Hedmark Fylke","name_adm2":"Hamar Kommune","name_en":"Hjellum"},"geometry":{"type":"Point","coordinates":[11.15,60.78332999999999]}},{"type":"feature","properties":{"country_en":"Norway","name":"Ramberg","name_adm0":"Norge","name_adm1":"Nordland Fylke","name_adm2":"Flakstad Kommune","name_en":"Ramberg"},"geometry":{"type":"Point","coordinates":[13.23177,68.08902]}},{"type":"feature","properties":{"country_en":"Norway","name":"Reine","name_adm0":"Norge","name_adm1":"Nordland Fylke","name_adm2":"Moskenes Kommune","name_en":"Reine"},"geometry":{"type":"Point","coordinates":[13.51667,68.08333]}},{"type":"feature","properties":{"country_en":"Norway","name":"Refsnes","name_adm0":"Norge","name_adm1":"Sør-Trøndelag Fylke","name_adm2":"Åfjord Kommune","name_en":"Refsnes"},"geometry":{"type":"Point","coordinates":[10.06667,64.03333]}},{"type":"feature","properties":{"country_en":"Norway","name":"Svestad","name_adm0":"Norge","name_adm1":"Akershus Fylke","name_adm2":"Nesodden Kommune","name_en":"Svestad"},"geometry":{"type":"Point","coordinates":[10.59306,59.77611000000001]}},{"type":"feature","properties":{"country_en":"Norway","name":"Hvalstad","name_adm0":"Norge","name_adm1":"Akershus Fylke","name_adm2":"Asker Kommune","name_en":"Hvalstad"},"geometry":{"type":"Point","coordinates":[10.465959999999999,59.85667]}},{"type":"feature","properties":{"country_en":"Norway","name":"Strindheim","name_adm0":"Norge","name_adm1":"Sør-Trøndelag Fylke","name_adm2":"Trondheim Kommune","name_en":"Strindheim"},"geometry":{"type":"Point","coordinates":[10.450057,63.432626]}},{"type":"feature","properties":{"country_en":"Norway","name":"Hurum Kommune","name_adm0":"Norge","name_adm1":"Buskerud Fylke","name_adm2":"Hurum Kommune","name_en":"Hurum Kommune"},"geometry":{"type":"Point","coordinates":[10.45763,59.61400999999999]}},{"type":"feature","properties":{"country_en":"Norway","name":"Tvedestrand","name_adm0":"Norge","name_adm1":"Aust-Agder Fylke","name_adm2":"Tvedestrand Kommune","name_en":"Tvedestrand"},"geometry":{"type":"Point","coordinates":[8.93147,58.62203]}},{"type":"feature","properties":{"country_en":"Norway","name":"Ovre Ardal","name_adm0":"Norge","name_adm1":"Sogn og Fjordane Fylke","name_adm2":"Årdal Kommune","name_en":"Ovre Ardal"},"geometry":{"type":"Point","coordinates":[7.8,61.31667]}},{"type":"feature","properties":{"country_en":"Norway","name":"Råde","name_adm0":"Norge","name_adm1":"Østfold Fylke","name_adm2":"Råde Kommune","name_en":"Raade"},"geometry":{"type":"Point","coordinates":[10.85,59.349999999999994]}},{"type":"feature","properties":{"country_en":"Norway","name":"Fyresdal","name_adm0":"Norge","name_adm1":"Telemark Fylke","name_adm2":"Fyresdal Kommune","name_en":"Fyresdal"},"geometry":{"type":"Point","coordinates":[8.0895,59.186499999999995]}},{"type":"feature","properties":{"country_en":"Norway","name":"Knarrlagsund","name_adm0":"Norge","name_adm1":"Sør-Trøndelag Fylke","name_adm2":"Hitra Kommune","name_en":"Knarrlagsund"},"geometry":{"type":"Point","coordinates":[9.08333,63.66667]}},{"type":"feature","properties":{"country_en":"Norway","name":"Romolslia","name_adm0":"Norge","name_adm1":"Sør-Trøndelag Fylke","name_adm2":"Trondheim Kommune","name_en":"Romolslia"},"geometry":{"type":"Point","coordinates":[10.375556,63.37685199999999]}},{"type":"feature","properties":{"country_en":"Norway","name":"Skogrand","name_adm0":"Norge","name_adm1":"Akershus Fylke","name_adm2":"Nes Kommune","name_en":"Skogrand"},"geometry":{"type":"Point","coordinates":[11.523459999999998,60.23230999999999]}},{"type":"feature","properties":{"country_en":"Norway","name":"Småland","name_adm0":"Norge","name_adm1":"Nord-Trøndelag Fylke","name_adm2":"Inderøy Kommune","name_en":"Småland"},"geometry":{"type":"Point","coordinates":[10.71667,63.599999999999994]}},{"type":"feature","properties":{"country_en":"Norway","name":"Brevikstranda","name_adm0":"Norge","name_adm1":"Telemark Fylke","name_adm2":"Bamble Kommune","name_en":"Brevikstranda"},"geometry":{"type":"Point","coordinates":[9.65,58.96666999999999]}},{"type":"feature","properties":{"country_en":"Norway","name":"Ingelsrud","name_adm0":"Norge","name_adm1":"Akershus Fylke","name_adm2":"Asker Kommune","name_en":"Ingelsrud"},"geometry":{"type":"Point","coordinates":[9.6,59.7]}},{"type":"feature","properties":{"country_en":"Norway","name":"Jelsa","name_adm0":"Norge","name_adm1":"Rogaland Fylke","name_adm2":"Suldal Kommune","name_en":"Jelsa"},"geometry":{"type":"Point","coordinates":[6.06667,59.33333]}},{"type":"feature","properties":{"country_en":"Norway","name":"Kvelland","name_adm0":"Norge","name_adm1":"Vest-Agder Fylke","name_adm2":"Flekkefjord Kommune","name_en":"Kvelland"},"geometry":{"type":"Point","coordinates":[6.63333,58.25]}},{"type":"feature","properties":{"country_en":"Norway","name":"Rustad","name_adm0":"Norge","name_adm1":"Akershus Fylke","name_adm2":"Hurdal Kommune","name_en":"Rustad"},"geometry":{"type":"Point","coordinates":[11,60.349999999999994]}},{"type":"feature","properties":{"country_en":"Norway","name":"Hoeggen","name_adm0":"Norge","name_adm1":"Sør-Trøndelag Fylke","name_adm2":"Trondheim Kommune","name_en":"Hoeggen"},"geometry":{"type":"Point","coordinates":[10.430928,63.39835399999999]}},{"type":"feature","properties":{"country_en":"Norway","name":"Harøy","name_adm0":"Norge","name_adm1":"Møre og Romsdal Fylke","name_adm2":"Sandøy Kommune","name_en":"Harøy"},"geometry":{"type":"Point","coordinates":[6.5079215,62.80189399999999]}},{"type":"feature","properties":{"country_en":"Norway","name":"Silda","name_adm0":"Norge","name_adm1":"Sogn og Fjordane Fylke","name_adm2":"Vågsøy Kommune","name_en":"Silda"},"geometry":{"type":"Point","coordinates":[5.146166,62.031592999999994]}},{"type":"feature","properties":{"country_en":"Norway","name":"Atløy","name_adm0":"Norge","name_adm1":"Sogn og Fjordane Fylke","name_adm2":"Askvoll Kommune","name_en":"Atløy"},"geometry":{"type":"Point","coordinates":[4.976999,61.366224]}},{"type":"feature","properties":{"country_en":"Norway","name":"Ångstad","name_adm0":"Norge","name_adm1":"Nordland Fylke","name_adm2":"Hadsel Kommune","name_en":"Ongstad"},"geometry":{"type":"Point","coordinates":[14.733329999999999,68.51667]}},{"type":"feature","properties":{"country_en":"Norway","name":"Kopervik","name_adm0":"Norge","name_adm1":"Rogaland Fylke","name_adm2":"Karmøy Kommune","name_en":"Kopervik"},"geometry":{"type":"Point","coordinates":[5.30669,59.28354]}},{"type":"feature","properties":{"country_en":"Norway","name":"Årøybukta","name_adm0":"Norge","name_adm1":"Troms Fylke","name_adm2":"Lyngen Kommune","name_en":"Årøybukta"},"geometry":{"type":"Point","coordinates":[20.3,69.65]}},{"type":"feature","properties":{"country_en":"Norway","name":"Bjerka","name_adm0":"Norge","name_adm1":"Nordland Fylke","name_adm2":"Hemnes Kommune","name_en":"Bjerka"},"geometry":{"type":"Point","coordinates":[13.88333,66.15]}},{"type":"feature","properties":{"country_en":"Norway","name":"Bø","name_adm0":"Norge","name_adm1":"Nordland Fylke","name_adm2":"Vestvågøy Kommune","name_en":"Bø"},"geometry":{"type":"Point","coordinates":[13.91667,68.31667]}},{"type":"feature","properties":{"country_en":"Norway","name":"Eikja","name_adm0":"Norge","name_adm1":"Telemark Fylke","name_adm2":"Bø Kommune","name_en":"Eikja"},"geometry":{"type":"Point","coordinates":[9.033329999999998,59.43332999999999]}},{"type":"feature","properties":{"country_en":"Norway","name":"Fjellskår","name_adm0":"Norge","name_adm1":"Vest-Agder Fylke","name_adm2":"Lindesnes Kommune","name_en":"Fjeldskaar"},"geometry":{"type":"Point","coordinates":[7.08333,58.00000000000001]}},{"type":"feature","properties":{"country_en":"Norway","name":"Gyltvik","name_adm0":"Norge","name_adm1":"Nordland Fylke","name_adm2":"Sørfold Kommune","name_en":"Gyltvik"},"geometry":{"type":"Point","coordinates":[15.549999999999999,67.45]}},{"type":"feature","properties":{"country_en":"Norway","name":"Gystad","name_adm0":"Norge","name_adm1":"Akershus Fylke","name_adm2":"Ullensaker Kommune","name_en":"Gystad"},"geometry":{"type":"Point","coordinates":[11.2,60.133329999999994]}},{"type":"feature","properties":{"country_en":"Norway","name":"Helle","name_adm0":"Norge","name_adm1":"Rogaland Fylke","name_adm2":"Forsand Kommune","name_en":"Helle"},"geometry":{"type":"Point","coordinates":[6.15,58.86667]}},{"type":"feature","properties":{"country_en":"Norway","name":"Hogvær","name_adm0":"Norge","name_adm1":"Hordaland Fylke","name_adm2":"Masfjorden Kommune","name_en":"Hogvær"},"geometry":{"type":"Point","coordinates":[5.53333,60.9]}},{"type":"feature","properties":{"country_en":"Norway","name":"Marvik","name_adm0":"Norge","name_adm1":"Rogaland Fylke","name_adm2":"Suldal Kommune","name_en":"Marvik"},"geometry":{"type":"Point","coordinates":[6.099999999999999,59.43332999999999]}},{"type":"feature","properties":{"country_en":"Norway","name":"Meland","name_adm0":"Norge","name_adm1":"Hordaland Fylke","name_adm2":"Meland Kommune","name_en":"Meland"},"geometry":{"type":"Point","coordinates":[5.199999999999999,60.53333]}},{"type":"feature","properties":{"country_en":"Norway","name":"Oldervika","name_adm0":"Norge","name_adm1":"Finnmark Fylke","name_adm2":"Lebesby Kommune","name_en":"Oldervika"},"geometry":{"type":"Point","coordinates":[27,70.51667]}},{"type":"feature","properties":{"country_en":"Norway","name":"Opphus","name_adm0":"Norge","name_adm1":"Hedmark Fylke","name_adm2":"Stor-Elvdal Kommune","name_en":"Opphus"},"geometry":{"type":"Point","coordinates":[11.26667,61.33333]}},{"type":"feature","properties":{"country_en":"Norway","name":"Roverud","name_adm0":"Norge","name_adm1":"Hedmark Fylke","name_adm2":"Kongsvinger Kommune","name_en":"Roverud"},"geometry":{"type":"Point","coordinates":[12.049999999999999,60.25]}},{"type":"feature","properties":{"country_en":"Norway","name":"Skjeltne","name_adm0":"Norge","name_adm1":"Møre og Romsdal Fylke","name_adm2":"Haram Kommune","name_en":"Skjeltne"},"geometry":{"type":"Point","coordinates":[6.28333,62.599999999999994]}},{"type":"feature","properties":{"country_en":"Norway","name":"Steinsland","name_adm0":"Norge","name_adm1":"Troms Fylke","name_adm2":"Skånland Kommune","name_en":"Steinsland"},"geometry":{"type":"Point","coordinates":[16.58333,68.61667]}},{"type":"feature","properties":{"country_en":"Norway","name":"Store Vandve","name_adm0":"Norge","name_adm1":"Nordland Fylke","name_adm2":"Dønna Kommune","name_en":"Store Vandve"},"geometry":{"type":"Point","coordinates":[12.35,66.16667]}},{"type":"feature","properties":{"country_en":"Norway","name":"Storjord","name_adm0":"Norge","name_adm1":"Nordland Fylke","name_adm2":"Beiarn Kommune","name_en":"Storjord"},"geometry":{"type":"Point","coordinates":[14.766670000000001,66.98333]}},{"type":"feature","properties":{"country_en":"Norway","name":"Stormoen","name_adm0":"Norge","name_adm1":"Troms Fylke","name_adm2":"Lenvik Kommune","name_en":"Stormoen"},"geometry":{"type":"Point","coordinates":[17.83333,69.21667]}},{"type":"feature","properties":{"country_en":"Norway","name":"Gamvik","name_adm0":"Norge","name_adm1":"Finnmark Fylke","name_adm2":"Gamvik Kommune","name_en":"Gamvik"},"geometry":{"type":"Point","coordinates":[28.23333,71.05]}},{"type":"feature","properties":{"country_en":"Norway","name":"Fjellhamar","name_adm0":"Norge","name_adm1":"Akershus Fylke","name_adm2":"Lørenskog Kommune","name_en":"Fjellhamar"},"geometry":{"type":"Point","coordinates":[10.98459,59.92435499999999]}},{"type":"feature","properties":{"country_en":"Norway","name":"Espenes","name_adm0":"Norge","name_adm1":"Troms Fylke","name_adm2":"Dyrøy Kommune","name_en":"Espenes"},"geometry":{"type":"Point","coordinates":[17.78333,69.11667]}},{"type":"feature","properties":{"country_en":"Norway","name":"Evenstad","name_adm0":"Norge","name_adm1":"Hedmark Fylke","name_adm2":"Stor-Elvdal Kommune","name_en":"Evenstad"},"geometry":{"type":"Point","coordinates":[11.083329999999998,61.5]}},{"type":"feature","properties":{"country_en":"Norway","name":"Rise","name_adm0":"Norge","name_adm1":"Nordland Fylke","name_adm2":"Sortland Kommune","name_en":"Rise"},"geometry":{"type":"Point","coordinates":[15.21667,68.63333]}},{"type":"feature","properties":{"country_en":"Norway","name":"Valanhamn","name_adm0":"Norge","name_adm1":"Troms Fylke","name_adm2":"Kvænangen Kommune","name_en":"Valanhamn"},"geometry":{"type":"Point","coordinates":[21.53333,69.94999999999999]}},{"type":"feature","properties":{"country_en":"Norway","name":"Stoveland","name_adm0":"Norge","name_adm1":"Vest-Agder Fylke","name_adm2":"Mandal Kommune","name_en":"Stoveland"},"geometry":{"type":"Point","coordinates":[7.499999999999999,58.06667]}},{"type":"feature","properties":{"country_en":"Norway","name":"Kåristad","name_adm0":"Norge","name_adm1":"Vest-Agder Fylke","name_adm2":"Farsund Kommune","name_en":"Kåristad"},"geometry":{"type":"Point","coordinates":[6.26667,58.39999999999999]}},{"type":"feature","properties":{"country_en":"Norway","name":"Hammarsland","name_adm0":"Norge","name_adm1":"Hordaland Fylke","name_adm2":"Sund Kommune","name_en":"Hammarsland"},"geometry":{"type":"Point","coordinates":[5.07333,60.25249999999999]}},{"type":"feature","properties":{"country_en":"Norway","name":"Hoffland","name_adm0":"Norge","name_adm1":"Møre og Romsdal Fylke","name_adm2":"Ålesund Kommune","name_en":"Hoffland"},"geometry":{"type":"Point","coordinates":[6.211395,62.476801]}},{"type":"feature","properties":{"country_en":"Norway","name":"Heissa","name_adm0":"Norge","name_adm1":"Møre og Romsdal Fylke","name_adm2":"Ålesund Kommune","name_en":"Heissa"},"geometry":{"type":"Point","coordinates":[6.096639,62.466769]}},