{"type":"FeatureCollection","features":[{"type":"feature","properties":{"country_en":"Peru","name":"La Libertad","name_adm0":"Perú","name_adm1":"La Libertad","name_en":"La Libertad"},"geometry":{"type":"Point","coordinates":[-78.5,-8]}},{"type":"feature","properties":{"country_en":"Peru","name":"Lambayeque","name_adm0":"Perú","name_adm1":"Lambayeque","name_en":"Lambayeque"},"geometry":{"type":"Point","coordinates":[-79.99999999999999,-6.33333]}},{"type":"feature","properties":{"country_en":"Peru","name":"San Martin","name_adm0":"Perú","name_adm1":"San Martin","name_en":"San Martin"},"geometry":{"type":"Point","coordinates":[-76.83333,-7]}},{"type":"feature","properties":{"country_en":"Peru","name":"Tacna","name_adm0":"Perú","name_adm1":"Tacna","name_en":"Tacna"},"geometry":{"type":"Point","coordinates":[-70.33332999999999,-17.66667]}},{"type":"feature","properties":{"country_en":"Peru","name":"Colla","name_adm0":"Perú","name_adm1":"Cusco","name_adm2":"Calca","name_en":"Colla"},"geometry":{"type":"Point","coordinates":[-71.36353,-14.08169]}},{"type":"feature","properties":{"country_en":"Peru","name":"Quilcas","name_adm0":"Perú","name_adm1":"Junín","name_adm2":"Huancayo","name_en":"Quilcas"},"geometry":{"type":"Point","coordinates":[-75.69395,-12.18194]}},{"type":"feature","properties":{"country_en":"Peru","name":"Cochiquinas","name_adm0":"Perú","name_adm1":"Loreto","name_adm2":"Mariscal Ramón Castilla","name_en":"Cochiquinas"},"geometry":{"type":"Point","coordinates":[-71.56667,-3.6166699999999996]}},{"type":"feature","properties":{"country_en":"Peru","name":"Llacas","name_adm0":"Perú","name_adm1":"Arequipa","name_adm2":"Castilla","name_en":"Llacas"},"geometry":{"type":"Point","coordinates":[-72.71363,-15.98271]}},{"type":"feature","properties":{"country_en":"Peru","name":"Las Piedras","name_adm0":"Perú","name_adm1":"Madre de Dios","name_adm2":"Tambopata","name_en":"Las Piedras"},"geometry":{"type":"Point","coordinates":[-69.23333,-12.5]}},{"type":"feature","properties":{"country_en":"Peru","name":"Cháparra","name_adm0":"Perú","name_adm1":"Arequipa","name_adm2":"Caravelí","name_en":"Cháparra"},"geometry":{"type":"Point","coordinates":[-73.86142,-15.739479999999999]}},{"type":"feature","properties":{"country_en":"Peru","name":"Orellana","name_adm0":"Perú","name_adm1":"Amazonas","name_adm2":"Condorcanqui","name_en":"Orellana"},"geometry":{"type":"Point","coordinates":[-78.13332999999999,-4.63333]}},{"type":"feature","properties":{"country_en":"Peru","name":"Monobamba","name_adm0":"Perú","name_adm1":"Junín","name_adm2":"Jauja","name_en":"Monobamba"},"geometry":{"type":"Point","coordinates":[-75.25,-11.41667]}},{"type":"feature","properties":{"country_en":"Peru","name":"San José de Secce","name_adm0":"Perú","name_adm1":"Ayacucho","name_adm2":"Huanta","name_en":"San José de Secce"},"geometry":{"type":"Point","coordinates":[-74.2,-12.58333]}},{"type":"feature","properties":{"country_en":"Peru","name":"Sábaloyacu","name_adm0":"Perú","name_adm1":"Loreto","name_adm2":"Maynas","name_en":"Sábaloyacu"},"geometry":{"type":"Point","coordinates":[-75.16666999999998,-0.68333]}},{"type":"feature","properties":{"country_en":"Peru","name":"Tarqui","name_adm0":"Perú","name_adm1":"Loreto","name_adm2":"Maynas","name_en":"Tarqui"},"geometry":{"type":"Point","coordinates":[-75.25,-1.58333]}},{"type":"feature","properties":{"country_en":"Peru","name":"Esperança","name_adm0":"Perú","name_adm1":"Madre de Dios","name_adm2":"Tahuamanu","name_en":"Esperança"},"geometry":{"type":"Point","coordinates":[-69.83333,-11.73333]}},{"type":"feature","properties":{"country_en":"Peru","name":"Cuchicancha","name_adm0":"Perú","name_adm1":"Huancavelica","name_adm2":"Huaytara","name_en":"Cuchicancha"},"geometry":{"type":"Point","coordinates":[-75.26667,-13.46667]}},{"type":"feature","properties":{"country_en":"Peru","name":"Gloribamba","name_adm0":"Perú","name_adm1":"Junín","name_adm2":"Satipo","name_en":"Gloribamba"},"geometry":{"type":"Point","coordinates":[-74.36631,-11.19142]}},{"type":"feature","properties":{"country_en":"Peru","name":"Huamantanga","name_adm0":"Perú","name_adm1":"Lima","name_adm2":"Canta","name_en":"Huamantanga"},"geometry":{"type":"Point","coordinates":[-76.20526,-11.44242]}},{"type":"feature","properties":{"country_en":"Peru","name":"Tintay","name_adm0":"Perú","name_adm1":"Huancavelica","name_adm2":"Tayacaja","name_en":"Tintay"},"geometry":{"type":"Point","coordinates":[-74.51667,-12.11667]}},{"type":"feature","properties":{"country_en":"Peru","name":"Turpay","name_adm0":"Perú","name_adm1":"Apurímac","name_adm2":"Grau","name_en":"Turpay"},"geometry":{"type":"Point","coordinates":[-73.14267,-13.56099]}},{"type":"feature","properties":{"country_en":"Peru","name":"Casapata","name_adm0":"Perú","name_adm1":"Cusco","name_adm2":"La Convención","name_en":"Casapata"},"geometry":{"type":"Point","coordinates":[-73.42472,-13.128609999999998]}},{"type":"feature","properties":{"country_en":"Peru","name":"Charcarilla","name_adm0":"Perú","name_adm1":"Lima","name_adm2":"Huaura","name_en":"Charcarilla"},"geometry":{"type":"Point","coordinates":[-77.62024,-11.046309999999998]}},{"type":"feature","properties":{"country_en":"Peru","name":"Chilcas","name_adm0":"Perú","name_adm1":"Ayacucho","name_adm2":"La Mar","name_en":"Chilcas"},"geometry":{"type":"Point","coordinates":[-74.03333,-13.033329999999998]}},{"type":"feature","properties":{"country_en":"Peru","name":"Sitacocha","name_adm0":"Perú","name_adm1":"Cajamarca","name_adm2":"Cajabamba","name_en":"Sitacocha"},"geometry":{"type":"Point","coordinates":[-77.98333,-7.499999999999999]}},{"type":"feature","properties":{"country_en":"Peru","name":"San Nicolás","name_adm0":"Perú","name_adm1":"Loreto","name_adm2":"Mariscal Ramón Castilla","name_en":"San Nicolás"},"geometry":{"type":"Point","coordinates":[-71.69803999999999,-3.7011999999999996]}},{"type":"feature","properties":{"country_en":"Peru","name":"Tarma","name_adm0":"Perú","name_adm1":"Loreto","name_adm2":"Mariscal Ramón Castilla","name_en":"Tarma"},"geometry":{"type":"Point","coordinates":[-71.73769,-3.43879]}},{"type":"feature","properties":{"country_en":"Peru","name":"Yanayacu","name_adm0":"Perú","name_adm1":"Loreto","name_adm2":"Loreto","name_en":"Yanayacu"},"geometry":{"type":"Point","coordinates":[-74.9,-4.099999999999999]}},{"type":"feature","properties":{"country_en":"Peru","name":"Hualmay","name_adm0":"Perú","name_adm1":"Lima","name_adm2":"Huaura","name_en":"Hualmay"},"geometry":{"type":"Point","coordinates":[-76.95583,-10.44722]}},{"type":"feature","properties":{"country_en":"Peru","name":"Huanca Sancos","name_adm0":"Perú","name_adm1":"Ayacucho","name_adm2":"Huanca Sancos","name_en":"Huanca Sancos"},"geometry":{"type":"Point","coordinates":[-74.31667,-13.76667]}},{"type":"feature","properties":{"country_en":"Peru","name":"Papayacu","name_adm0":"Perú","name_adm1":"Loreto","name_adm2":"Alto Amazonas","name_en":"Papayacu"},"geometry":{"type":"Point","coordinates":[-76.30342,-4.960969999999999]}},{"type":"feature","properties":{"country_en":"Peru","name":"Pámpano","name_adm0":"Perú","name_adm1":"Ica","name_adm2":"Pisco","name_en":"Pámpano"},"geometry":{"type":"Point","coordinates":[-75.53443,-13.56515]}},{"type":"feature","properties":{"country_en":"Peru","name":"Tanguche","name_adm0":"Perú","name_adm1":"La Libertad","name_adm2":"Viru","name_en":"Tanguche"},"geometry":{"type":"Point","coordinates":[-78.5235,-8.74643]}},{"type":"feature","properties":{"country_en":"Peru","name":"Camaná","name_adm0":"Perú","name_adm1":"Arequipa","name_adm2":"Camaná","name_en":"Camaná"},"geometry":{"type":"Point","coordinates":[-72.71055,-16.62375]}},{"type":"feature","properties":{"country_en":"Peru","name":"Contumazá","name_adm0":"Perú","name_adm1":"Cajamarca","name_adm2":"Contumazá","name_en":"Contumazá"},"geometry":{"type":"Point","coordinates":[-78.80282,-7.36535]}},{"type":"feature","properties":{"country_en":"Peru","name":"Celendín","name_adm0":"Perú","name_adm1":"Cajamarca","name_adm2":"Celendín","name_en":"Celendín"},"geometry":{"type":"Point","coordinates":[-78.14585,-6.865899999999999]}},{"type":"feature","properties":{"country_en":"Peru","name":"San Pedro de Lloc","name_adm0":"Perú","name_adm1":"La Libertad","name_adm2":"Pacasmayo","name_en":"San Pedro de Lloc"},"geometry":{"type":"Point","coordinates":[-79.50416,-7.428899999999999]}},{"type":"feature","properties":{"country_en":"Peru","name":"Quillabamba","name_adm0":"Perú","name_adm1":"Cusco","name_adm2":"La Convención","name_en":"Quillabamba"},"geometry":{"type":"Point","coordinates":[-73.28922,-13.53305]}},{"type":"feature","properties":{"country_en":"Peru","name":"San Miguel","name_adm0":"Perú","name_adm1":"Ayacucho","name_adm2":"La Mar","name_en":"San Miguel"},"geometry":{"type":"Point","coordinates":[-74.58273,-13.597289999999997]}},{"type":"feature","properties":{"country_en":"Peru","name":"Alis","name_adm0":"Perú","name_adm1":"Lima","name_adm2":"Yauyos","name_en":"Alis"},"geometry":{"type":"Point","coordinates":[-75.59602,-12.51479]}},{"type":"feature","properties":{"country_en":"Peru","name":"Acora","name_adm0":"Perú","name_adm1":"Puno","name_adm2":"Puno","name_en":"Acora"},"geometry":{"type":"Point","coordinates":[-69.79742,-15.973899999999999]}},{"type":"feature","properties":{"country_en":"Peru","name":"Huancaya","name_adm0":"Perú","name_adm1":"Lima","name_adm2":"Yauyos","name_en":"Huancaya"},"geometry":{"type":"Point","coordinates":[-75.68333,-13.13333]}},{"type":"feature","properties":{"country_en":"Peru","name":"Huancabamba","name_adm0":"Perú","name_adm1":"Pasco","name_adm2":"Oxapampa","name_en":"Huancabamba"},"geometry":{"type":"Point","coordinates":[-76.03412,-10.49129]}},{"type":"feature","properties":{"country_en":"Peru","name":"Montero","name_adm0":"Perú","name_adm1":"Piura","name_adm2":"Ayabaca","name_en":"Montero"},"geometry":{"type":"Point","coordinates":[-80.63128,-4.863219999999999]}},{"type":"feature","properties":{"country_en":"Peru","name":"Pitumarca","name_adm0":"Perú","name_adm1":"Cusco","name_adm2":"Canchis","name_en":"Pitumarca"},"geometry":{"type":"Point","coordinates":[-72.08142,-13.92562]}},{"type":"feature","properties":{"country_en":"Peru","name":"Pomacancha","name_adm0":"Perú","name_adm1":"Junín","name_adm2":"Jauja","name_en":"Pomacancha"},"geometry":{"type":"Point","coordinates":[-75.62424999999999,-12.14888]}},{"type":"feature","properties":{"country_en":"Peru","name":"Santa Lucía","name_adm0":"Perú","name_adm1":"Puno","name_adm2":"Lampa","name_en":"Santa Lucía"},"geometry":{"type":"Point","coordinates":[-70.6061,-15.697880000000001]}},{"type":"feature","properties":{"country_en":"Peru","name":"Shanao","name_adm0":"Perú","name_adm1":"San Martin","name_adm2":"Lamas","name_en":"Shanao"},"geometry":{"type":"Point","coordinates":[-76.66667,-6.35]}},{"type":"feature","properties":{"country_en":"Peru","name":"Ocallí","name_adm0":"Perú","name_adm1":"Amazonas","name_adm2":"Luya","name_en":"Ocallí"},"geometry":{"type":"Point","coordinates":[-78.26691,-6.234]}},{"type":"feature","properties":{"country_en":"Peru","name":"Pescadores","name_adm0":"Perú","name_adm1":"Arequipa","name_adm2":"Camaná","name_en":"Pescadores"},"geometry":{"type":"Point","coordinates":[-73.2547,-16.38728]}},{"type":"feature","properties":{"country_en":"Peru","name":"Tunga","name_adm0":"Perú","name_adm1":"Ica","name_adm2":"Nazca","name_en":"Tunga"},"geometry":{"type":"Point","coordinates":[-74.96667,-14.63333]}},{"type":"feature","properties":{"country_en":"Peru","name":"Barranca","name_adm0":"Perú","name_adm1":"Lima","name_adm2":"Barranca","name_en":"Barranca"},"geometry":{"type":"Point","coordinates":[-77.76441,-10.754069]}},{"type":"feature","properties":{"country_en":"Peru","name":"La Pampa","name_adm0":"Perú","name_adm1":"Arequipa","name_adm2":"Camaná","name_en":"La Pampa"},"geometry":{"type":"Point","coordinates":[-72.5,-16.13333]}},{"type":"feature","properties":{"country_en":"Peru","name":"Torata","name_adm0":"Perú","name_adm1":"Moquegua","name_adm2":"Mariscal Nieto","name_en":"Torata"},"geometry":{"type":"Point","coordinates":[-70.60625,-16.56856]}},{"type":"feature","properties":{"country_en":"Peru","name":"Yauli","name_adm0":"Perú","name_adm1":"Junín","name_adm2":"Yauli","name_en":"Yauli"},"geometry":{"type":"Point","coordinates":[-76.18833,-11.90722]}},{"type":"feature","properties":{"country_en":"Peru","name":"Monsefú","name_adm0":"Perú","name_adm1":"Lambayeque","name_adm2":"Chiclayo","name_en":"Monsefú"},"geometry":{"type":"Point","coordinates":[-79.86998,-6.87719]}},{"type":"feature","properties":{"country_en":"Peru","name":"Zarumilla","name_adm0":"Perú","name_adm1":"Tumbes","name_adm2":"Zarumilla","name_en":"Zarumilla"},"geometry":{"type":"Point","coordinates":[-80.25,-3.66667]}},{"type":"feature","properties":{"country_en":"Peru","name":"Bellavista","name_adm0":"Perú","name_adm1":"San Martin","name_adm2":"Bellavista","name_en":"Bellavista"},"geometry":{"type":"Point","coordinates":[-76.31932,-7.638249999999999]}},{"type":"feature","properties":{"country_en":"Peru","name":"Cajabamba","name_adm0":"Perú","name_adm1":"Cajamarca","name_adm2":"Cajabamba","name_en":"Cajabamba"},"geometry":{"type":"Point","coordinates":[-78.16667,-7.499999999999999]}},{"type":"feature","properties":{"country_en":"Peru","name":"Buldibuyo","name_adm0":"Perú","name_adm1":"La Libertad","name_adm2":"Pataz","name_en":"Buldibuyo"},"geometry":{"type":"Point","coordinates":[-77.39524,-8.12704]}},{"type":"feature","properties":{"country_en":"Peru","name":"Puerto Baldeón","name_adm0":"Perú","name_adm1":"Huánuco","name_adm2":"Puerto Inca","name_en":"Puerto Baldeón"},"geometry":{"type":"Point","coordinates":[-74.66667,-8.749999999999998]}},{"type":"feature","properties":{"country_en":"Peru","name":"La Unión","name_adm0":"Perú","name_adm1":"Piura","name_adm2":"Sechura","name_en":"La Unión"},"geometry":{"type":"Point","coordinates":[-80.74224,-5.40232]}},{"type":"feature","properties":{"country_en":"Peru","name":"Bolívar","name_adm0":"Perú","name_adm1":"La Libertad","name_adm2":"Bolívar","name_en":"Bolívar"},"geometry":{"type":"Point","coordinates":[-77.79999999999998,-7.299999999999999]}},{"type":"feature","properties":{"country_en":"Peru","name":"El Porvenir","name_adm0":"Perú","name_adm1":"La Libertad","name_adm2":"Trujillo","name_en":"El Porvenir"},"geometry":{"type":"Point","coordinates":[-79.26667,-7.916669999999999]}},{"type":"feature","properties":{"country_en":"Peru","name":"Huacachina","name_adm0":"Perú","name_adm1":"Ica","name_adm2":"Ica","name_en":"Huacachina"},"geometry":{"type":"Point","coordinates":[-75.76318,-14.08696]}},{"type":"feature","properties":{"country_en":"Peru","name":"Pando","name_adm0":"Perú","name_adm1":"Lima Metropolitan Area","name_adm2":"Lima","name_en":"Pando"},"geometry":{"type":"Point","coordinates":[-77.08333,-12.08333]}},{"type":"feature","properties":{"country_en":"Peru","name":"Pueblo Libre","name_adm0":"Perú","name_adm1":"Lima Metropolitan Area","name_adm2":"Lima","name_en":"Pueblo Libre"},"geometry":{"type":"Point","coordinates":[-77.14222,-11.47556]}},{"type":"feature","properties":{"country_en":"Peru","name":"Comas","name_adm0":"Perú","name_adm1":"Lima Metropolitan Area","name_adm2":"Lima","name_en":"Comas"},"geometry":{"type":"Point","coordinates":[-77.06667,-11.95]}},{"type":"feature","properties":{"country_en":"Peru","name":"Punchana","name_adm0":"Perú","name_adm1":"Loreto","name_adm2":"Maynas","name_en":"Punchana"},"geometry":{"type":"Point","coordinates":[-73.23333,-3.7166699999999997]}},{"type":"feature","properties":{"country_en":"Peru","name":"Yanahuara","name_adm0":"Perú","name_adm1":"Arequipa","name_adm2":"Arequipa","name_en":"Yanahuara"},"geometry":{"type":"Point","coordinates":[-71.1782,-16.79192]}},{"type":"feature","properties":{"country_en":"Peru","name":"Amazonas","name_adm0":"Perú","name_adm1":"Amazonas","name_en":"Amazonas"},"geometry":{"type":"Point","coordinates":[-78,-4.999999999999999]}},{"type":"feature","properties":{"country_en":"Peru","name":"Ancash","name_adm0":"Perú","name_adm1":"Ancash","name_en":"Ancash"},"geometry":{"type":"Point","coordinates":[-77.74999999999999,-9.5]}},{"type":"feature","properties":{"country_en":"Peru","name":"Apurímac","name_adm0":"Perú","name_adm1":"Apurímac","name_en":"Apurímac"},"geometry":{"type":"Point","coordinates":[-73,-14]}},{"type":"feature","properties":{"country_en":"Peru","name":"Ayacucho","name_adm0":"Perú","name_adm1":"Ayacucho","name_en":"Ayacucho"},"geometry":{"type":"Point","coordinates":[-74,-14]}},{"type":"feature","properties":{"country_en":"Peru","name":"Puno","name_adm0":"Perú","name_adm1":"Puno","name_adm2":"Puno","name_en":"Puno"},"geometry":{"type":"Point","coordinates":[-69.99999999999999,-16]}},{"type":"feature","properties":{"country_en":"Peru","name":"Moyobamba","name_adm0":"Perú","name_adm1":"San Martin","name_adm2":"Moyobamba","name_en":"Moyobamba"},"geometry":{"type":"Point","coordinates":[-76.978969,-6.024823]}},{"type":"feature","properties":{"country_en":"Peru","name":"Rímac","name_adm0":"Perú","name_adm1":"Madre de Dios","name_adm2":"Tambopata","name_en":"Rímac"},"geometry":{"type":"Point","coordinates":[-69.16985,-12.58824]}},{"type":"feature","properties":{"country_en":"Peru","name":"Nuena Esperanza","name_adm0":"Perú","name_adm1":"Lima Metropolitan Area","name_adm2":"Lima","name_en":"Nuena Esperanza"},"geometry":{"type":"Point","coordinates":[-76.91667,-12.16667]}},{"type":"feature","properties":{"country_en":"Peru","name":"Recuay","name_adm0":"Perú","name_adm1":"Ancash","name_adm2":"Recuay","name_en":"Recuay"},"geometry":{"type":"Point","coordinates":[-76.83446999999998,-9.77794]}},{"type":"feature","properties":{"country_en":"Peru","name":"Padre Abad","name_adm0":"Perú","name_adm1":"Ucayali","name_adm2":"Padre Abad","name_en":"Padre Abad"},"geometry":{"type":"Point","coordinates":[-75.4285,-8.7968]}},{"type":"feature","properties":{"country_en":"Peru","name":"Corongo","name_adm0":"Perú","name_adm1":"Ancash","name_adm2":"Corongo","name_en":"Corongo"},"geometry":{"type":"Point","coordinates":[-77.91667,-8.58333]}},{"type":"feature","properties":{"country_en":"Peru","name":"El Ingenio","name_adm0":"Perú","name_adm1":"Ica","name_adm2":"Nazca","name_en":"El Ingenio"},"geometry":{"type":"Point","coordinates":[-75.125155,-14.693833]}},{"type":"feature","properties":{"country_en":"Peru","name":"Andahuaylas","name_adm0":"Perú","name_adm1":"Apurímac","name_adm2":"Andahuaylas","name_en":"Andahuaylas"},"geometry":{"type":"Point","coordinates":[-73.4024045,-13.656329]}},{"type":"feature","properties":{"country_en":"Peru","name":"Hacienda Tunga","name_adm0":"Perú","name_adm1":"Ica","name_adm2":"Nazca","name_en":"Hacienda Tunga"},"geometry":{"type":"Point","coordinates":[-75.1156,-14.94374]}},{"type":"feature","properties":{"country_en":"Peru","name":"Huaura","name_adm0":"Perú","name_adm1":"Lima","name_adm2":"Huaura","name_en":"Huaura"},"geometry":{"type":"Point","coordinates":[-77.59944,-11.07]}},{"type":"feature","properties":{"country_en":"Peru","name":"Tacasayonipampa","name_adm0":"Perú","name_adm1":"Puno","name_adm2":"Puno","name_en":"Tacasayonipampa"},"geometry":{"type":"Point","coordinates":[-69.83333,-15.83333]}},{"type":"feature","properties":{"country_en":"Peru","name":"Achoma","name_adm0":"Perú","name_adm1":"Arequipa","name_adm2":"Caylloma","name_en":"Achoma"},"geometry":{"type":"Point","coordinates":[-71.37025999999999,-15.74711]}},{"type":"feature","properties":{"country_en":"Peru","name":"La Unión","name_adm0":"Perú","name_adm1":"Huánuco","name_adm2":"Lauricocha","name_en":"La Unión"},"geometry":{"type":"Point","coordinates":[-76.80199,-9.82702]}},{"type":"feature","properties":{"country_en":"Peru","name":"Mollendo","name_adm0":"Perú","name_adm1":"Arequipa","name_adm2":"Islay","name_en":"Mollendo"},"geometry":{"type":"Point","coordinates":[-72.01472,-17.02306]}},{"type":"feature","properties":{"country_en":"Peru","name":"San Pedro de Cajas","name_adm0":"Perú","name_adm1":"Junín","name_adm2":"Tarma","name_en":"San Pedro de Cajas"},"geometry":{"type":"Point","coordinates":[-75.86116,-11.25061]}},{"type":"feature","properties":{"country_en":"Peru","name":"Sunampe","name_adm0":"Perú","name_adm1":"Ica","name_adm2":"Chincha","name_en":"Sunampe"},"geometry":{"type":"Point","coordinates":[-75.70472,-14.10111]}},{"type":"feature","properties":{"country_en":"Peru","name":"Tambobamba","name_adm0":"Perú","name_adm1":"Apurímac","name_adm2":"Cotabambas","name_en":"Tambobamba"},"geometry":{"type":"Point","coordinates":[-73.57778,-14.065829999999998]}},{"type":"feature","properties":{"country_en":"Peru","name":"Tamshiyacu","name_adm0":"Perú","name_adm1":"Loreto","name_adm2":"Maynas","name_en":"Tamshiyacu"},"geometry":{"type":"Point","coordinates":[-73.15849999999999,-4.0032]}},{"type":"feature","properties":{"country_en":"Peru","name":"Tarica","name_adm0":"Perú","name_adm1":"Ancash","name_adm2":"Carhuaz","name_en":"Tarica"},"geometry":{"type":"Point","coordinates":[-77.75252,-8.60439]}},{"type":"feature","properties":{"country_en":"Peru","name":"Acomayo","name_adm0":"Perú","name_adm1":"Cusco","name_adm2":"Acomayo","name_en":"Acomayo"},"geometry":{"type":"Point","coordinates":[-71.43775,-14.39404]}},{"type":"feature","properties":{"country_en":"Peru","name":"Aguaytía","name_adm0":"Perú","name_adm1":"Ucayali","name_adm2":"Padre Abad","name_en":"Aguaytía"},"geometry":{"type":"Point","coordinates":[-75.50906,-9.03778]}},{"type":"feature","properties":{"country_en":"Peru","name":"Ambo","name_adm0":"Perú","name_adm1":"Huánuco","name_adm2":"Ambo","name_en":"Ambo"},"geometry":{"type":"Point","coordinates":[-75.86667,-9.95]}},{"type":"feature","properties":{"country_en":"Peru","name":"Huarmei","name_adm0":"Perú","name_adm1":"Ancash","name_adm2":"Huarmey","name_en":"Huarmei"},"geometry":{"type":"Point","coordinates":[-77.28333,-10.5]}},{"type":"feature","properties":{"country_en":"Peru","name":"Colcabamba","name_adm0":"Perú","name_adm1":"Huancavelica","name_adm2":"Tayacaja","name_en":"Colcabamba"},"geometry":{"type":"Point","coordinates":[-74.52416999999998,-11.48667]}},{"type":"feature","properties":{"country_en":"Peru","name":"Colpas","name_adm0":"Perú","name_adm1":"Huánuco","name_adm2":"Ambo","name_en":"Colpas"},"geometry":{"type":"Point","coordinates":[-76.64154,-9.504099999999998]}},{"type":"feature","properties":{"country_en":"Peru","name":"Cusca","name_adm0":"Perú","name_adm1":"Ancash","name_adm2":"Corongo","name_en":"Cusca"},"geometry":{"type":"Point","coordinates":[-77.86497999999999,-8.51056]}},{"type":"feature","properties":{"country_en":"Peru","name":"Huambo","name_adm0":"Perú","name_adm1":"Arequipa","name_adm2":"Caylloma","name_en":"Huambo"},"geometry":{"type":"Point","coordinates":[-72.85452,-15.612380000000002]}},{"type":"feature","properties":{"country_en":"Peru","name":"Huambos","name_adm0":"Perú","name_adm1":"Cajamarca","name_adm2":"Chota","name_en":"Huambos"},"geometry":{"type":"Point","coordinates":[-79.2171,-5.91444]}},{"type":"feature","properties":{"country_en":"Peru","name":"Lucanas","name_adm0":"Perú","name_adm1":"Ayacucho","name_adm2":"Lucanas","name_en":"Lucanas"},"geometry":{"type":"Point","coordinates":[-73.78297999999998,-14.57093]}},{"type":"feature","properties":{"country_en":"Peru","name":"Marcapata","name_adm0":"Perú","name_adm1":"Cusco","name_adm2":"Quispicanchi","name_en":"Marcapata"},"geometry":{"type":"Point","coordinates":[-71,-14.03333]}},{"type":"feature","properties":{"country_en":"Peru","name":"Santiago","name_adm0":"Perú","name_adm1":"Ica","name_adm2":"Ica","name_en":"Santiago"},"geometry":{"type":"Point","coordinates":[-75.71265,-14.18922]}},{"type":"feature","properties":{"country_en":"Peru","name":"Morococha","name_adm0":"Perú","name_adm1":"Junín","name_adm2":"Yauli","name_en":"Morococha"},"geometry":{"type":"Point","coordinates":[-76.60444,-10.84111]}},{"type":"feature","properties":{"country_en":"Peru","name":"Pacarán","name_adm0":"Perú","name_adm1":"Lima","name_adm2":"Cañete","name_en":"Pacarán"},"geometry":{"type":"Point","coordinates":[-76.05404,-12.866379999999998]}},{"type":"feature","properties":{"country_en":"Peru","name":"Mejía","name_adm0":"Perú","name_adm1":"Arequipa","name_adm2":"Islay","name_en":"Mejía"},"geometry":{"type":"Point","coordinates":[-71.90482,-17.10234]}},{"type":"feature","properties":{"country_en":"Peru","name":"Santa Isabel","name_adm0":"Perú","name_adm1":"Loreto","name_adm2":"Requena","name_en":"Santa Isabel"},"geometry":{"type":"Point","coordinates":[-74.76667,-6.01667]}},{"type":"feature","properties":{"country_en":"Peru","name":"Santa Rosa de Sacco","name_adm0":"Perú","name_adm1":"Junín","name_adm2":"Yauli","name_en":"Santa Rosa de Sacco"},"geometry":{"type":"Point","coordinates":[-75.94255,-11.55067]}},{"type":"feature","properties":{"country_en":"Peru","name":"Sarhua","name_adm0":"Perú","name_adm1":"Ayacucho","name_adm2":"Victor Fajardo","name_en":"Sarhua"},"geometry":{"type":"Point","coordinates":[-73.93333,-14.38777]}},{"type":"feature","properties":{"country_en":"Peru","name":"Tambo de Mora","name_adm0":"Perú","name_adm1":"Ica","name_adm2":"Chincha","name_en":"Tambo de Mora"},"geometry":{"type":"Point","coordinates":[-76.18249,-13.45858]}},{"type":"feature","properties":{"country_en":"Peru","name":"Tauca","name_adm0":"Perú","name_adm1":"Ancash","name_adm2":"Pallasca","name_en":"Tauca"},"geometry":{"type":"Point","coordinates":[-77.88306,-7.731389999999999]}},{"type":"feature","properties":{"country_en":"Peru","name":"Córdova","name_adm0":"Perú","name_adm1":"Ica","name_adm2":"Palpa","name_en":"Córdova"},"geometry":{"type":"Point","coordinates":[-75.1843,-14.03972]}},{"type":"feature","properties":{"country_en":"Peru","name":"Ite","name_adm0":"Perú","name_adm1":"Tacna","name_adm2":"Jorge Basadre","name_en":"Ite"},"geometry":{"type":"Point","coordinates":[-70.96471,-17.86186]}},{"type":"feature","properties":{"country_en":"Peru","name":"Zúñiga","name_adm0":"Perú","name_adm1":"Lima","name_adm2":"Cañete","name_en":"Zúñiga"},"geometry":{"type":"Point","coordinates":[-76.02375,-12.859999999999998]}},{"type":"feature","properties":{"country_en":"Peru","name":"Accha","name_adm0":"Perú","name_adm1":"Cusco","name_adm2":"Acomayo","name_en":"Accha"},"geometry":{"type":"Point","coordinates":[-71.26052,-14.25971]}},{"type":"feature","properties":{"country_en":"Peru","name":"Hacienda Huatiapa","name_adm0":"Perú","name_adm1":"Arequipa","name_adm2":"Castilla","name_en":"Hacienda Huatiapa"},"geometry":{"type":"Point","coordinates":[-72.46548,-15.96583]}},{"type":"feature","properties":{"country_en":"Peru","name":"Coalaque","name_adm0":"Perú","name_adm1":"Moquegua","name_adm2":"General Sánchez Cerro","name_en":"Coalaque"},"geometry":{"type":"Point","coordinates":[-70.73221,-16.09571]}},{"type":"feature","properties":{"country_en":"Peru","name":"Cochabamba","name_adm0":"Perú","name_adm1":"Cajamarca","name_adm2":"Chota","name_en":"Cochabamba"},"geometry":{"type":"Point","coordinates":[-78.29774,-6.77164]}},{"type":"feature","properties":{"country_en":"Peru","name":"Cochas","name_adm0":"Perú","name_adm1":"Junín","name_adm2":"Concepción","name_en":"Cochas"},"geometry":{"type":"Point","coordinates":[-75.80672999999999,-11.97182]}},{"type":"feature","properties":{"country_en":"Peru","name":"Lucma","name_adm0":"Perú","name_adm1":"Cusco","name_adm2":"La Convención","name_en":"Lucma"},"geometry":{"type":"Point","coordinates":[-72.76667,-13.033329999999998]}},{"type":"feature","properties":{"country_en":"Peru","name":"Huañec","name_adm0":"Perú","name_adm1":"Lima","name_adm2":"Yauyos","name_en":"Huañec"},"geometry":{"type":"Point","coordinates":[-76.13848,-12.29406]}},{"type":"feature","properties":{"country_en":"Peru","name":"Huántar","name_adm0":"Perú","name_adm1":"Ancash","name_adm2":"Huari","name_en":"Huántar"},"geometry":{"type":"Point","coordinates":[-77.17629,-9.45351]}},{"type":"feature","properties":{"country_en":"Peru","name":"Pachía","name_adm0":"Perú","name_adm1":"Tacna","name_adm2":"Tacna","name_en":"Pachía"},"geometry":{"type":"Point","coordinates":[-70.15496,-17.89793]}},{"type":"feature","properties":{"country_en":"Peru","name":"Orcopampa","name_adm0":"Perú","name_adm1":"Arequipa","name_adm2":"Castilla","name_en":"Orcopampa"},"geometry":{"type":"Point","coordinates":[-72.48333,-15.95806]}},{"type":"feature","properties":{"country_en":"Peru","name":"Paccha","name_adm0":"Perú","name_adm1":"Junín","name_adm2":"Yauli","name_en":"Paccha"},"geometry":{"type":"Point","coordinates":[-75.68719,-11.46469]}},{"type":"feature","properties":{"country_en":"Peru","name":"Paccho","name_adm0":"Perú","name_adm1":"Lima","name_adm2":"Huaura","name_en":"Paccho"},"geometry":{"type":"Point","coordinates":[-76.66472,-11.41139]}},{"type":"feature","properties":{"country_en":"Peru","name":"Paimas","name_adm0":"Perú","name_adm1":"Piura","name_adm2":"Ayabaca","name_en":"Paimas"},"geometry":{"type":"Point","coordinates":[-79.86668,-4.69172]}},{"type":"feature","properties":{"country_en":"Peru","name":"Paiján","name_adm0":"Perú","name_adm1":"La Libertad","name_adm2":"Ascope","name_en":"Paiján"},"geometry":{"type":"Point","coordinates":[-79.3015,-7.7329099999999995]}},{"type":"feature","properties":{"country_en":"Peru","name":"Calipuy","name_adm0":"Perú","name_adm1":"La Libertad","name_adm2":"Santiago de Chuco","name_en":"Calipuy"},"geometry":{"type":"Point","coordinates":[-78.21667,-8.36667]}},{"type":"feature","properties":{"country_en":"Peru","name":"Astobamba","name_adm0":"Perú","name_adm1":"Huancavelica","name_adm2":"Castrovirreyna","name_en":"Astobamba"},"geometry":{"type":"Point","coordinates":[-75.09346,-12.9484]}},{"type":"feature","properties":{"country_en":"Peru","name":"Mavila","name_adm0":"Perú","name_adm1":"Madre de Dios","name_adm2":"Tambopata","name_en":"Mavila"},"geometry":{"type":"Point","coordinates":[-69.11897,-11.93409]}},{"type":"feature","properties":{"country_en":"Peru","name":"Carmen","name_adm0":"Perú","name_adm1":"Ica","name_adm2":"Chincha","name_en":"Carmen"},"geometry":{"type":"Point","coordinates":[-76.25097,-13.8485]}},{"type":"feature","properties":{"country_en":"Peru","name":"Huánuco","name_adm0":"Perú","name_adm1":"Huánuco","name_adm2":"Huánuco","name_en":"Huánuco"},"geometry":{"type":"Point","coordinates":[-76.237735,-9.922184]}},{"type":"feature","properties":{"country_en":"Peru","name":"Pisco","name_adm0":"Perú","name_adm1":"Ica","name_adm2":"Pisco","name_en":"Pisco"},"geometry":{"type":"Point","coordinates":[-76.219024,-13.715538]}},{"type":"feature","properties":{"country_en":"Peru","name":"Corpac","name_adm0":"Perú","name_adm1":"Lima Metropolitan Area","name_adm2":"Lima","name_en":"Corpac"},"geometry":{"type":"Point","coordinates":[-77.019503,-12.099995]}},{"type":"feature","properties":{"country_en":"Peru","name":"Colca","name_adm0":"Perú","name_adm1":"Junín","name_adm2":"Huancayo","name_en":"Colca"},"geometry":{"type":"Point","coordinates":[-75.83864,-12.76325]}},{"type":"feature","properties":{"country_en":"Peru","name":"Cajamarca","name_adm0":"Perú","name_adm1":"Cajamarca","name_en":"Cajamarca"},"geometry":{"type":"Point","coordinates":[-78.83333,-6.25]}},{"type":"feature","properties":{"country_en":"Peru","name":"Provincia Constitucional del Callao","name_adm0":"Perú","name_adm1":"Provincia Constitucional del Callao","name_en":"Provincia Constitucional del Callao"},"geometry":{"type":"Point","coordinates":[-77.15,-12.066669999999998]}},{"type":"feature","properties":{"country_en":"Peru","name":"Huancavelica","name_adm0":"Perú","name_adm1":"Huancavelica","name_en":"Huancavelica"},"geometry":{"type":"Point","coordinates":[-75,-13]}},{"type":"feature","properties":{"country_en":"Peru","name":"Junín","name_adm0":"Perú","name_adm1":"Junín","name_en":"Junín"},"geometry":{"type":"Point","coordinates":[-75,-11.499999999999998]}},{"type":"feature","properties":{"country_en":"Peru","name":"Loreto","name_adm0":"Perú","name_adm1":"Loreto","name_en":"Loreto"},"geometry":{"type":"Point","coordinates":[-75,-4.999999999999999]}},{"type":"feature","properties":{"country_en":"Peru","name":"Pasco","name_adm0":"Perú","name_adm1":"Pasco","name_en":"Pasco"},"geometry":{"type":"Point","coordinates":[-75.25,-10.5]}},{"type":"feature","properties":{"country_en":"Peru","name":"Piura","name_adm0":"Perú","name_adm1":"Piura","name_en":"Piura"},"geometry":{"type":"Point","coordinates":[-80.33332999999999,-4.999999999999999]}},{"type":"feature","properties":{"country_en":"Peru","name":"Paucartambo","name_adm0":"Perú","name_adm1":"Cusco","name_adm2":"Paucartambo","name_en":"Paucartambo"},"geometry":{"type":"Point","coordinates":[-71.41667,-13.166669999999998]}},{"type":"feature","properties":{"country_en":"Peru","name":"Quispicanchi","name_adm0":"Perú","name_adm1":"Cusco","name_adm2":"Quispicanchi","name_en":"Quispicanchi"},"geometry":{"type":"Point","coordinates":[-71,-13.41667]}},{"type":"feature","properties":{"country_en":"Peru","name":"Recuay","name_adm0":"Perú","name_adm1":"Ancash","name_adm2":"Recuay","name_en":"Recuay"},"geometry":{"type":"Point","coordinates":[-77.41667,-9.999999999999998]}},{"type":"feature","properties":{"country_en":"Peru","name":"Santa","name_adm0":"Perú","name_adm1":"Ancash","name_adm2":"Santa","name_en":"Santa"},"geometry":{"type":"Point","coordinates":[-78.25,-9]}},{"type":"feature","properties":{"country_en":"Peru","name":"Castilla","name_adm0":"Perú","name_adm1":"Arequipa","name_adm2":"Castilla","name_en":"Castilla"},"geometry":{"type":"Point","coordinates":[-72.41667,-15.58333]}},{"type":"feature","properties":{"country_en":"Peru","name":"Lima","name_adm0":"Perú","name_adm1":"Lima Metropolitan Area","name_adm2":"Lima","name_en":"Lima"},"geometry":{"type":"Point","coordinates":[-77.067718,-12.051407999999999]}},{"type":"feature","properties":{"country_en":"Peru","name":"Lima Metropolitan Area","name_adm0":"Perú","name_adm1":"Lima Metropolitan Area","name_en":"Lima Metropolitan Area"},"geometry":{"type":"Point","coordinates":[-77.066345,-11.996338]}},{"type":"feature","properties":{"country_en":"Peru","name":"La Mar","name_adm0":"Perú","name_adm1":"Ayacucho","name_adm2":"La Mar","name_en":"La Mar"},"geometry":{"type":"Point","coordinates":[-73.83333,-12.91667]}},{"type":"feature","properties":{"country_en":"Peru","name":"Sachaca","name_adm0":"Perú","name_adm1":"Arequipa","name_adm2":"Arequipa","name_en":"Sachaca"},"geometry":{"type":"Point","coordinates":[-71.56592,-16.426599999999997]}},{"type":"feature","properties":{"country_en":"Peru","name":"Bellavista","name_adm0":"Perú","name_adm1":"Provincia Constitucional del Callao","name_adm2":"Provincia Constitucional del Callao","name_en":"Bellavista"},"geometry":{"type":"Point","coordinates":[-76.26639,-11.69083]}},{"type":"feature","properties":{"country_en":"Peru","name":"Jaén","name_adm0":"Perú","name_adm1":"Cajamarca","name_adm2":"Jaén","name_en":"Jaén"},"geometry":{"type":"Point","coordinates":[-78.80748,-5.709079999999999]}},{"type":"feature","properties":{"country_en":"Peru","name":"Chancay","name_adm0":"Perú","name_adm1":"Lima","name_adm2":"Huaral","name_en":"Chancay"},"geometry":{"type":"Point","coordinates":[-77.26722,-11.57139]}},{"type":"feature","properties":{"country_en":"Peru","name":"Huaral","name_adm0":"Perú","name_adm1":"Lima","name_adm2":"Huaral","name_en":"Huaral"},"geometry":{"type":"Point","coordinates":[-76.98333,-11.26667]}},{"type":"feature","properties":{"country_en":"Peru","name":"Chepén","name_adm0":"Perú","name_adm1":"La Libertad","name_adm2":"Chepén","name_en":"Chepén"},"geometry":{"type":"Point","coordinates":[-79.42599,-7.22884]}},{"type":"feature","properties":{"country_en":"Peru","name":"Huaytará","name_adm0":"Perú","name_adm1":"Huancavelica","name_adm2":"Huaytara","name_en":"Huaytará"},"geometry":{"type":"Point","coordinates":[-75.3529,-13.60442]}},{"type":"feature","properties":{"country_en":"Peru","name":"Ticapampa","name_adm0":"Perú","name_adm1":"Ancash","name_adm2":"Recuay","name_en":"Ticapampa"},"geometry":{"type":"Point","coordinates":[-76.58602,-9.66082]}},{"type":"feature","properties":{"country_en":"Peru","name":"Espinar","name_adm0":"Perú","name_adm1":"Cusco","name_adm2":"Espinar","name_en":"Espinar"},"geometry":{"type":"Point","coordinates":[-71.41667,-14.749999999999998]}},{"type":"feature","properties":{"country_en":"Peru","name":"Satipo","name_adm0":"Perú","name_adm1":"Junín","name_adm2":"Satipo","name_en":"Satipo"},"geometry":{"type":"Point","coordinates":[-74.111709,-11.303575]}},{"type":"feature","properties":{"country_en":"Peru","name":"Huancayo","name_adm0":"Perú","name_adm1":"Lima Metropolitan Area","name_adm2":"Lima","name_en":"Huancayo"},"geometry":{"type":"Point","coordinates":[-77.006864,-12.039404]}},{"type":"feature","properties":{"country_en":"Peru","name":"Catac","name_adm0":"Perú","name_adm1":"Ancash","name_adm2":"Recuay","name_en":"Catac"},"geometry":{"type":"Point","coordinates":[-77.13208,-10.13622]}},{"type":"feature","properties":{"country_en":"Peru","name":"San Bartolo","name_adm0":"Perú","name_adm1":"Amazonas","name_adm2":"Bongará","name_en":"San Bartolo"},"geometry":{"type":"Point","coordinates":[-77.87009999999998,-6.5387699999999995]}},{"type":"feature","properties":{"country_en":"Peru","name":"San Agustin","name_adm0":"Perú","name_adm1":"Loreto","name_adm2":"Maynas","name_en":"San Agustin"},"geometry":{"type":"Point","coordinates":[-72.22525,-3.51252]}},{"type":"feature","properties":{"country_en":"Peru","name":"Pira","name_adm0":"Perú","name_adm1":"Ancash","name_adm2":"Huaraz","name_en":"Pira"},"geometry":{"type":"Point","coordinates":[-78.37325999999999,-9.462259999999999]}},{"type":"feature","properties":{"country_en":"Peru","name":"La Vina","name_adm0":"Perú","name_adm1":"Lima Metropolitan Area","name_adm2":"Lima","name_en":"La Vina"},"geometry":{"type":"Point","coordinates":[-77.27722,-11.54944]}},{"type":"feature","properties":{"country_en":"Peru","name":"Barranco","name_adm0":"Perú","name_adm1":"Lima Metropolitan Area","name_adm2":"Lima","name_en":"Barranco"},"geometry":{"type":"Point","coordinates":[-76.6452,-12.63464]}},{"type":"feature","properties":{"country_en":"Peru","name":"Mauro","name_adm0":"Perú","name_adm1":"Lambayeque","name_adm2":"Ferreñafe","name_en":"Mauro"},"geometry":{"type":"Point","coordinates":[-79.77137,-6.55925]}},{"type":"feature","properties":{"country_en":"Peru","name":"Puesto de Frontera","name_adm0":"Perú","name_adm1":"Tacna","name_adm2":"Tacna","name_en":"Puesto de Frontera"},"geometry":{"type":"Point","coordinates":[-70.35,-18.2]}},{"type":"feature","properties":{"country_en":"Peru","name":"Rahuapampa","name_adm0":"Perú","name_adm1":"Ancash","name_adm2":"Huari","name_en":"Rahuapampa"},"geometry":{"type":"Point","coordinates":[-77.1008,-9.41037]}},{"type":"feature","properties":{"country_en":"Peru","name":"Puerto Lomas","name_adm0":"Perú","name_adm1":"Arequipa","name_adm2":"Caravelí","name_en":"Puerto Lomas"},"geometry":{"type":"Point","coordinates":[-74.85013999999998,-15.56867]}},{"type":"feature","properties":{"country_en":"Peru","name":"Jacaranda","name_adm0":"Perú","name_adm1":"Lima Metropolitan Area","name_adm2":"Lima","name_en":"Jacaranda"},"geometry":{"type":"Point","coordinates":[-76.99324899999999,-12.087331]}},{"type":"feature","properties":{"country_en":"Peru","name":"Tupac Amaru","name_adm0":"Perú","name_adm1":"Lima Metropolitan Area","name_adm2":"Lima","name_en":"Tupac Amaru"},"geometry":{"type":"Point","coordinates":[-77.007304,-12.086685999999998]}},{"type":"feature","properties":{"country_en":"Peru","name":"Balconcillo","name_adm0":"Perú","name_adm1":"Lima Metropolitan Area","name_adm2":"Lima","name_en":"Balconcillo"},"geometry":{"type":"Point","coordinates":[-77.022571,-12.076924]}},{"type":"feature","properties":{"country_en":"Peru","name":"Santa Beatre","name_adm0":"Perú","name_adm1":"Lima Metropolitan Area","name_adm2":"Lima","name_en":"Santa Beatre"},"geometry":{"type":"Point","coordinates":[-77.035639,-12.07029]}},{"type":"feature","properties":{"country_en":"Peru","name":"Yauyos","name_adm0":"Perú","name_adm1":"Lima","name_adm2":"Yauyos","name_en":"Yauyos"},"geometry":{"type":"Point","coordinates":[-76,-12.41667]}},{"type":"feature","properties":{"country_en":"Peru","name":"Ingenierie","name_adm0":"Perú","name_adm1":"Lima Metropolitan Area","name_adm2":"Lima","name_en":"Ingenierie"},"geometry":{"type":"Point","coordinates":[-77.049018,-12.019918]}},{"type":"feature","properties":{"country_en":"Peru","name":"27 de April","name_adm0":"Perú","name_adm1":"Lima Metropolitan Area","name_adm2":"Lima","name_en":"27 de April"},"geometry":{"type":"Point","coordinates":[-76.9541,-12.072874]}},{"type":"feature","properties":{"country_en":"Peru","name":"Remanso","name_adm0":"Perú","name_adm1":"Lima Metropolitan Area","name_adm2":"Lima","name_en":"Remanso"},"geometry":{"type":"Point","coordinates":[-76.96813299999998,-12.095304]}},{"type":"feature","properties":{"country_en":"Peru","name":"Nuevo Imperial","name_adm0":"Perú","name_adm1":"Lima","name_adm2":"Cañete","name_en":"Nuevo Imperial"},"geometry":{"type":"Point","coordinates":[-76.33378,-13.080648]}},{"type":"feature","properties":{"country_en":"Peru","name":"Pisac","name_adm0":"Perú","name_adm1":"Cusco","name_adm2":"Calca","name_en":"Pisac"},"geometry":{"type":"Point","coordinates":[-72.45972,-13.82222]}},{"type":"feature","properties":{"country_en":"Peru","name":"Mosec Llacta","name_adm0":"Perú","name_adm1":"Cusco","name_adm2":"Acomayo","name_en":"Mosec Llacta"},"geometry":{"type":"Point","coordinates":[-72.28333,-14]}},{"type":"feature","properties":{"country_en":"Peru","name":"Tomás","name_adm0":"Perú","name_adm1":"Lima","name_adm2":"Yauyos","name_en":"Tomas"},"geometry":{"type":"Point","coordinates":[-75.75884,-12.8352]}},{"type":"feature","properties":{"country_en":"Peru","name":"Chaucha","name_adm0":"Perú","name_adm1":"Junín","name_adm2":"Chupaca","name_en":"Chaucha"},"geometry":{"type":"Point","coordinates":[-75.63026,-12.22313]}},{"type":"feature","properties":{"country_en":"Peru","name":"Chiara","name_adm0":"Perú","name_adm1":"Ayacucho","name_adm2":"Huamanga","name_en":"Chiara"},"geometry":{"type":"Point","coordinates":[-73.76056,-13.35139]}},{"type":"feature","properties":{"country_en":"Peru","name":"San José de Sisa","name_adm0":"Perú","name_adm1":"San Martin","name_adm2":"El Dorado","name_en":"San José de Sisa"},"geometry":{"type":"Point","coordinates":[-76.69331999999999,-6.616]}},{"type":"feature","properties":{"country_en":"Peru","name":"Azángaro","name_adm0":"Perú","name_adm1":"Puno","name_adm2":"Azángaro","name_en":"Azángaro"},"geometry":{"type":"Point","coordinates":[-70.19616,-14.908429999999997]}},{"type":"feature","properties":{"country_en":"Peru","name":"Puente Pisana","name_adm0":"Perú","name_adm1":"San Martin","name_adm2":"Tocache","name_en":"Puente Pisana"},"geometry":{"type":"Point","coordinates":[-76.64736,-8.00833]}},{"type":"feature","properties":{"country_en":"Peru","name":"Juanjuí","name_adm0":"Perú","name_adm1":"San Martin","name_adm2":"Mariscal Cáceres","name_en":"Juanjuí"},"geometry":{"type":"Point","coordinates":[-76.72774,-7.176969999999999]}},{"type":"feature","properties":{"country_en":"Peru","name":"Angasmarca","name_adm0":"Perú","name_adm1":"La Libertad","name_adm2":"Santiago de Chuco","name_en":"Angasmarca"},"geometry":{"type":"Point","coordinates":[-78.52164,-7.85727]}},{"type":"feature","properties":{"country_en":"Peru","name":"Baños","name_adm0":"Perú","name_adm1":"Huánuco","name_adm2":"Lauricocha","name_en":"Baños"},"geometry":{"type":"Point","coordinates":[-77.25944,-10.14072]}},{"type":"feature","properties":{"country_en":"Peru","name":"Carhuamayo","name_adm0":"Perú","name_adm1":"Junín","name_adm2":"Junín","name_en":"Carhuamayo"},"geometry":{"type":"Point","coordinates":[-75.79472,-10.27444]}},{"type":"feature","properties":{"country_en":"Peru","name":"Castilla","name_adm0":"Perú","name_adm1":"Piura","name_adm2":"Piura","name_en":"Castilla"},"geometry":{"type":"Point","coordinates":[-80.61579,-5.22658]}},{"type":"feature","properties":{"country_en":"Peru","name":"La Pampa","name_adm0":"Perú","name_adm1":"Ancash","name_adm2":"Corongo","name_en":"La Pampa"},"geometry":{"type":"Point","coordinates":[-77.38555999999998,-8.12389]}},{"type":"feature","properties":{"country_en":"Peru","name":"Las Lomas","name_adm0":"Perú","name_adm1":"Piura","name_adm2":"Piura","name_en":"Las Lomas"},"geometry":{"type":"Point","coordinates":[-79.66564,-5.08654]}},{"type":"feature","properties":{"country_en":"Peru","name":"Llalli","name_adm0":"Perú","name_adm1":"Puno","name_adm2":"Melgar","name_en":"Llalli"},"geometry":{"type":"Point","coordinates":[-71.19806,-15.830560000000002]}},{"type":"feature","properties":{"country_en":"Peru","name":"Végueta","name_adm0":"Perú","name_adm1":"Lima","name_adm2":"Huaura","name_en":"Végueta"},"geometry":{"type":"Point","coordinates":[-77.64378,-11.02253]}},{"type":"feature","properties":{"country_en":"Peru","name":"Pucará","name_adm0":"Perú","name_adm1":"Cajamarca","name_adm2":"Jaén","name_en":"Pucará"},"geometry":{"type":"Point","coordinates":[-79.12916,-6.040769999999999]}},{"type":"feature","properties":{"country_en":"Peru","name":"Puica","name_adm0":"Perú","name_adm1":"Arequipa","name_adm2":"La Unión","name_en":"Puica"},"geometry":{"type":"Point","coordinates":[-72.59254,-15.68066]}},{"type":"feature","properties":{"country_en":"Peru","name":"Vilque","name_adm0":"Perú","name_adm1":"Puno","name_adm2":"Puno","name_en":"Vilque"},"geometry":{"type":"Point","coordinates":[-70.68991,-15.52419]}},{"type":"feature","properties":{"country_en":"Peru","name":"Yanacancha","name_adm0":"Perú","name_adm1":"Junín","name_adm2":"Chupaca","name_en":"Yanacancha"},"geometry":{"type":"Point","coordinates":[-75.02993,-11.74583]}},{"type":"feature","properties":{"country_en":"Peru","name":"Zaña","name_adm0":"Perú","name_adm1":"Lambayeque","name_adm2":"Chiclayo","name_en":"Zaña"},"geometry":{"type":"Point","coordinates":[-79.58384,-6.92315]}},{"type":"feature","properties":{"country_en":"Peru","name":"Carmen de la Legua","name_adm0":"Perú","name_adm1":"Provincia Constitucional del Callao","name_adm2":"Provincia Constitucional del Callao","name_en":"Carmen de la Legua"},"geometry":{"type":"Point","coordinates":[-77.097414,-12.052056]}},{"type":"feature","properties":{"country_en":"Peru","name":"Chimbote","name_adm0":"Perú","name_adm1":"Ancash","name_adm2":"Santa","name_en":"Chimbote"},"geometry":{"type":"Point","coordinates":[-78.596019,-9.075908]}},{"type":"feature","properties":{"country_en":"Peru","name":"Jesus Maria","name_adm0":"Perú","name_adm1":"Lima Metropolitan Area","name_adm2":"Lima","name_en":"Jesus Maria"},"geometry":{"type":"Point","coordinates":[-77.049247,-12.067691]}},{"type":"feature","properties":{"country_en":"Peru","name":"Brena","name_adm0":"Perú","name_adm1":"Lima Metropolitan Area","name_adm2":"Lima","name_en":"Brena"},"geometry":{"type":"Point","coordinates":[-77.049865,-12.06383]}},{"type":"feature","properties":{"country_en":"Peru","name":"Juli","name_adm0":"Perú","name_adm1":"Puno","name_adm2":"Chucuíto","name_en":"Juli"},"geometry":{"type":"Point","coordinates":[-69.458831,-16.213687]}},{"type":"feature","properties":{"country_en":"Peru","name":"Huachis","name_adm0":"Perú","name_adm1":"Ancash","name_adm2":"Huari","name_en":"Huachis"},"geometry":{"type":"Point","coordinates":[-77.28762,-8.44148]}},{"type":"feature","properties":{"country_en":"Peru","name":"Saysa","name_adm0":"Perú","name_adm1":"Ayacucho","name_adm2":"Lucanas","name_en":"Saysa"},"geometry":{"type":"Point","coordinates":[-74.41639,-14.93972]}},{"type":"feature","properties":{"country_en":"Peru","name":"Esperanza","name_adm0":"Perú","name_adm1":"Ucayali","name_adm2":"Purús","name_en":"Esperanza"},"geometry":{"type":"Point","coordinates":[-74.88215,-9.25952]}},{"type":"feature","properties":{"country_en":"Peru","name":"Concepción","name_adm0":"Perú","name_adm1":"Ayacucho","name_adm2":"Vilcas Huamán","name_en":"Concepción"},"geometry":{"type":"Point","coordinates":[-73.87488,-13.532769999999998]}},{"type":"feature","properties":{"country_en":"Peru","name":"Lambrama","name_adm0":"Perú","name_adm1":"Apurímac","name_adm2":"Abancay","name_en":"Lambrama"},"geometry":{"type":"Point","coordinates":[-72.77174,-13.87234]}},{"type":"feature","properties":{"country_en":"Peru","name":"Querco","name_adm0":"Perú","name_adm1":"Huancavelica","name_adm2":"Huaytara","name_en":"Querco"},"geometry":{"type":"Point","coordinates":[-74.9,-13.833329999999998]}},{"type":"feature","properties":{"country_en":"Peru","name":"Queropalca","name_adm0":"Perú","name_adm1":"Huánuco","name_adm2":"Lauricocha","name_en":"Queropalca"},"geometry":{"type":"Point","coordinates":[-76.77127,-9.44953]}},{"type":"feature","properties":{"country_en":"Peru","name":"Tingo de Ponasa","name_adm0":"Perú","name_adm1":"San Martin","name_adm2":"Picota","name_en":"Tingo de Ponasa"},"geometry":{"type":"Point","coordinates":[-76.25355,-6.93584]}},{"type":"feature","properties":{"country_en":"Peru","name":"Vidal","name_adm0":"Perú","name_adm1":"Loreto","name_adm2":"Maynas","name_en":"Vidal"},"geometry":{"type":"Point","coordinates":[-73.56667,-2.58333]}},{"type":"feature","properties":{"country_en":"Peru","name":"Sector Ii","name_adm0":"Perú","name_adm1":"Lima Metropolitan Area","name_adm2":"Lima","name_en":"Sector Ii"},"geometry":{"type":"Point","coordinates":[-76.956481,-12.208495]}},{"type":"feature","properties":{"country_en":"Peru","name":"Mollebamba","name_adm0":"Perú","name_adm1":"Apurímac","name_adm2":"Antabamba","name_en":"Mollebamba"},"geometry":{"type":"Point","coordinates":[-72.51667,-13.8]}},{"type":"feature","properties":{"country_en":"Peru","name":"San José","name_adm0":"Perú","name_adm1":"Lambayeque","name_adm2":"Lambayeque","name_en":"San José"},"geometry":{"type":"Point","coordinates":[-79.82934,-6.74265]}},{"type":"feature","properties":{"country_en":"Peru","name":"San Antonio de Rancas","name_adm0":"Perú","name_adm1":"Pasco","name_adm2":"Pasco","name_en":"San Antonio de Rancas"},"geometry":{"type":"Point","coordinates":[-76.24901,-10.68722]}},{"type":"feature","properties":{"country_en":"Peru","name":"Falla","name_adm0":"Perú","name_adm1":"Lambayeque","name_adm2":"Lambayeque","name_en":"Falla"},"geometry":{"type":"Point","coordinates":[-79.87203,-5.746089999999999]}},{"type":"feature","properties":{"country_en":"Peru","name":"Huancarama","name_adm0":"Perú","name_adm1":"Apurímac","name_adm2":"Andahuaylas","name_en":"Huancarama"},"geometry":{"type":"Point","coordinates":[-73.09667,-13.89917]}},{"type":"feature","properties":{"country_en":"Peru","name":"San Francisco","name_adm0":"Perú","name_adm1":"Ucayali","name_adm2":"Coronel Portillo","name_en":"San Francisco"},"geometry":{"type":"Point","coordinates":[-74.74891,-7.906969999999999]}},{"type":"feature","properties":{"country_en":"Peru","name":"Nuevo París","name_adm0":"Perú","name_adm1":"Ucayali","name_adm2":"Coronel Portillo","name_en":"Nuevo París"},"geometry":{"type":"Point","coordinates":[-74.58333,-8.25]}},{"type":"feature","properties":{"country_en":"Peru","name":"Naranjal","name_adm0":"Perú","name_adm1":"Ucayali","name_adm2":"Coronel Portillo","name_en":"Naranjal"},"geometry":{"type":"Point","coordinates":[-74.75,-8.1]}},{"type":"feature","properties":{"country_en":"Peru","name":"Capachico","name_adm0":"Perú","name_adm1":"Puno","name_adm2":"Puno","name_en":"Capachico"},"geometry":{"type":"Point","coordinates":[-70.20174,-15.186289999999998]}},{"type":"feature","properties":{"country_en":"Peru","name":"El Agustino","name_adm0":"Perú","name_adm1":"Lima Metropolitan Area","name_adm2":"Lima","name_en":"El Agustino"},"geometry":{"type":"Point","coordinates":[-77.00052,-12.04692]}},{"type":"feature","properties":{"country_en":"Peru","name":"Zamacola","name_adm0":"Perú","name_adm1":"Arequipa","name_adm2":"Arequipa","name_en":"Zamacola"},"geometry":{"type":"Point","coordinates":[-71.55455999999998,-16.34756]}},{"type":"feature","properties":{"country_en":"Peru","name":"Ayacucho","name_adm0":"Perú","name_adm1":"Ayacucho","name_adm2":"Huamanga","name_en":"Ayacucho"},"geometry":{"type":"Point","coordinates":[-74.87695,-13.21423]}},{"type":"feature","properties":{"country_en":"Peru","name":"Socabaya","name_adm0":"Perú","name_adm1":"Arequipa","name_adm2":"Arequipa","name_en":"Socabaya"},"geometry":{"type":"Point","coordinates":[-70.98198999999998,-16.68398]}},{"type":"feature","properties":{"country_en":"Peru","name":"Rondocán","name_adm0":"Perú","name_adm1":"Cusco","name_adm2":"Acomayo","name_en":"Rondocán"},"geometry":{"type":"Point","coordinates":[-71.78186,-13.77679]}},{"type":"feature","properties":{"country_en":"Peru","name":"Shilla","name_adm0":"Perú","name_adm1":"Ancash","name_adm2":"Carhuaz","name_en":"Shilla"},"geometry":{"type":"Point","coordinates":[-76.86689,-9.47532]}},{"type":"feature","properties":{"country_en":"Peru","name":"Shintuya","name_adm0":"Perú","name_adm1":"Madre de Dios","name_adm2":"Manu","name_en":"Shintuya"},"geometry":{"type":"Point","coordinates":[-71.29651,-12.6673]}},{"type":"feature","properties":{"country_en":"Peru","name":"Tamarindo","name_adm0":"Perú","name_adm1":"Piura","name_adm2":"Paita","name_en":"Tamarindo"},"geometry":{"type":"Point","coordinates":[-80.74115,-5.35721]}},{"type":"feature","properties":{"country_en":"Peru","name":"San Filipe","name_adm0":"Perú","name_adm1":"Lima Metropolitan Area","name_adm2":"Lima","name_en":"San Filipe"},"geometry":{"type":"Point","coordinates":[-77.037431,-11.900957]}},{"type":"feature","properties":{"country_en":"Peru","name":"Rinconada Alta","name_adm0":"Perú","name_adm1":"Lima Metropolitan Area","name_adm2":"Lima","name_en":"Rinconada Alta"},"geometry":{"type":"Point","coordinates":[-76.937116,-12.063237]}},{"type":"feature","properties":{"country_en":"Peru","name":"Cuidad del Pescador","name_adm0":"Perú","name_adm1":"Provincia Constitucional del Callao","name_adm2":"Provincia Constitucional del Callao","name_en":"Cuidad del Pescador"},"geometry":{"type":"Point","coordinates":[-77.119903,-12.060787999999999]}},{"type":"feature","properties":{"country_en":"Peru","name":"La Chalaca","name_adm0":"Perú","name_adm1":"Provincia Constitucional del Callao","name_adm2":"Provincia Constitucional del Callao","name_en":"La Chalaca"},"geometry":{"type":"Point","coordinates":[-77.141844,-12.0510135]}},{"type":"feature","properties":{"country_en":"Peru","name":"Jangas","name_adm0":"Perú","name_adm1":"Ancash","name_adm2":"Carhuaz","name_en":"Jangas"},"geometry":{"type":"Point","coordinates":[-77.593002,-9.377596]}},{"type":"feature","properties":{"country_en":"Peru","name":"Cuenca","name_adm0":"Perú","name_adm1":"Huancavelica","name_adm2":"Huancavelica","name_en":"Cuenca"},"geometry":{"type":"Point","coordinates":[-75.91222,-12.47861]}},{"type":"feature","properties":{"country_en":"Peru","name":"Cuzco","name_adm0":"Perú","name_adm1":"San Martin","name_adm2":"Bellavista","name_en":"Cuzco"},"geometry":{"type":"Point","coordinates":[-76.46667,-6.98333]}},{"type":"feature","properties":{"country_en":"Peru","name":"Echarate","name_adm0":"Perú","name_adm1":"Cusco","name_adm2":"La Convención","name_en":"Echarate"},"geometry":{"type":"Point","coordinates":[-72.57793,-12.76861]}},{"type":"feature","properties":{"country_en":"Peru","name":"Flor de Punga","name_adm0":"Perú","name_adm1":"Loreto","name_adm2":"Requena","name_en":"Flor de Punga"},"geometry":{"type":"Point","coordinates":[-74.15862,-5.40746]}},{"type":"feature","properties":{"country_en":"Peru","name":"Florida","name_adm0":"Perú","name_adm1":"Amazonas","name_adm2":"Bongará","name_en":"Florida"},"geometry":{"type":"Point","coordinates":[-77.96961,-5.82582]}},{"type":"feature","properties":{"country_en":"Peru","name":"Francisco de Orellana","name_adm0":"Perú","name_adm1":"Loreto","name_adm2":"Maynas","name_en":"Francisco de Orellana"},"geometry":{"type":"Point","coordinates":[-72.76418,-3.41802]}},{"type":"feature","properties":{"country_en":"Peru","name":"Sucre","name_adm0":"Perú","name_adm1":"Cajamarca","name_adm2":"Celendín","name_en":"Sucre"},"geometry":{"type":"Point","coordinates":[-79.13011,-7.06356]}},{"type":"feature","properties":{"country_en":"Peru","name":"Suitucancha","name_adm0":"Perú","name_adm1":"Junín","name_adm2":"Yauli","name_en":"Suitucancha"},"geometry":{"type":"Point","coordinates":[-75.87473,-11.18284]}},{"type":"feature","properties":{"country_en":"Peru","name":"Ticllos","name_adm0":"Perú","name_adm1":"Ancash","name_adm2":"Bolognesi","name_en":"Ticllos"},"geometry":{"type":"Point","coordinates":[-76.51898,-9.94465]}},{"type":"feature","properties":{"country_en":"Peru","name":"Toroya","name_adm0":"Perú","name_adm1":"Apurímac","name_adm2":"Aymaraes","name_en":"Toroya"},"geometry":{"type":"Point","coordinates":[-73.85208,-13.30843]}},{"type":"feature","properties":{"country_en":"Peru","name":"Tuna","name_adm0":"Perú","name_adm1":"Lima","name_adm2":"Huarochiri","name_en":"Tuna"},"geometry":{"type":"Point","coordinates":[-76.14556,-11.98583]}},{"type":"feature","properties":{"country_en":"Peru","name":"Uripa","name_adm0":"Perú","name_adm1":"Apurímac","name_adm2":"Chincheros","name_en":"Uripa"},"geometry":{"type":"Point","coordinates":[-73.88481,-13.84236]}},{"type":"feature","properties":{"country_en":"Peru","name":"San Pablo","name_adm0":"Perú","name_adm1":"Ucayali","name_adm2":"Atalaya","name_en":"San Pablo"},"geometry":{"type":"Point","coordinates":[-73.84262,-10.66259]}},{"type":"feature","properties":{"country_en":"Peru","name":"Santa","name_adm0":"Perú","name_adm1":"Ancash","name_adm2":"Santa","name_en":"Santa"},"geometry":{"type":"Point","coordinates":[-78.07368,-9.24937]}},{"type":"feature","properties":{"country_en":"Peru","name":"Moho","name_adm0":"Perú","name_adm1":"Puno","name_adm2":"Moho Moho","name_en":"Moho"},"geometry":{"type":"Point","coordinates":[-69.492337,-15.380478]}},{"type":"feature","properties":{"country_en":"Peru","name":"Limatambo","name_adm0":"Perú","name_adm1":"Cusco","name_adm2":"Anta","name_en":"Limatambo"},"geometry":{"type":"Point","coordinates":[-72.436981,-13.469429999999997]}},{"type":"feature","properties":{"country_en":"Peru","name":"Marañón","name_adm0":"Perú","name_adm1":"Huánuco","name_adm2":"Marañón","name_en":"Marañón"},"geometry":{"type":"Point","coordinates":[-75.985565,-9.18134]}},{"type":"feature","properties":{"country_en":"Peru","name":"Gualan","name_adm0":"Perú","name_adm1":"Cajamarca","name_adm2":"Celendín","name_en":"Gualan"},"geometry":{"type":"Point","coordinates":[-78.48269999999998,-6.661]}},{"type":"feature","properties":{"country_en":"Peru","name":"Ongos","name_adm0":"Perú","name_adm1":"Lima","name_adm2":"Yauyos","name_en":"Ongos"},"geometry":{"type":"Point","coordinates":[-74.98333,-12.28333]}},{"type":"feature","properties":{"country_en":"Peru","name":"San Miguel","name_adm0":"Perú","name_adm1":"Cajamarca","name_adm2":"San Miguel","name_en":"San Miguel"},"geometry":{"type":"Point","coordinates":[-78.574218,-7.122696]}},{"type":"feature","properties":{"country_en":"Peru","name":"El Alto","name_adm0":"Perú","name_adm1":"Piura","name_adm2":"Talara","name_en":"El Alto"},"geometry":{"type":"Point","coordinates":[-81.21719,-4.26851]}},{"type":"feature","properties":{"country_en":"Peru","name":"Acarí","name_adm0":"Perú","name_adm1":"Arequipa","name_adm2":"Caravelí","name_en":"Acarí"},"geometry":{"type":"Point","coordinates":[-74.61552,-15.430919999999999]}},{"type":"feature","properties":{"country_en":"Peru","name":"San Román","name_adm0":"Perú","name_adm1":"Puno","name_adm2":"San Román","name_en":"San Román"},"geometry":{"type":"Point","coordinates":[-70.147705,-15.628326]}},{"type":"feature","properties":{"country_en":"Peru","name":"La Yapana","name_adm0":"Perú","name_adm1":"Ica","name_adm2":"Nazca","name_en":"La Yapana"},"geometry":{"type":"Point","coordinates":[-74.9,-14.500000000000002]}},{"type":"feature","properties":{"country_en":"Peru","name":"San Miguel de Cauri","name_adm0":"Perú","name_adm1":"Huánuco","name_adm2":"Lauricocha","name_en":"San Miguel de Cauri"},"geometry":{"type":"Point","coordinates":[-76.62287999999998,-10.13818]}},{"type":"feature","properties":{"country_en":"Peru","name":"Sabeti","name_adm0":"Perú","name_adm1":"Cusco","name_adm2":"La Convención","name_en":"Sabeti"},"geometry":{"type":"Point","coordinates":[-72.96666999999998,-11.649999999999999]}},{"type":"feature","properties":{"country_en":"Peru","name":"Chavinillo","name_adm0":"Perú","name_adm1":"Huánuco","name_adm2":"Yarowilca","name_en":"Chavinillo"},"geometry":{"type":"Point","coordinates":[-76.90588,-10.562399999999998]}},{"type":"feature","properties":{"country_en":"Peru","name":"Cachicadán","name_adm0":"Perú","name_adm1":"La Libertad","name_adm2":"Santiago de Chuco","name_en":"Cachicadán"},"geometry":{"type":"Point","coordinates":[-78.15054,-8.094169999999998]}},{"type":"feature","properties":{"country_en":"Peru","name":"Sallique","name_adm0":"Perú","name_adm1":"Cajamarca","name_adm2":"Jaén","name_en":"Sallique"},"geometry":{"type":"Point","coordinates":[-79.31333,-5.655]}},{"type":"feature","properties":{"country_en":"Peru","name":"Mocco","name_adm0":"Perú","name_adm1":"Puno","name_adm2":"Lampa","name_en":"Mocco"},"geometry":{"type":"Point","coordinates":[-70.33332999999999,-15.266669999999998]}},{"type":"feature","properties":{"country_en":"Peru","name":"Rosapata","name_adm0":"Perú","name_adm1":"Puno","name_adm2":"Huancane","name_en":"Rosapata"},"geometry":{"type":"Point","coordinates":[-69.53333,-15.21667]}},{"type":"feature","properties":{"country_en":"Peru","name":"Laredo","name_adm0":"Perú","name_adm1":"La Libertad","name_adm2":"Trujillo","name_en":"Laredo"},"geometry":{"type":"Point","coordinates":[-78.9602,-8.08965]}},{"type":"feature","properties":{"country_en":"Peru","name":"Máncora Hacienda","name_adm0":"Perú","name_adm1":"Piura","name_adm2":"Talara","name_en":"Máncora Hacienda"},"geometry":{"type":"Point","coordinates":[-81.034469,-4.095609]}},{"type":"feature","properties":{"country_en":"Peru","name":"Santa Ana","name_adm0":"Perú","name_adm1":"Cusco","name_adm2":"La Convención","name_en":"Santa Ana"},"geometry":{"type":"Point","coordinates":[-72.71667,-12.86667]}},{"type":"feature","properties":{"country_en":"Peru","name":"Pichacane","name_adm0":"Perú","name_adm1":"Puno","name_adm2":"Puno","name_en":"Pichacane"},"geometry":{"type":"Point","coordinates":[-70.32203,-15.19766]}},{"type":"feature","properties":{"country_en":"Peru","name":"Virú","name_adm0":"Perú","name_adm1":"La Libertad","name_adm2":"Viru","name_en":"Virú"},"geometry":{"type":"Point","coordinates":[-78.75201,-8.41554]}},{"type":"feature","properties":{"country_en":"Peru","name":"Santiago de Chuco","name_adm0":"Perú","name_adm1":"La Libertad","name_adm2":"Santiago de Chuco","name_en":"Santiago de Chuco"},"geometry":{"type":"Point","coordinates":[-78.1733,-8.14099]}},{"type":"feature","properties":{"country_en":"Peru","name":"Supe","name_adm0":"Perú","name_adm1":"Lima","name_adm2":"Barranca","name_en":"Supe"},"geometry":{"type":"Point","coordinates":[-77.71306,-10.797499999999998]}},{"type":"feature","properties":{"country_en":"Peru","name":"Río Grande","name_adm0":"Perú","name_adm1":"Ica","name_adm2":"Palpa","name_en":"Río Grande"},"geometry":{"type":"Point","coordinates":[-75.20139,-14.51972]}},{"type":"feature","properties":{"country_en":"Peru","name":"Ricardo Palma","name_adm0":"Perú","name_adm1":"Lima","name_adm2":"Huarochiri","name_en":"Ricardo Palma"},"geometry":{"type":"Point","coordinates":[-76.66722,-11.918229999999998]}},{"type":"feature","properties":{"country_en":"Peru","name":"Alca","name_adm0":"Perú","name_adm1":"Arequipa","name_adm2":"La Unión","name_en":"Alca"},"geometry":{"type":"Point","coordinates":[-72.17861,-15.18111]}},{"type":"feature","properties":{"country_en":"Peru","name":"Callao","name_adm0":"Perú","name_adm1":"Provincia Constitucional del Callao","name_adm2":"Provincia Constitucional del Callao","name_en":"Callao"},"geometry":{"type":"Point","coordinates":[-77.11814,-12.05658]}},{"type":"feature","properties":{"country_en":"Peru","name":"Huancapi","name_adm0":"Perú","name_adm1":"Ayacucho","name_adm2":"Victor Fajardo","name_en":"Huancapi"},"geometry":{"type":"Point","coordinates":[-74.06667,-13.68333]}},{"type":"feature","properties":{"country_en":"Peru","name":"Huanchay","name_adm0":"Perú","name_adm1":"Ancash","name_adm2":"Ocros","name_en":"Huanchay"},"geometry":{"type":"Point","coordinates":[-77.42106,-10.53494]}},{"type":"feature","properties":{"country_en":"Peru","name":"Laclla","name_adm0":"Perú","name_adm1":"Ancash","name_adm2":"Ocros","name_en":"Laclla"},"geometry":{"type":"Point","coordinates":[-77.525,-9.45917]}},{"type":"feature","properties":{"country_en":"Peru","name":"Lagunas","name_adm0":"Perú","name_adm1":"Piura","name_adm2":"Ayabaca","name_en":"Lagunas"},"geometry":{"type":"Point","coordinates":[-79.54131,-4.69929]}},{"type":"feature","properties":{"country_en":"Peru","name":"Las Hormigas","name_adm0":"Perú","name_adm1":"Madre de Dios","name_adm2":"Tambopata","name_en":"Las Hormigas"},"geometry":{"type":"Point","coordinates":[-69.89999999999999,-12.76667]}},{"type":"feature","properties":{"country_en":"Peru","name":"Luricocha","name_adm0":"Perú","name_adm1":"Ayacucho","name_adm2":"Huanta","name_en":"Luricocha"},"geometry":{"type":"Point","coordinates":[-73.65972,-13.15583]}},{"type":"feature","properties":{"country_en":"Peru","name":"Trismaje","name_adm0":"Perú","name_adm1":"San Martin","name_adm2":"Tocache","name_en":"Trismaje"},"geometry":{"type":"Point","coordinates":[-76.48333,-8.6]}},{"type":"feature","properties":{"country_en":"Peru","name":"Panao","name_adm0":"Perú","name_adm1":"Huánuco","name_adm2":"Pachitea","name_en":"Panao"},"geometry":{"type":"Point","coordinates":[-76.1065,-10.41379]}},{"type":"feature","properties":{"country_en":"Peru","name":"Bambamarca","name_adm0":"Perú","name_adm1":"La Libertad","name_adm2":"Bolívar","name_en":"Bambamarca"},"geometry":{"type":"Point","coordinates":[-77.69349,-7.440619999999999]}},{"type":"feature","properties":{"country_en":"Peru","name":"Catache","name_adm0":"Perú","name_adm1":"Cajamarca","name_adm2":"Santa Cruz","name_en":"Catache"},"geometry":{"type":"Point","coordinates":[-79.3,-6.55]}},{"type":"feature","properties":{"country_en":"Peru","name":"Cayarani","name_adm0":"Perú","name_adm1":"Arequipa","name_adm2":"Condesuyos","name_en":"Cayarani"},"geometry":{"type":"Point","coordinates":[-72.43944,-15.255]}},{"type":"feature","properties":{"country_en":"Peru","name":"El Eslabón","name_adm0":"Perú","name_adm1":"San Martin","name_adm2":"Huallaga","name_en":"El Eslabón"},"geometry":{"type":"Point","coordinates":[-76.72216,-7.0224899999999995]}},{"type":"feature","properties":{"country_en":"Peru","name":"Lucre","name_adm0":"Perú","name_adm1":"Apurímac","name_adm2":"Aymaraes","name_en":"Lucre"},"geometry":{"type":"Point","coordinates":[-73.0946,-13.63933]}},{"type":"feature","properties":{"country_en":"Peru","name":"Macari","name_adm0":"Perú","name_adm1":"Puno","name_adm2":"Melgar","name_en":"Macari"},"geometry":{"type":"Point","coordinates":[-71.18289,-14.343519999999998]}},{"type":"feature","properties":{"country_en":"Peru","name":"Mache","name_adm0":"Perú","name_adm1":"La Libertad","name_adm2":"Otuzco","name_en":"Mache"},"geometry":{"type":"Point","coordinates":[-79.19130999999999,-7.7265999999999995]}},{"type":"feature","properties":{"country_en":"Peru","name":"Mamara","name_adm0":"Perú","name_adm1":"Apurímac","name_adm2":"Grau","name_en":"Mamara"},"geometry":{"type":"Point","coordinates":[-72.91666999999998,-14.350000000000001]}},{"type":"feature","properties":{"country_en":"Peru","name":"Ninacaca","name_adm0":"Perú","name_adm1":"Junín","name_adm2":"Junín","name_en":"Ninacaca"},"geometry":{"type":"Point","coordinates":[-76.62389,-10.31722]}},{"type":"feature","properties":{"country_en":"Peru","name":"Salamanca","name_adm0":"Perú","name_adm1":"Arequipa","name_adm2":"Condesuyos","name_en":"Salamanca"},"geometry":{"type":"Point","coordinates":[-72.82972,-15.5025]}},{"type":"feature","properties":{"country_en":"Peru","name":"Camisea","name_adm0":"Perú","name_adm1":"Cusco","name_adm2":"La Convención","name_en":"Camisea"},"geometry":{"type":"Point","coordinates":[-72.94541,-11.71728]}},{"type":"feature","properties":{"country_en":"Peru","name":"Chileta","name_adm0":"Perú","name_adm1":"Cajamarca","name_adm2":"Contumazá","name_en":"Chileta"},"geometry":{"type":"Point","coordinates":[-78.445,-6.7441699999999996]}},{"type":"feature","properties":{"country_en":"Peru","name":"Lima","name_adm0":"Perú","name_adm1":"Lima","name_en":"Lima"},"geometry":{"type":"Point","coordinates":[-76.45,-11.85]}},{"type":"feature","properties":{"country_en":"Peru","name":"Olaya","name_adm0":"Perú","name_adm1":"Provincia Constitucional del Callao","name_adm2":"Provincia Constitucional del Callao","name_en":"Olaya"},"geometry":{"type":"Point","coordinates":[-77.09375,-12.030883]}},{"type":"feature","properties":{"country_en":"Peru","name":"Copal","name_adm0":"Perú","name_adm1":"Loreto","name_adm2":"Loreto","name_en":"Copal"},"geometry":{"type":"Point","coordinates":[-75.33414,-3.71102]}},{"type":"feature","properties":{"country_en":"Peru","name":"Querobamba","name_adm0":"Perú","name_adm1":"Ayacucho","name_adm2":"Victor Fajardo","name_en":"Querobamba"},"geometry":{"type":"Point","coordinates":[-73.83333,-13.866669999999997]}},{"type":"feature","properties":{"country_en":"Peru","name":"San Miguel de Pallaques","name_adm0":"Perú","name_adm1":"Cajamarca","name_adm2":"San Miguel","name_en":"San Miguel de Pallaques"},"geometry":{"type":"Point","coordinates":[-78.8521,-7.00219]}},{"type":"feature","properties":{"country_en":"Peru","name":"Huancaspata","name_adm0":"Perú","name_adm1":"Huánuco","name_adm2":"Marañón","name_en":"Huancaspata"},"geometry":{"type":"Point","coordinates":[-76.49775999999999,-9.839699999999999]}},{"type":"feature","properties":{"country_en":"Peru","name":"Ranracocha","name_adm0":"Perú","name_adm1":"Huánuco","name_adm2":"Lauricocha","name_en":"Ranracocha"},"geometry":{"type":"Point","coordinates":[-76.02456,-9.853779999999999]}},{"type":"feature","properties":{"country_en":"Peru","name":"Tambo","name_adm0":"Perú","name_adm1":"Ayacucho","name_adm2":"La Mar","name_en":"Tambo"},"geometry":{"type":"Point","coordinates":[-74.06667,-13.26667]}},{"type":"feature","properties":{"country_en":"Peru","name":"Huascar","name_adm0":"Perú","name_adm1":"Lima Metropolitan Area","name_adm2":"Lima","name_en":"Huascar"},"geometry":{"type":"Point","coordinates":[-76.61972,-11.20667]}},{"type":"feature","properties":{"country_en":"Peru","name":"Chachapoyas","name_adm0":"Perú","name_adm1":"Amazonas","name_adm2":"Chachapoyas","name_en":"Chachapoyas"},"geometry":{"type":"Point","coordinates":[-77.87178,-6.231176]}},{"type":"feature","properties":{"country_en":"Peru","name":"El Carmen","name_adm0":"Perú","name_adm1":"Ica","name_adm2":"Chincha","name_en":"El Carmen"},"geometry":{"type":"Point","coordinates":[-76.05723999999998,-13.49714]}},{"type":"feature","properties":{"country_en":"Peru","name":"Churín","name_adm0":"Perú","name_adm1":"Lima","name_adm2":"Oyon","name_en":"Churín"},"geometry":{"type":"Point","coordinates":[-76.88059,-10.80385]}},{"type":"feature","properties":{"country_en":"Peru","name":"Collonce","name_adm0":"Perú","name_adm1":"Amazonas","name_adm2":"Luya","name_en":"Collonce"},"geometry":{"type":"Point","coordinates":[-78.22078,-6.88]}},{"type":"feature","properties":{"country_en":"Peru","name":"Colquemarca","name_adm0":"Perú","name_adm1":"Cusco","name_adm2":"Chumbivilcas","name_en":"Colquemarca"},"geometry":{"type":"Point","coordinates":[-72.53332999999999,-13.716669999999999]}},{"type":"feature","properties":{"country_en":"Peru","name":"Compín","name_adm0":"Perú","name_adm1":"La Libertad","name_adm2":"Gran Chimu","name_en":"Compín"},"geometry":{"type":"Point","coordinates":[-78.6234,-7.69899]}},{"type":"feature","properties":{"country_en":"Peru","name":"Conchán","name_adm0":"Perú","name_adm1":"Cajamarca","name_adm2":"Chota","name_en":"Conchán"},"geometry":{"type":"Point","coordinates":[-78.65594,-6.44431]}},{"type":"feature","properties":{"country_en":"Peru","name":"Acobamba","name_adm0":"Perú","name_adm1":"Junín","name_adm2":"Tarma","name_en":"Acobamba"},"geometry":{"type":"Point","coordinates":[-76.49889,-11.55]}},{"type":"feature","properties":{"country_en":"Peru","name":"Concepción","name_adm0":"Perú","name_adm1":"Junín","name_adm2":"Concepción","name_en":"Concepción"},"geometry":{"type":"Point","coordinates":[-75.31401,-11.91762]}},{"type":"feature","properties":{"country_en":"Peru","name":"Huasta","name_adm0":"Perú","name_adm1":"Ancash","name_adm2":"Bolognesi","name_en":"Huasta"},"geometry":{"type":"Point","coordinates":[-77.76667,-10.58333]}},{"type":"feature","properties":{"country_en":"Peru","name":"Quehue","name_adm0":"Perú","name_adm1":"Cusco","name_adm2":"Canas","name_en":"Quehue"},"geometry":{"type":"Point","coordinates":[-72.23333,-14.08333]}},{"type":"feature","properties":{"country_en":"Peru","name":"Quequeña","name_adm0":"Perú","name_adm1":"Arequipa","name_adm2":"Arequipa","name_en":"Quequeña"},"geometry":{"type":"Point","coordinates":[-72.05915,-15.92805]}},{"type":"feature","properties":{"country_en":"Peru","name":"Matará","name_adm0":"Perú","name_adm1":"Cajamarca","name_adm2":"Cajamarca","name_en":"Matará"},"geometry":{"type":"Point","coordinates":[-78.2602,-7.255639999999999]}},{"type":"feature","properties":{"country_en":"Peru","name":"Poyeni","name_adm0":"Perú","name_adm1":"Ucayali","name_adm2":"Atalaya","name_en":"Poyeni"},"geometry":{"type":"Point","coordinates":[-73.66819,-11.256549999999999]}},{"type":"feature","properties":{"country_en":"Peru","name":"Pozo Cancha","name_adm0":"Perú","name_adm1":"Junín","name_adm2":"Concepción","name_en":"Pozo Cancha"},"geometry":{"type":"Point","coordinates":[-75.55382,-12.84158]}},{"type":"feature","properties":{"country_en":"Peru","name":"Puerto Pardo","name_adm0":"Perú","name_adm1":"Loreto","name_adm2":"Alto Amazonas","name_en":"Puerto Pardo"},"geometry":{"type":"Point","coordinates":[-76.05,-5.83333]}},{"type":"feature","properties":{"country_en":"Peru","name":"Quiteni","name_adm0":"Perú","name_adm1":"Junín","name_adm2":"Satipo","name_en":"Quiteni"},"geometry":{"type":"Point","coordinates":[-74.0512,-11.4879]}},{"type":"feature","properties":{"country_en":"Peru","name":"Tembladera","name_adm0":"Perú","name_adm1":"Loreto","name_adm2":"Mariscal Ramón Castilla","name_en":"Tembladera"},"geometry":{"type":"Point","coordinates":[-71.82749999999999,-4.3875]}},{"type":"feature","properties":{"country_en":"Peru","name":"Capi","name_adm0":"Perú","name_adm1":"Cusco","name_adm2":"Paruro","name_en":"Capi"},"geometry":{"type":"Point","coordinates":[-71.32724,-14.15906]}},{"type":"feature","properties":{"country_en":"Peru","name":"Siches","name_adm0":"Perú","name_adm1":"Piura","name_adm2":"Ayabaca","name_en":"Siches"},"geometry":{"type":"Point","coordinates":[-79.76425,-4.57166]}},{"type":"feature","properties":{"country_en":"Peru","name":"Chupa","name_adm0":"Perú","name_adm1":"Puno","name_adm2":"Azángaro","name_en":"Chupa"},"geometry":{"type":"Point","coordinates":[-69.85574,-15.582280000000003]}},{"type":"feature","properties":{"country_en":"Peru","name":"Huachos","name_adm0":"Perú","name_adm1":"Huancavelica","name_adm2":"Castrovirreyna","name_en":"Huachos"},"geometry":{"type":"Point","coordinates":[-75.63333,-13.31667]}},{"type":"feature","properties":{"country_en":"Peru","name":"Copani","name_adm0":"Perú","name_adm1":"Puno","name_adm2":"Yunguyo","name_en":"Copani"},"geometry":{"type":"Point","coordinates":[-68.89999999999999,-15.45]}},{"type":"feature","properties":{"country_en":"Peru","name":"Huaribamba","name_adm0":"Perú","name_adm1":"Huancavelica","name_adm2":"Tayacaja","name_en":"Huaribamba"},"geometry":{"type":"Point","coordinates":[-74.75,-12.01667]}},{"type":"feature","properties":{"country_en":"Peru","name":"Tarapoto","name_adm0":"Perú","name_adm1":"San Martin","name_adm2":"San Martín","name_en":"Tarapoto"},"geometry":{"type":"Point","coordinates":[-76.3627475,-6.4867425]}},{"type":"feature","properties":{"country_en":"Peru","name":"Tumbes","name_adm0":"Perú","name_adm1":"Tumbes","name_adm2":"Tumbes","name_en":"Tumbes"},"geometry":{"type":"Point","coordinates":[-80.458635,-3.56662]}},{"type":"feature","properties":{"country_en":"Peru","name":"Juliaca","name_adm0":"Perú","name_adm1":"Puno","name_adm2":"San Román","name_en":"Juliaca"},"geometry":{"type":"Point","coordinates":[-70.137233,-15.496335000000002]}},{"type":"feature","properties":{"country_en":"Peru","name":"Puerto Maldonado","name_adm0":"Perú","name_adm1":"Madre de Dios","name_adm2":"Tambopata","name_en":"Puerto Maldonado"},"geometry":{"type":"Point","coordinates":[-69.201164,-12.596448999999998]}},{"type":"feature","properties":{"country_en":"Peru","name":"Tacna","name_adm0":"Perú","name_adm1":"Tacna","name_adm2":"Tacna","name_en":"Tacna"},"geometry":{"type":"Point","coordinates":[-70.2501845,-18.01465]}},{"type":"feature","properties":{"country_en":"Peru","name":"Puno","name_adm0":"Perú","name_adm1":"Puno","name_adm2":"Puno","name_en":"Puno"},"geometry":{"type":"Point","coordinates":[-70.027778,-15.840646]}},{"type":"feature","properties":{"country_en":"Peru","name":"Santa Catalina","name_adm0":"Perú","name_adm1":"Lima Metropolitan Area","name_adm2":"Lima","name_en":"Santa Catalina"},"geometry":{"type":"Point","coordinates":[-76.63638999999999,-11.182499999999997]}},{"type":"feature","properties":{"country_en":"Peru","name":"Andahuaylas","name_adm0":"Perú","name_adm1":"Apurímac","name_adm2":"Andahuaylas","name_en":"Andahuaylas"},"geometry":{"type":"Point","coordinates":[-73.41667,-13.66667]}},{"type":"feature","properties":{"country_en":"Peru","name":"Sechura","name_adm0":"Perú","name_adm1":"Piura","name_adm2":"Sechura","name_en":"Sechura"},"geometry":{"type":"Point","coordinates":[-80.67181,-5.87051]}},{"type":"feature","properties":{"country_en":"Peru","name":"Chocope","name_adm0":"Perú","name_adm1":"Lambayeque","name_adm2":"Lambayeque","name_en":"Chocope"},"geometry":{"type":"Point","coordinates":[-79.64816,-6.157939999999999]}},{"type":"feature","properties":{"country_en":"Peru","name":"Condorcanqui","name_adm0":"Perú","name_adm1":"Amazonas","name_adm2":"Condorcanqui","name_en":"Condorcanqui"},"geometry":{"type":"Point","coordinates":[-78.0384,-4.16515]}},{"type":"feature","properties":{"country_en":"Peru","name":"Abancay","name_adm0":"Perú","name_adm1":"Apurímac","name_adm2":"Abancay","name_en":"Abancay"},"geometry":{"type":"Point","coordinates":[-72.91666999999998,-13.66667]}},{"type":"feature","properties":{"country_en":"Peru","name":"Barranca","name_adm0":"Perú","name_adm1":"Lima","name_adm2":"Barranca","name_en":"Barranca"},"geometry":{"type":"Point","coordinates":[-77.65707,-10.66599]}},{"type":"feature","properties":{"country_en":"Peru","name":"Huaylas","name_adm0":"Perú","name_adm1":"Ancash","name_adm2":"Huaylas","name_en":"Huaylas"},"geometry":{"type":"Point","coordinates":[-77.83333,-8.91667]}},{"type":"feature","properties":{"country_en":"Peru","name":"Luya","name_adm0":"Perú","name_adm1":"Amazonas","name_adm2":"Luya","name_en":"Luya"},"geometry":{"type":"Point","coordinates":[-78,-6.41667]}},{"type":"feature","properties":{"country_en":"Peru","name":"Manu","name_adm0":"Perú","name_adm1":"Madre de Dios","name_adm2":"Manu","name_en":"Manu"},"geometry":{"type":"Point","coordinates":[-71,-12.25]}},{"type":"feature","properties":{"country_en":"Peru","name":"Tocache","name_adm0":"Perú","name_adm1":"San Martin","name_adm2":"Tocache","name_en":"Tocache"},"geometry":{"type":"Point","coordinates":[-76.63451,-8.2493]}},{"type":"feature","properties":{"country_en":"Peru","name":"Tayacaja","name_adm0":"Perú","name_adm1":"Huancavelica","name_adm2":"Tayacaja","name_en":"Tayacaja"},"geometry":{"type":"Point","coordinates":[-74.75,-12.25]}},{"type":"feature","properties":{"country_en":"Peru","name":"Tarma","name_adm0":"Perú","name_adm1":"Junín","name_adm2":"Tarma","name_en":"Tarma"},"geometry":{"type":"Point","coordinates":[-75.691,-11.419]}},{"type":"feature","properties":{"country_en":"Peru","name":"Trujillo","name_adm0":"Perú","name_adm1":"La Libertad","name_adm2":"Trujillo","name_en":"Trujillo"},"geometry":{"type":"Point","coordinates":[-78.91667,-8.08333]}},{"type":"feature","properties":{"country_en":"Peru","name":"Iñapari","name_adm0":"Perú","name_adm1":"Madre de Dios","name_adm2":"Tahuamanu","name_en":"Iñapari"},"geometry":{"type":"Point","coordinates":[-69.575815,-10.9463315]}},{"type":"feature","properties":{"country_en":"Peru","name":"Moquegua","name_adm0":"Perú","name_adm1":"Moquegua","name_adm2":"Mariscal Nieto","name_en":"Moquegua"},"geometry":{"type":"Point","coordinates":[-70.941295,-17.187124]}},{"type":"feature","properties":{"country_en":"Peru","name":"Satipo","name_adm0":"Perú","name_adm1":"Junín","name_adm2":"Satipo","name_en":"Satipo"},"geometry":{"type":"Point","coordinates":[-74.688835,-11.256699]}},{"type":"feature","properties":{"country_en":"Peru","name":"Tinco","name_adm0":"Perú","name_adm1":"Ancash","name_adm2":"Carhuaz","name_en":"Tinco"},"geometry":{"type":"Point","coordinates":[-77.66360999999999,-9.321109999999997]}},{"type":"feature","properties":{"country_en":"Peru","name":"Tintay","name_adm0":"Perú","name_adm1":"Apurímac","name_adm2":"Aymaraes","name_en":"Tintay"},"geometry":{"type":"Point","coordinates":[-73.86472,-14.07667]}},{"type":"feature","properties":{"country_en":"Peru","name":"Yarusyacan","name_adm0":"Perú","name_adm1":"Pasco","name_adm2":"Pasco","name_en":"Yarusyacan"},"geometry":{"type":"Point","coordinates":[-76.19608,-10.48985]}},{"type":"feature","properties":{"country_en":"Peru","name":"Yura","name_adm0":"Perú","name_adm1":"Arequipa","name_adm2":"Arequipa","name_en":"Yura"},"geometry":{"type":"Point","coordinates":[-71.13658,-15.96059]}},{"type":"feature","properties":{"country_en":"Peru","name":"Koribeni","name_adm0":"Perú","name_adm1":"Cusco","name_adm2":"La Convención","name_en":"Koribeni"},"geometry":{"type":"Point","coordinates":[-72.96666999999998,-12.68333]}},{"type":"feature","properties":{"country_en":"Peru","name":"La Misión","name_adm0":"Perú","name_adm1":"Cusco","name_adm2":"La Convención","name_en":"La Misión"},"geometry":{"type":"Point","coordinates":[-72.75,-12.466669999999999]}},{"type":"feature","properties":{"country_en":"Peru","name":"Orurillo","name_adm0":"Perú","name_adm1":"Puno","name_adm2":"Melgar","name_en":"Orurillo"},"geometry":{"type":"Point","coordinates":[-71.05778,-15.54528]}},{"type":"feature","properties":{"country_en":"Peru","name":"Bellavista","name_adm0":"Perú","name_adm1":"San Martin","name_adm2":"Bellavista","name_en":"Bellavista"},"geometry":{"type":"Point","coordinates":[-77.12499999999999,-6.248059999999999]}},{"type":"feature","properties":{"country_en":"Peru","name":"Cahuacho","name_adm0":"Perú","name_adm1":"Arequipa","name_adm2":"Caravelí","name_en":"Cahuacho"},"geometry":{"type":"Point","coordinates":[-72.94321,-15.230179999999999]}},{"type":"feature","properties":{"country_en":"Peru","name":"Camporredondo","name_adm0":"Perú","name_adm1":"Amazonas","name_adm2":"Luya","name_en":"Camporredondo"},"geometry":{"type":"Point","coordinates":[-78.31974,-6.21472]}},{"type":"feature","properties":{"country_en":"Peru","name":"Carhuacayán","name_adm0":"Perú","name_adm1":"Junín","name_adm2":"Yauli","name_en":"Carhuacayán"},"geometry":{"type":"Point","coordinates":[-76.15583,-11.91389]}},{"type":"feature","properties":{"country_en":"Peru","name":"Chilcaimarca","name_adm0":"Perú","name_adm1":"Arequipa","name_adm2":"Castilla","name_en":"Chilcaimarca"},"geometry":{"type":"Point","coordinates":[-72.37795,-15.28561]}},{"type":"feature","properties":{"country_en":"Peru","name":"Cocharcas","name_adm0":"Perú","name_adm1":"Apurímac","name_adm2":"Chincheros","name_en":"Cocharcas"},"geometry":{"type":"Point","coordinates":[-73.85176,-13.40367]}},{"type":"feature","properties":{"country_en":"Peru","name":"Flor de Agosto","name_adm0":"Perú","name_adm1":"Loreto","name_adm2":"Maynas","name_en":"Flor de Agosto"},"geometry":{"type":"Point","coordinates":[-73.0685,-2.36192]}},{"type":"feature","properties":{"country_en":"Peru","name":"Pariahuanca","name_adm0":"Perú","name_adm1":"Junín","name_adm2":"Huancayo","name_en":"Pariahuanca"},"geometry":{"type":"Point","coordinates":[-74.85232,-12.02907]}},{"type":"feature","properties":{"country_en":"Peru","name":"San Agustin de Huayopampa","name_adm0":"Perú","name_adm1":"Lima","name_adm2":"Huaral","name_en":"San Agustin de Huayopampa"},"geometry":{"type":"Point","coordinates":[-76.82348,-11.3543]}},{"type":"feature","properties":{"country_en":"Peru","name":"San Andrés de Salitral","name_adm0":"Perú","name_adm1":"Piura","name_adm2":"Morropón","name_en":"San Andrés de Salitral"},"geometry":{"type":"Point","coordinates":[-79.83237,-5.3421899999999996]}},{"type":"feature","properties":{"country_en":"Peru","name":"Santo Tomas","name_adm0":"Perú","name_adm1":"Cusco","name_adm2":"Chumbivilcas","name_en":"Santo Tomas"},"geometry":{"type":"Point","coordinates":[-72.08193,-14.45053]}},{"type":"feature","properties":{"country_en":"Peru","name":"Sargento Lores","name_adm0":"Perú","name_adm1":"Loreto","name_adm2":"Loreto","name_en":"Sargento Lores"},"geometry":{"type":"Point","coordinates":[-74.56667,-3.7499999999999996]}},{"type":"feature","properties":{"country_en":"Peru","name":"Toquepala","name_adm0":"Perú","name_adm1":"Tacna","name_adm2":"Jorge Basadre","name_en":"Toquepala"},"geometry":{"type":"Point","coordinates":[-70.64366,-17.30048]}},{"type":"feature","properties":{"country_en":"Peru","name":"Yanacocha","name_adm0":"Perú","name_adm1":"Pasco","name_adm2":"Daniel Alcides Carrión","name_en":"Yanacocha"},"geometry":{"type":"Point","coordinates":[-76.49184,-10.47074]}},{"type":"feature","properties":{"country_en":"Peru","name":"Yarumayo","name_adm0":"Perú","name_adm1":"Huánuco","name_adm2":"Huánuco","name_en":"Yarumayo"},"geometry":{"type":"Point","coordinates":[-76.4893,-9.93769]}},{"type":"feature","properties":{"country_en":"Peru","name":"Yauyucán","name_adm0":"Perú","name_adm1":"Cajamarca","name_adm2":"Santa Cruz","name_en":"Yauyucán"},"geometry":{"type":"Point","coordinates":[-78.81880999999998,-6.67602]}},{"type":"feature","properties":{"country_en":"Peru","name":"Santa María de Nieva","name_adm0":"Perú","name_adm1":"Amazonas","name_adm2":"Condorcanqui","name_en":"Santa María de Nieva"},"geometry":{"type":"Point","coordinates":[-77.86792,-4.59411]}},{"type":"feature","properties":{"country_en":"Peru","name":"Tayabamba","name_adm0":"Perú","name_adm1":"La Libertad","name_adm2":"Pataz","name_en":"Tayabamba"},"geometry":{"type":"Point","coordinates":[-77.50583,-9.00194]}},{"type":"feature","properties":{"country_en":"Peru","name":"Umbe","name_adm0":"Perú","name_adm1":"Ancash","name_adm2":"Sihuas","name_en":"Umbe"},"geometry":{"type":"Point","coordinates":[-77.53409,-8.62476]}},{"type":"feature","properties":{"country_en":"Peru","name":"Acopía","name_adm0":"Perú","name_adm1":"Cusco","name_adm2":"Canchis","name_en":"Acopía"},"geometry":{"type":"Point","coordinates":[-71.49306,-14.05793]}},{"type":"feature","properties":{"country_en":"Peru","name":"Acos","name_adm0":"Perú","name_adm1":"Lima","name_adm2":"Huaral","name_en":"Acos"},"geometry":{"type":"Point","coordinates":[-76.81222,-11.43111]}},{"type":"feature","properties":{"country_en":"Peru","name":"Azángaro","name_adm0":"Perú","name_adm1":"Lima","name_adm2":"Yauyos","name_en":"Azángaro"},"geometry":{"type":"Point","coordinates":[-75.8366,-12.997509999999998]}},{"type":"feature","properties":{"country_en":"Peru","name":"Ccapi","name_adm0":"Perú","name_adm1":"Cusco","name_adm2":"Paruro","name_en":"Ccapi"},"geometry":{"type":"Point","coordinates":[-72.31667,-13.91667]}},{"type":"feature","properties":{"country_en":"Peru","name":"Chacapalca","name_adm0":"Perú","name_adm1":"Junín","name_adm2":"Yauli","name_en":"Chacapalca"},"geometry":{"type":"Point","coordinates":[-76.23333,-11.649999999999999]}},{"type":"feature","properties":{"country_en":"Peru","name":"Chicosa","name_adm0":"Perú","name_adm1":"Ucayali","name_adm2":"Atalaya","name_en":"Chicosa"},"geometry":{"type":"Point","coordinates":[-74.06197999999999,-10.37838]}},{"type":"feature","properties":{"country_en":"Peru","name":"Chiliquín","name_adm0":"Perú","name_adm1":"Amazonas","name_adm2":"Chachapoyas","name_en":"Chiliquín"},"geometry":{"type":"Point","coordinates":[-77.7374,-6.07738]}},{"type":"feature","properties":{"country_en":"Peru","name":"Chocos","name_adm0":"Perú","name_adm1":"Lima","name_adm2":"Yauyos","name_en":"Chocos"},"geometry":{"type":"Point","coordinates":[-75.77025999999998,-13.31113]}},{"type":"feature","properties":{"country_en":"Peru","name":"Chugur","name_adm0":"Perú","name_adm1":"Cajamarca","name_adm2":"Hualgayoc","name_en":"Chugur"},"geometry":{"type":"Point","coordinates":[-78.35728,-6.72578]}},{"type":"feature","properties":{"country_en":"Peru","name":"Chumpi","name_adm0":"Perú","name_adm1":"Ayacucho","name_adm2":"Parinacochas","name_en":"Chumpi"},"geometry":{"type":"Point","coordinates":[-73.83,-14.30471]}},{"type":"feature","properties":{"country_en":"Peru","name":"Chupamarca","name_adm0":"Perú","name_adm1":"Ica","name_adm2":"Chincha","name_en":"Chupamarca"},"geometry":{"type":"Point","coordinates":[-75.75946,-12.83986]}},{"type":"feature","properties":{"country_en":"Peru","name":"Chupán","name_adm0":"Perú","name_adm1":"Huánuco","name_adm2":"Lauricocha","name_en":"Chupán"},"geometry":{"type":"Point","coordinates":[-76.64889,-9.74694]}},{"type":"feature","properties":{"country_en":"Peru","name":"Cumba","name_adm0":"Perú","name_adm1":"Cajamarca","name_adm2":"Cutervo","name_en":"Cumba"},"geometry":{"type":"Point","coordinates":[-78.11873,-6.418139999999999]}},{"type":"feature","properties":{"country_en":"Peru","name":"Curibaya","name_adm0":"Perú","name_adm1":"Tacna","name_adm2":"Tarata","name_en":"Curibaya"},"geometry":{"type":"Point","coordinates":[-70.47588,-17.4467]}},{"type":"feature","properties":{"country_en":"Peru","name":"Cusicancha","name_adm0":"Perú","name_adm1":"Huancavelica","name_adm2":"Huaytara","name_en":"Cusicancha"},"geometry":{"type":"Point","coordinates":[-75.1525,-13.55083]}},{"type":"feature","properties":{"country_en":"Peru","name":"Huantán","name_adm0":"Perú","name_adm1":"Lima","name_adm2":"Yauyos","name_en":"Huantán"},"geometry":{"type":"Point","coordinates":[-75.81364,-12.456109999999999]}},{"type":"feature","properties":{"country_en":"Peru","name":"Huaquirca","name_adm0":"Perú","name_adm1":"Apurímac","name_adm2":"Antabamba","name_en":"Huaquirca"},"geometry":{"type":"Point","coordinates":[-73.17194,-13.93917]}},{"type":"feature","properties":{"country_en":"Peru","name":"Huaranchal","name_adm0":"Perú","name_adm1":"La Libertad","name_adm2":"Gran Chimu","name_en":"Huaranchal"},"geometry":{"type":"Point","coordinates":[-78.25042,-7.82257]}},{"type":"feature","properties":{"country_en":"Peru","name":"Huarín","name_adm0":"Perú","name_adm1":"Huánuco","name_adm2":"Lauricocha","name_en":"Huarín"},"geometry":{"type":"Point","coordinates":[-76.67523,-9.97622]}},{"type":"feature","properties":{"country_en":"Peru","name":"Huasicancha","name_adm0":"Perú","name_adm1":"Junín","name_adm2":"Huancayo","name_en":"Huasicancha"},"geometry":{"type":"Point","coordinates":[-75.3,-12.333329999999998]}},{"type":"feature","properties":{"country_en":"Peru","name":"Huayhuay","name_adm0":"Perú","name_adm1":"Junín","name_adm2":"Yauli","name_en":"Huayhuay"},"geometry":{"type":"Point","coordinates":[-75.90513,-11.72347]}},{"type":"feature","properties":{"country_en":"Peru","name":"Huayo","name_adm0":"Perú","name_adm1":"La Libertad","name_adm2":"Pataz","name_en":"Huayo"},"geometry":{"type":"Point","coordinates":[-77.59333999999998,-8.00474]}},{"type":"feature","properties":{"country_en":"Peru","name":"La Union","name_adm0":"Perú","name_adm1":"San Martin","name_adm2":"Bellavista","name_en":"La Union"},"geometry":{"type":"Point","coordinates":[-76.51363,-7.162099999999999]}},{"type":"feature","properties":{"country_en":"Peru","name":"Lancones","name_adm0":"Perú","name_adm1":"Piura","name_adm2":"Sullana","name_en":"Lancones"},"geometry":{"type":"Point","coordinates":[-80.54942999999999,-4.64075]}},{"type":"feature","properties":{"country_en":"Peru","name":"Laria","name_adm0":"Perú","name_adm1":"Huancavelica","name_adm2":"Huancavelica","name_en":"Laria"},"geometry":{"type":"Point","coordinates":[-75.04466,-12.55693]}},{"type":"feature","properties":{"country_en":"Peru","name":"Lincha","name_adm0":"Perú","name_adm1":"Lima","name_adm2":"Yauyos","name_en":"Lincha"},"geometry":{"type":"Point","coordinates":[-75.86562,-12.98358]}},{"type":"feature","properties":{"country_en":"Peru","name":"Llauta","name_adm0":"Perú","name_adm1":"Ayacucho","name_adm2":"Lucanas","name_en":"Llauta"},"geometry":{"type":"Point","coordinates":[-75.58204,-13.59464]}},{"type":"feature","properties":{"country_en":"Peru","name":"Llaylla","name_adm0":"Perú","name_adm1":"Junín","name_adm2":"Satipo","name_en":"Llaylla"},"geometry":{"type":"Point","coordinates":[-74.63333,-11.783329999999998]}},{"type":"feature","properties":{"country_en":"Peru","name":"Marca","name_adm0":"Perú","name_adm1":"Ancash","name_adm2":"Recuay","name_en":"Marca"},"geometry":{"type":"Point","coordinates":[-77.54389,-9.486109999999998]}},{"type":"feature","properties":{"country_en":"Peru","name":"Margos","name_adm0":"Perú","name_adm1":"Huánuco","name_adm2":"Huánuco","name_en":"Margos"},"geometry":{"type":"Point","coordinates":[-76.43333,-10.06667]}},{"type":"feature","properties":{"country_en":"Peru","name":"Mazo Cruz","name_adm0":"Perú","name_adm1":"Puno","name_adm2":"El Collao","name_en":"Mazo Cruz"},"geometry":{"type":"Point","coordinates":[-70.32206,-16.88363]}},{"type":"feature","properties":{"country_en":"Peru","name":"Mosca","name_adm0":"Perú","name_adm1":"Huánuco","name_adm2":"Ambo","name_en":"Mosca"},"geometry":{"type":"Point","coordinates":[-76.7665,-9.5542]}},{"type":"feature","properties":{"country_en":"Peru","name":"Mucllo","name_adm0":"Perú","name_adm1":"Junín","name_adm2":"Concepción","name_en":"Mucllo"},"geometry":{"type":"Point","coordinates":[-75.03333,-11.71667]}},{"type":"feature","properties":{"country_en":"Peru","name":"Naván","name_adm0":"Perú","name_adm1":"Lima","name_adm2":"Oyon","name_en":"Naván"},"geometry":{"type":"Point","coordinates":[-77.01107,-10.8393]}},{"type":"feature","properties":{"country_en":"Peru","name":"Pacaipampa","name_adm0":"Perú","name_adm1":"Piura","name_adm2":"Ayabaca","name_en":"Pacaipampa"},"geometry":{"type":"Point","coordinates":[-79.51235,-5.88356]}},{"type":"feature","properties":{"country_en":"Peru","name":"Pachamarca","name_adm0":"Perú","name_adm1":"Huancavelica","name_adm2":"Tayacaja","name_en":"Pachamarca"},"geometry":{"type":"Point","coordinates":[-75.41984999999998,-11.8547]}},{"type":"feature","properties":{"country_en":"Peru","name":"Palca","name_adm0":"Perú","name_adm1":"Tacna","name_adm2":"Tacna","name_en":"Palca"},"geometry":{"type":"Point","coordinates":[-69.1,-17.33333]}},{"type":"feature","properties":{"country_en":"Peru","name":"Pallasca","name_adm0":"Perú","name_adm1":"Ancash","name_adm2":"Pallasca","name_en":"Pallasca"},"geometry":{"type":"Point","coordinates":[-77.28333,-8.29361]}},{"type":"feature","properties":{"country_en":"Peru","name":"Pampacolca","name_adm0":"Perú","name_adm1":"Arequipa","name_adm2":"Castilla","name_en":"Pampacolca"},"geometry":{"type":"Point","coordinates":[-72.93779,-15.25474]}},{"type":"feature","properties":{"country_en":"Peru","name":"Pampas","name_adm0":"Perú","name_adm1":"Ancash","name_adm2":"Pallasca","name_en":"Pampas"},"geometry":{"type":"Point","coordinates":[-77.97833,-9.04917]}},{"type":"feature","properties":{"country_en":"Peru","name":"Paucaray","name_adm0":"Perú","name_adm1":"Ayacucho","name_adm2":"Sucre","name_en":"Paucaray"},"geometry":{"type":"Point","coordinates":[-73.80667,-14.33917]}},{"type":"feature","properties":{"country_en":"Peru","name":"Pucacaca","name_adm0":"Perú","name_adm1":"San Martin","name_adm2":"Picota","name_en":"Pucacaca"},"geometry":{"type":"Point","coordinates":[-76.04114,-6.58566]}},{"type":"feature","properties":{"country_en":"Peru","name":"Pucará","name_adm0":"Perú","name_adm1":"Junín","name_adm2":"Chanchamayo","name_en":"Pucará"},"geometry":{"type":"Point","coordinates":[-75.3393,-11.256019999999998]}},{"type":"feature","properties":{"country_en":"Peru","name":"Pueblo Nuevo","name_adm0":"Perú","name_adm1":"La Libertad","name_adm2":"Chepén","name_en":"Pueblo Nuevo"},"geometry":{"type":"Point","coordinates":[-79.26672,-6.78278]}},{"type":"feature","properties":{"country_en":"Peru","name":"Puerta Asnaninga","name_adm0":"Perú","name_adm1":"Junín","name_adm2":"Satipo","name_en":"Puerta Asnaninga"},"geometry":{"type":"Point","coordinates":[-74.24318,-11.22964]}},{"type":"feature","properties":{"country_en":"Peru","name":"Pullo","name_adm0":"Perú","name_adm1":"Ayacucho","name_adm2":"Parinacochas","name_en":"Pullo"},"geometry":{"type":"Point","coordinates":[-73.83333,-15.316670000000002]}},{"type":"feature","properties":{"country_en":"Peru","name":"Quicacha","name_adm0":"Perú","name_adm1":"Arequipa","name_adm2":"Caravelí","name_en":"Quicacha"},"geometry":{"type":"Point","coordinates":[-73.62102999999999,-14.786249999999999]}},{"type":"feature","properties":{"country_en":"Peru","name":"Quiñota","name_adm0":"Perú","name_adm1":"Cusco","name_adm2":"Chumbivilcas","name_en":"Quiñota"},"geometry":{"type":"Point","coordinates":[-71.17624999999998,-14.37519]}},{"type":"feature","properties":{"country_en":"Peru","name":"Raquía","name_adm0":"Perú","name_adm1":"Ancash","name_adm2":"Bolognesi","name_en":"Raquía"},"geometry":{"type":"Point","coordinates":[-77.4705,-10.15802]}},{"type":"feature","properties":{"country_en":"Peru","name":"Reventazón","name_adm0":"Perú","name_adm1":"Piura","name_adm2":"Sechura","name_en":"Reventazón"},"geometry":{"type":"Point","coordinates":[-80.9875,-6.1125]}},{"type":"feature","properties":{"country_en":"Peru","name":"San Damián","name_adm0":"Perú","name_adm1":"Lima","name_adm2":"Huarochiri","name_en":"San Damián"},"geometry":{"type":"Point","coordinates":[-76.39186999999998,-12.01761]}},{"type":"feature","properties":{"country_en":"Peru","name":"San Martin de Pangoa","name_adm0":"Perú","name_adm1":"Junín","name_adm2":"Satipo","name_en":"San Martin de Pangoa"},"geometry":{"type":"Point","coordinates":[-74.48834,-11.42854]}},{"type":"feature","properties":{"country_en":"Peru","name":"San Pedro","name_adm0":"Perú","name_adm1":"Ayacucho","name_adm2":"Lucanas","name_en":"San Pedro"},"geometry":{"type":"Point","coordinates":[-74.05,-15.016669999999998]}},{"type":"feature","properties":{"country_en":"Peru","name":"Santiago de Chocorvos","name_adm0":"Perú","name_adm1":"Ica","name_adm2":"Ica","name_en":"Santiago de Chocorvos"},"geometry":{"type":"Point","coordinates":[-75.24762,-13.827719999999998]}},{"type":"feature","properties":{"country_en":"Peru","name":"Santo Domingo de Capillas","name_adm0":"Perú","name_adm1":"Huancavelica","name_adm2":"Huaytara","name_en":"Santo Domingo de Capillas"},"geometry":{"type":"Point","coordinates":[-75.24322,-13.7373]}},{"type":"feature","properties":{"country_en":"Peru","name":"Tambo","name_adm0":"Perú","name_adm1":"Huancavelica","name_adm2":"Huaytara","name_en":"Tambo"},"geometry":{"type":"Point","coordinates":[-74.88973999999999,-13.82978]}},{"type":"feature","properties":{"country_en":"Peru","name":"Tanta","name_adm0":"Perú","name_adm1":"Lima","name_adm2":"Yauyos","name_en":"Tanta"},"geometry":{"type":"Point","coordinates":[-75.75122,-12.83345]}},{"type":"feature","properties":{"country_en":"Peru","name":"Tantara","name_adm0":"Perú","name_adm1":"Ica","name_adm2":"Chincha","name_en":"Tantara"},