{"type":"FeatureCollection","features":[{"type":"feature","properties":{"country_en":"French Polynesia","name":"Gambier","name_adm0":"Polynésie Française","name_adm1":"Tuamotu-Gambier","name_adm2":"Gambier","name_en":"Gambier"},"geometry":{"type":"Point","coordinates":[-145.62377899999998,-16.081939]}},{"type":"feature","properties":{"country_en":"French Polynesia","name":"Reao","name_adm0":"Polynésie Française","name_adm1":"Tuamotu-Gambier","name_adm2":"Reao","name_en":"Reao"},"geometry":{"type":"Point","coordinates":[-145.62377899999998,-16.081939]}},{"type":"feature","properties":{"country_en":"French Polynesia","name":"Manihi","name_adm0":"Polynésie Française","name_adm1":"Tuamotu-Gambier","name_adm2":"Manihi","name_en":"Manihi"},"geometry":{"type":"Point","coordinates":[-146.066665,-14.438423]}},{"type":"feature","properties":{"country_en":"French Polynesia","name":"Rangiroa","name_adm0":"Polynésie Française","name_adm1":"Tuamotu-Gambier","name_adm2":"Rangiroa","name_en":"Rangiroa"},"geometry":{"type":"Point","coordinates":[-147.7114675,-15.083063]}},{"type":"feature","properties":{"country_en":"French Polynesia","name":"Fangatau","name_adm0":"Polynésie Française","name_adm1":"Tuamotu-Gambier","name_adm2":"Fangatau","name_en":"Fangatau"},"geometry":{"type":"Point","coordinates":[-145.62377899999998,-16.081939]}},{"type":"feature","properties":{"country_en":"French Polynesia","name":"Hikueru","name_adm0":"Polynésie Française","name_adm1":"Tuamotu-Gambier","name_adm2":"Hikueru","name_en":"Hikueru"},"geometry":{"type":"Point","coordinates":[-145.62377899999998,-16.081939]}},{"type":"feature","properties":{"country_en":"French Polynesia","name":"Ruutia","name_adm0":"Polynésie Française","name_adm1":"Îles sous le Vent","name_adm2":"Tahaa","name_en":"Ruutia"},"geometry":{"type":"Point","coordinates":[-151.56360099999998,-16.605753]}},{"type":"feature","properties":{"country_en":"French Polynesia","name":"Bora-Bora","name_adm0":"Polynésie Française","name_adm1":"Îles sous le Vent","name_adm2":"Bora-Bora","name_en":"Bora-Bora"},"geometry":{"type":"Point","coordinates":[-151.751232,-16.497941]}},{"type":"feature","properties":{"country_en":"French Polynesia","name":"Tautira","name_adm0":"Polynésie Française","name_adm1":"Îles du Vent","name_adm2":"Taiarapu-Est","name_en":"Tautira"},"geometry":{"type":"Point","coordinates":[-149.15,-17.73333]}},{"type":"feature","properties":{"country_en":"French Polynesia","name":"Tiarei","name_adm0":"Polynésie Française","name_adm1":"Îles du Vent","name_adm2":"Hitiaa o Te Ra","name_en":"Tiarei"},"geometry":{"type":"Point","coordinates":[-149.33332999999996,-17.53333]}},{"type":"feature","properties":{"country_en":"French Polynesia","name":"Pirae","name_adm0":"Polynésie Française","name_adm1":"Îles du Vent","name_adm2":"Papeete","name_en":"Pirae"},"geometry":{"type":"Point","coordinates":[-149.53333,-17.51667]}},{"type":"feature","properties":{"country_en":"French Polynesia","name":"Mahina","name_adm0":"Polynésie Française","name_adm1":"Îles du Vent","name_adm2":"Mahina","name_en":"Mahina"},"geometry":{"type":"Point","coordinates":[-149.48899,-17.50648]}},{"type":"feature","properties":{"country_en":"French Polynesia","name":"Hitiaa","name_adm0":"Polynésie Française","name_adm1":"Îles du Vent","name_adm2":"Hitiaa o Te Ra","name_en":"Hitiaa"},"geometry":{"type":"Point","coordinates":[-149.3,-17.6]}},{"type":"feature","properties":{"country_en":"French Polynesia","name":"Vairao","name_adm0":"Polynésie Française","name_adm1":"Îles du Vent","name_adm2":"Taiarapu-Ouest","name_en":"Vairao"},"geometry":{"type":"Point","coordinates":[-149.28333,-17.78333]}},{"type":"feature","properties":{"country_en":"French Polynesia","name":"Papara","name_adm0":"Polynésie Française","name_adm1":"Îles du Vent","name_adm2":"Papara","name_en":"Papara"},"geometry":{"type":"Point","coordinates":[-149.51666999999998,-17.51667]}},{"type":"feature","properties":{"country_en":"French Polynesia","name":"Avera","name_adm0":"Polynésie Française","name_adm1":"Îles sous le Vent","name_adm2":"Taputapuatea","name_en":"Avera"},"geometry":{"type":"Point","coordinates":[-151.408424,-16.803226]}},{"type":"feature","properties":{"country_en":"French Polynesia","name":"Australes","name_adm0":"Polynésie Française","name_adm1":"Australes","name_en":"Austral Islands"},"geometry":{"type":"Point","coordinates":[-148.737333,-24.714333]}},{"type":"feature","properties":{"country_en":"French Polynesia","name":"Clipperton Island","name_adm0":"Polynésie Française","name_adm1":"Clipperton Island","name_adm2":"Clipperton Island","name_en":"Clipperton Island"},"geometry":{"type":"Point","coordinates":[-149.37600699999996,-16.50457]}},{"type":"feature","properties":{"country_en":"French Polynesia","name":"Rapa","name_adm0":"Polynésie Française","name_adm1":"Australes","name_adm2":"Rapa","name_en":"Rapa"},"geometry":{"type":"Point","coordinates":[-148.737333,-24.714333]}},{"type":"feature","properties":{"country_en":"French Polynesia","name":"Rimatara","name_adm0":"Polynésie Française","name_adm1":"Australes","name_adm2":"Rimatara","name_en":"Rimatara"},"geometry":{"type":"Point","coordinates":[-148.737333,-24.714333]}},{"type":"feature","properties":{"country_en":"French Polynesia","name":"Tahuata","name_adm0":"Polynésie Française","name_adm1":"Marquises","name_adm2":"Tahuata","name_en":"Tahuata"},"geometry":{"type":"Point","coordinates":[-138.675441,-10.438604]}},{"type":"feature","properties":{"country_en":"French Polynesia","name":"Paea","name_adm0":"Polynésie Française","name_adm1":"Îles du Vent","name_adm2":"Paea","name_en":"Paea"},"geometry":{"type":"Point","coordinates":[-149.81781,-17.509831]}},{"type":"feature","properties":{"country_en":"French Polynesia","name":"Papara","name_adm0":"Polynésie Française","name_adm1":"Îles du Vent","name_adm2":"Papara","name_en":"Papara"},"geometry":{"type":"Point","coordinates":[-149.81781,-17.509831]}},{"type":"feature","properties":{"country_en":"French Polynesia","name":"Arue","name_adm0":"Polynésie Française","name_adm1":"Îles du Vent","name_adm2":"Arue","name_en":"Arue"},"geometry":{"type":"Point","coordinates":[-149.81781,-17.509831]}},{"type":"feature","properties":{"country_en":"French Polynesia","name":"Pukapuka","name_adm0":"Polynésie Française","name_adm1":"Tuamotu-Gambier","name_adm2":"Pukapuka","name_en":"Pukapuka"},"geometry":{"type":"Point","coordinates":[-145.62377899999998,-16.081939]}},{"type":"feature","properties":{"country_en":"French Polynesia","name":"Tatakoto","name_adm0":"Polynésie Française","name_adm1":"Tuamotu-Gambier","name_adm2":"Tatakoto","name_en":"Tatakoto"},"geometry":{"type":"Point","coordinates":[-145.62377899999998,-16.081939]}},{"type":"feature","properties":{"country_en":"French Polynesia","name":"Tureia","name_adm0":"Polynésie Française","name_adm1":"Tuamotu-Gambier","name_adm2":"Tureia","name_en":"Tureia"},"geometry":{"type":"Point","coordinates":[-145.62377899999998,-16.081939]}},{"type":"feature","properties":{"country_en":"French Polynesia","name":"Huahine","name_adm0":"Polynésie Française","name_adm1":"Îles sous le Vent","name_adm2":"Huahine","name_en":"Huahine"},"geometry":{"type":"Point","coordinates":[-151.033859,-16.722686]}},{"type":"feature","properties":{"country_en":"French Polynesia","name":"Maupiti","name_adm0":"Polynésie Française","name_adm1":"Îles sous le Vent","name_adm2":"Maupiti","name_en":"Maupiti"},"geometry":{"type":"Point","coordinates":[-152.273254,-16.422913]}},{"type":"feature","properties":{"country_en":"French Polynesia","name":"Hatiheu","name_adm0":"Polynésie Française","name_adm1":"Marquises","name_adm2":"Nuku Hiva","name_en":"Hatiheu"},"geometry":{"type":"Point","coordinates":[-140.06229399999998,-8.825621]}},{"type":"feature","properties":{"country_en":"French Polynesia","name":"Uturoa","name_adm0":"Polynésie Française","name_adm1":"Îles sous le Vent","name_adm2":"Tahaa","name_en":"Uturoa"},"geometry":{"type":"Point","coordinates":[-151.44482,-16.72891]}},{"type":"feature","properties":{"country_en":"French Polynesia","name":"Pirae","name_adm0":"Polynésie Française","name_adm1":"Îles du Vent","name_adm2":"Pirae","name_en":"Pirae"},"geometry":{"type":"Point","coordinates":[-149.81781,-17.509831]}},{"type":"feature","properties":{"country_en":"French Polynesia","name":"Mahina","name_adm0":"Polynésie Française","name_adm1":"Îles du Vent","name_adm2":"Mahina","name_en":"Mahina"},"geometry":{"type":"Point","coordinates":[-149.81781,-17.509831]}},{"type":"feature","properties":{"country_en":"French Polynesia","name":"Hitiaa o Te Ra","name_adm0":"Polynésie Française","name_adm1":"Îles du Vent","name_adm2":"Hitiaa o Te Ra","name_en":"Hitiaa o Te Ra"},"geometry":{"type":"Point","coordinates":[-149.81781,-17.509831]}},{"type":"feature","properties":{"country_en":"French Polynesia","name":"Teva I Uta","name_adm0":"Polynésie Française","name_adm1":"Îles du Vent","name_adm2":"Teva I Uta","name_en":"Teva I Uta"},"geometry":{"type":"Point","coordinates":[-149.81781,-17.509831]}},{"type":"feature","properties":{"country_en":"French Polynesia","name":"Punaauia","name_adm0":"Polynésie Française","name_adm1":"Îles du Vent","name_adm2":"Punaauia","name_en":"Punaauia"},"geometry":{"type":"Point","coordinates":[-149.81781,-17.509831]}},{"type":"feature","properties":{"country_en":"French Polynesia","name":"Taiarapu-Ouest","name_adm0":"Polynésie Française","name_adm1":"Îles du Vent","name_adm2":"Taiarapu-Ouest","name_en":"Taiarapu-Ouest"},"geometry":{"type":"Point","coordinates":[-149.81781,-17.509831]}},{"type":"feature","properties":{"country_en":"French Polynesia","name":"Napuka","name_adm0":"Polynésie Française","name_adm1":"Tuamotu-Gambier","name_adm2":"Napuka","name_en":"Napuka"},"geometry":{"type":"Point","coordinates":[-145.62377899999998,-16.081939]}},{"type":"feature","properties":{"country_en":"French Polynesia","name":"Maeva","name_adm0":"Polynésie Française","name_adm1":"Îles sous le Vent","name_adm2":"Huahine","name_en":"Maeva"},"geometry":{"type":"Point","coordinates":[-150.98333,-16.68333]}},{"type":"feature","properties":{"country_en":"French Polynesia","name":"Tapuamu","name_adm0":"Polynésie Française","name_adm1":"Îles sous le Vent","name_adm2":"Tahaa","name_en":"Tapuamu"},"geometry":{"type":"Point","coordinates":[-151.54128999999998,-16.582729]}},{"type":"feature","properties":{"country_en":"French Polynesia","name":"Polynésie Française","name_adm0":"Polynésie Française","name_en":"French Polynesia"},"geometry":{"type":"Point","coordinates":[-149.37600699999996,-16.50457]}},{"type":"feature","properties":{"country_en":"French Polynesia","name":"Tuamotu-Gambier","name_adm0":"Polynésie Française","name_adm1":"Tuamotu-Gambier","name_en":"Tuamotu-Gambier"},"geometry":{"type":"Point","coordinates":[-145.62377899999998,-16.081939]}},{"type":"feature","properties":{"country_en":"French Polynesia","name":"Îles du Vent","name_adm0":"Polynésie Française","name_adm1":"Îles du Vent","name_en":"Windward Islands"},"geometry":{"type":"Point","coordinates":[-149.5,-17.499999999999996]}},{"type":"feature","properties":{"country_en":"French Polynesia","name":"Îles sous le Vent","name_adm0":"Polynésie Française","name_adm1":"Îles sous le Vent","name_en":"Leeward Islands"},"geometry":{"type":"Point","coordinates":[-151.5,-16.66667]}},{"type":"feature","properties":{"country_en":"French Polynesia","name":"Moorea-Maiao","name_adm0":"Polynésie Française","name_adm1":"Îles du Vent","name_adm2":"Moorea-Maiao","name_en":"Moorea-Maiao"},"geometry":{"type":"Point","coordinates":[-149.8435895,-17.490637]}},{"type":"feature","properties":{"country_en":"French Polynesia","name":"Hiva Oa","name_adm0":"Polynésie Française","name_adm1":"Marquises","name_adm2":"Hiva Oa","name_en":"Hiva Oa"},"geometry":{"type":"Point","coordinates":[-139.013957,-9.765528999999999]}},{"type":"feature","properties":{"country_en":"French Polynesia","name":"Nuku Hiva","name_adm0":"Polynésie Française","name_adm1":"Marquises","name_adm2":"Nuku Hiva","name_en":"Nuku Hiva"},"geometry":{"type":"Point","coordinates":[-140.088043,-8.853863]}},{"type":"feature","properties":{"country_en":"French Polynesia","name":"Faaone","name_adm0":"Polynésie Française","name_adm1":"Îles du Vent","name_adm2":"Taiarapu-Est","name_en":"Faaone"},"geometry":{"type":"Point","coordinates":[-149.3,-17.66667]}},{"type":"feature","properties":{"country_en":"French Polynesia","name":"Fitii","name_adm0":"Polynésie Française","name_adm1":"Îles sous le Vent","name_adm2":"Huahine","name_en":"Fitii"},"geometry":{"type":"Point","coordinates":[-151.03333,-16.73333]}},{"type":"feature","properties":{"country_en":"French Polynesia","name":"Vaitape","name_adm0":"Polynésie Française","name_adm1":"Îles sous le Vent","name_adm2":"Bora-Bora","name_en":"Vaitape"},"geometry":{"type":"Point","coordinates":[-151.74913,-16.50741]}},{"type":"feature","properties":{"country_en":"French Polynesia","name":"Hao","name_adm0":"Polynésie Française","name_adm1":"Tuamotu-Gambier","name_adm2":"Hao","name_en":"Hao"},"geometry":{"type":"Point","coordinates":[-140.90875599999998,-18.0832]}},{"type":"feature","properties":{"country_en":"French Polynesia","name":"Papeete","name_adm0":"Polynésie Française","name_adm1":"Îles du Vent","name_adm2":"Papeete","name_en":"Papeete"},"geometry":{"type":"Point","coordinates":[-149.56667,-17.53333]}},{"type":"feature","properties":{"country_en":"French Polynesia","name":"Ua-huka","name_adm0":"Polynésie Française","name_adm1":"Marquises","name_adm2":"Ua Huka","name_en":"Ua-huka"},"geometry":{"type":"Point","coordinates":[-139.55323199999998,-8.934476]}},{"type":"feature","properties":{"country_en":"French Polynesia","name":"Toahotu","name_adm0":"Polynésie Française","name_adm1":"Îles du Vent","name_adm2":"Taiarapu-Est","name_en":"Toahotu"},"geometry":{"type":"Point","coordinates":[-149.308395,-17.748337]}},{"type":"feature","properties":{"country_en":"French Polynesia","name":"Ua Huka","name_adm0":"Polynésie Française","name_adm1":"Marquises","name_adm2":"Ua Huka","name_en":"Ua Huka"},"geometry":{"type":"Point","coordinates":[-139.581298,-8.885071]}},{"type":"feature","properties":{"country_en":"French Polynesia","name":"Faaaha","name_adm0":"Polynésie Française","name_adm1":"Îles sous le Vent","name_adm2":"Tahaa","name_en":"Faaaha"},"geometry":{"type":"Point","coordinates":[-151.438248,-16.594769]}},{"type":"feature","properties":{"country_en":"French Polynesia","name":"Haapiti","name_adm0":"Polynésie Française","name_adm1":"Îles du Vent","name_adm2":"Moorea-Maiao","name_en":"Haapiti"},"geometry":{"type":"Point","coordinates":[-149.86667,-17.56667]}},{"type":"feature","properties":{"country_en":"French Polynesia","name":"Arue","name_adm0":"Polynésie Française","name_adm1":"Îles du Vent","name_adm2":"Arue","name_en":"Arue"},"geometry":{"type":"Point","coordinates":[-149.5,-17.51667]}},{"type":"feature","properties":{"country_en":"French Polynesia","name":"Mahaena","name_adm0":"Polynésie Française","name_adm1":"Îles du Vent","name_adm2":"Hitiaa o Te Ra","name_en":"Mahaena"},"geometry":{"type":"Point","coordinates":[-149.31667,-17.56667]}},{"type":"feature","properties":{"country_en":"French Polynesia","name":"Pueu","name_adm0":"Polynésie Française","name_adm1":"Îles du Vent","name_adm2":"Taiarapu-Est","name_en":"Pueu"},"geometry":{"type":"Point","coordinates":[-149.21667,-17.73333]}},{"type":"feature","properties":{"country_en":"French Polynesia","name":"Papeari","name_adm0":"Polynésie Française","name_adm1":"Îles du Vent","name_adm2":"Teva I Uta","name_en":"Papeari"},"geometry":{"type":"Point","coordinates":[-149.87291,-17.49613]}},{"type":"feature","properties":{"country_en":"French Polynesia","name":"Paea","name_adm0":"Polynésie Française","name_adm1":"Îles du Vent","name_adm2":"Paea","name_en":"Paea"},"geometry":{"type":"Point","coordinates":[-149.58333,-17.68333]}},{"type":"feature","properties":{"country_en":"French Polynesia","name":"Tevaitoa","name_adm0":"Polynésie Française","name_adm1":"Îles sous le Vent","name_adm2":"Tumaraa","name_en":"Tevaitoa"},"geometry":{"type":"Point","coordinates":[-151.5,-16.78333]}},{"type":"feature","properties":{"country_en":"French Polynesia","name":"Takaroa","name_adm0":"Polynésie Française","name_adm1":"Tuamotu-Gambier","name_adm2":"Takaroa","name_en":"Takaroa"},"geometry":{"type":"Point","coordinates":[-145.62377899999998,-16.081939]}},{"type":"feature","properties":{"country_en":"French Polynesia","name":"Hakamaii","name_adm0":"Polynésie Française","name_adm1":"Marquises","name_adm2":"Ua Pou","name_en":"Hakamaii"},"geometry":{"type":"Point","coordinates":[-139.99999999999997,-9.38333]}},{"type":"feature","properties":{"country_en":"French Polynesia","name":"Taipivai","name_adm0":"Polynésie Française","name_adm1":"Marquises","name_adm2":"Nuku Hiva","name_en":"Taipivai"},"geometry":{"type":"Point","coordinates":[-140.046501,-8.898978]}},{"type":"feature","properties":{"country_en":"French Polynesia","name":"Ua Pou","name_adm0":"Polynésie Française","name_adm1":"Marquises","name_adm2":"Ua Pou","name_en":"Ua Pou"},"geometry":{"type":"Point","coordinates":[-140.052302,-9.426808999999999]}},{"type":"feature","properties":{"country_en":"French Polynesia","name":"Haamene","name_adm0":"Polynésie Française","name_adm1":"Îles sous le Vent","name_adm2":"Tahaa","name_en":"Haamene"},"geometry":{"type":"Point","coordinates":[-151.481552,-16.628296]}},{"type":"feature","properties":{"country_en":"French Polynesia","name":"Avera","name_adm0":"Polynésie Française","name_adm1":"Australes","name_adm2":"Rurutu","name_en":"Avera"},"geometry":{"type":"Point","coordinates":[-151.35,-22.449999999999996]}},{"type":"feature","properties":{"country_en":"French Polynesia","name":"Hauti","name_adm0":"Polynésie Française","name_adm1":"Australes","name_adm2":"Rurutu","name_en":"Hauti"},"geometry":{"type":"Point","coordinates":[-151.33333,-22.46667]}},{"type":"feature","properties":{"country_en":"French Polynesia","name":"Fatu Hiva","name_adm0":"Polynésie Française","name_adm1":"Marquises","name_adm2":"Fatu Hiva","name_en":"Fatu Hiva"},"geometry":{"type":"Point","coordinates":[-138.688316,-10.423326]}},{"type":"feature","properties":{"country_en":"French Polynesia","name":"Marquises","name_adm0":"Polynésie Française","name_adm1":"Marquises","name_en":"Marquesas Islands"},"geometry":{"type":"Point","coordinates":[-138.675441,-10.438604]}},{"type":"feature","properties":{"country_en":"French Polynesia","name":"Haapu","name_adm0":"Polynésie Française","name_adm1":"Îles sous le Vent","name_adm2":"Huahine","name_en":"Haapu"},"geometry":{"type":"Point","coordinates":[-150.99999999999997,-16.76667]}},{"type":"feature","properties":{"country_en":"French Polynesia","name":"Maroe","name_adm0":"Polynésie Française","name_adm1":"Îles sous le Vent","name_adm2":"Huahine","name_en":"Maroe"},"geometry":{"type":"Point","coordinates":[-150.98333,-16.75]}},{"type":"feature","properties":{"country_en":"French Polynesia","name":"Tefarerii","name_adm0":"Polynésie Française","name_adm1":"Îles sous le Vent","name_adm2":"Maupiti","name_en":"Tefarerii"},"geometry":{"type":"Point","coordinates":[-152.24999999999997,-16.45]}},{"type":"feature","properties":{"country_en":"French Polynesia","name":"Vaitoare","name_adm0":"Polynésie Française","name_adm1":"Îles sous le Vent","name_adm2":"Tahaa","name_en":"Vaitoare"},"geometry":{"type":"Point","coordinates":[-151.45,-16.68333]}},{"type":"feature","properties":{"country_en":"French Polynesia","name":"Moerai","name_adm0":"Polynésie Française","name_adm1":"Australes","name_adm2":"Rurutu","name_en":"Moerai"},"geometry":{"type":"Point","coordinates":[-151.34191,-22.45133]}},{"type":"feature","properties":{"country_en":"French Polynesia","name":"Tahaa","name_adm0":"Polynésie Française","name_adm1":"Îles sous le Vent","name_adm2":"Tahaa","name_en":"Tahaa"},"geometry":{"type":"Point","coordinates":[-151.392073,-16.594081]}},{"type":"feature","properties":{"country_en":"French Polynesia","name":"Papeete","name_adm0":"Polynésie Française","name_adm1":"Îles du Vent","name_adm2":"Papeete","name_en":"Papeete"},"geometry":{"type":"Point","coordinates":[-149.458007,-17.536186]}},{"type":"feature","properties":{"country_en":"French Polynesia","name":"Faaa","name_adm0":"Polynésie Française","name_adm1":"Îles du Vent","name_adm2":"Faaa","name_en":"Faaa"},"geometry":{"type":"Point","coordinates":[-149.613232,-17.622059]}},{"type":"feature","properties":{"country_en":"French Polynesia","name":"Fakarava","name_adm0":"Polynésie Française","name_adm1":"Tuamotu-Gambier","name_adm2":"Fakarava","name_en":"Fakarava"},"geometry":{"type":"Point","coordinates":[-145.383453,-16.417149]}},{"type":"feature","properties":{"country_en":"French Polynesia","name":"Arutua","name_adm0":"Polynésie Française","name_adm1":"Tuamotu-Gambier","name_adm2":"Arutua","name_en":"Arutua"},"geometry":{"type":"Point","coordinates":[-146.407086,-15.423108000000001]}},{"type":"feature","properties":{"country_en":"French Polynesia","name":"Makemo","name_adm0":"Polynésie Française","name_adm1":"Tuamotu-Gambier","name_adm2":"Makemo","name_en":"Makemo"},"geometry":{"type":"Point","coordinates":[-142.519454,-16.136528]}},{"type":"feature","properties":{"country_en":"French Polynesia","name":"Rurutu","name_adm0":"Polynésie Française","name_adm1":"Australes","name_adm2":"Rurutu","name_en":"Rurutu"},"geometry":{"type":"Point","coordinates":[-151.352462,-22.521437]}},{"type":"feature","properties":{"country_en":"French Polynesia","name":"Taputapuatea","name_adm0":"Polynésie Française","name_adm1":"Îles sous le Vent","name_adm2":"Taputapuatea","name_en":"Taputapuatea"},"geometry":{"type":"Point","coordinates":[-151.365509,-16.808484]}},{"type":"feature","properties":{"country_en":"French Polynesia","name":"Mataiva","name_adm0":"Polynésie Française","name_adm1":"Îles du Vent","name_adm2":"Taiarapu-Est","name_en":"Mataiva"},"geometry":{"type":"Point","coordinates":[-149.18333,-17.75]}},{"type":"feature","properties":{"country_en":"French Polynesia","name":"Faie","name_adm0":"Polynésie Française","name_adm1":"Îles sous le Vent","name_adm2":"Huahine","name_en":"Faie"},"geometry":{"type":"Point","coordinates":[-150.989055,-16.704601]}},{"type":"feature","properties":{"country_en":"French Polynesia","name":"Fetuna","name_adm0":"Polynésie Française","name_adm1":"Îles sous le Vent","name_adm2":"Tumaraa","name_en":"Fetuna"},"geometry":{"type":"Point","coordinates":[-151.424828,-16.832005999999996]}},{"type":"feature","properties":{"country_en":"French Polynesia","name":"Opoa","name_adm0":"Polynésie Française","name_adm1":"Îles sous le Vent","name_adm2":"Taputapuatea","name_en":"Opoa"},"geometry":{"type":"Point","coordinates":[-151.3651655,-16.835618]}},{"type":"feature","properties":{"country_en":"French Polynesia","name":"Parea","name_adm0":"Polynésie Française","name_adm1":"Îles sous le Vent","name_adm2":"Huahine","name_en":"Parea"},"geometry":{"type":"Point","coordinates":[-150.98442,-16.812429]}},{"type":"feature","properties":{"country_en":"French Polynesia","name":"Teahupoo","name_adm0":"Polynésie Française","name_adm1":"Îles du Vent","name_adm2":"Taiarapu-Ouest","name_en":"Teahupoo"},"geometry":{"type":"Point","coordinates":[-149.26667,-17.83333]}},{"type":"feature","properties":{"country_en":"French Polynesia","name":"Taiarapu-Est","name_adm0":"Polynésie Française","name_adm1":"Îles du Vent","name_adm2":"Taiarapu-Est","name_en":"Taiarapu-Est"},"geometry":{"type":"Point","coordinates":[-149.279479,-17.827144]}},{"type":"feature","properties":{"country_en":"French Polynesia","name":"Tumaraa","name_adm0":"Polynésie Française","name_adm1":"Îles sous le Vent","name_adm2":"Tumaraa","name_en":"Tumaraa"},"geometry":{"type":"Point","coordinates":[-151.482238,-16.760845]}},{"type":"feature","properties":{"country_en":"French Polynesia","name":"Uturoa","name_adm0":"Polynésie Française","name_adm1":"Îles sous le Vent","name_adm2":"Uturoa","name_en":"Uturoa"},"geometry":{"type":"Point","coordinates":[-151.456146,-16.719461]}},{"type":"feature","properties":{"country_en":"French Polynesia","name":"Anau","name_adm0":"Polynésie Française","name_adm1":"Îles sous le Vent","name_adm2":"Bora-Bora","name_en":"Anau"},"geometry":{"type":"Point","coordinates":[-151.73333,-16.516669999999998]}},{"type":"feature","properties":{"country_en":"French Polynesia","name":"Tubuai","name_adm0":"Polynésie Française","name_adm1":"Australes","name_adm2":"Tubuai","name_en":"Tubuai"},"geometry":{"type":"Point","coordinates":[-148.737333,-24.714333]}},{"type":"feature","properties":{"country_en":"French Polynesia","name":"Faanui","name_adm0":"Polynésie Française","name_adm1":"Îles sous le Vent","name_adm2":"Bora-Bora","name_en":"Faanui"},"geometry":{"type":"Point","coordinates":[-151.75,-16.48333]}},{"type":"feature","properties":{"country_en":"French Polynesia","name":"Kaukura","name_adm0":"Polynésie Française","name_adm1":"Tuamotu-Gambier","name_adm2":"Arutua","name_en":"Kaukura"},"geometry":{"type":"Point","coordinates":[-146.882057,-15.6590725]}},{"type":"feature","properties":{"country_en":"French Polynesia","name":"Raivavae","name_adm0":"Polynésie Française","name_adm1":"Australes","name_adm2":"Raivavae","name_en":"Raivavae"},"geometry":{"type":"Point","coordinates":[-148.737333,-24.714333]}},{"type":"feature","properties":{"country_en":"French Polynesia","name":"Nukutavake","name_adm0":"Polynésie Française","name_adm1":"Tuamotu-Gambier","name_adm2":"Nukutavake","name_en":"Nukutavake"},"geometry":{"type":"Point","coordinates":[-145.62377899999998,-16.081939]}},{"type":"feature","properties":{"country_en":"French Polynesia","name":"Fare","name_adm0":"Polynésie Française","name_adm1":"Îles sous le Vent","name_adm2":"Huahine","name_en":"Fare"},"geometry":{"type":"Point","coordinates":[-151.01667,-16.7]}}]}