{"type":"FeatureCollection","features":[{"type":"feature","properties":{"country_en":"Serbia","name":"Klenak","name_adm0":"Serbia","name_adm1":"Srem","name_en":"Klenak"},"geometry":{"type":"Point","coordinates":[19.71004,44.78846]}},{"type":"feature","properties":{"country_en":"Serbia","name":"Krnjača","name_adm0":"Serbia","name_adm1":"Zlatibor","name_en":"Granica"},"geometry":{"type":"Point","coordinates":[19.40718,43.42016]}},{"type":"feature","properties":{"country_en":"Serbia","name":"Vitomirica","name_adm0":"Serbia","name_adm1":"Pech","name_en":"Vitomirica"},"geometry":{"type":"Point","coordinates":[20.322666,42.698305]}},{"type":"feature","properties":{"country_en":"Serbia","name":"Aµanja","name_adm0":"Serbia","name_adm1":"Srem","name_en":"Aµanja"},"geometry":{"type":"Point","coordinates":[20.87972,44.43306]}},{"type":"feature","properties":{"country_en":"Serbia","name":"Čenta","name_adm0":"Serbia","name_adm1":"Beograd","name_en":"Csenta"},"geometry":{"type":"Point","coordinates":[20.389459999999996,45.10814]}},{"type":"feature","properties":{"country_en":"Serbia","name":"Moµorin","name_adm0":"Serbia","name_adm1":"Juzhna Bachka","name_en":"Moµorin"},"geometry":{"type":"Point","coordinates":[20.16919,45.301959999999994]}},{"type":"feature","properties":{"country_en":"Serbia","name":"Meða","name_adm0":"Serbia","name_adm1":"Srednji Banat","name_en":"Pardanj"},"geometry":{"type":"Point","coordinates":[20.80677,45.53815]}},{"type":"feature","properties":{"country_en":"Serbia","name":"Porodin","name_adm0":"Serbia","name_adm1":"Branichevo","name_en":"Porodin"},"geometry":{"type":"Point","coordinates":[21.220959999999998,44.31713]}},{"type":"feature","properties":{"country_en":"Serbia","name":"Planinica","name_adm0":"Serbia","name_adm1":"Zajechar","name_en":"Planinica"},"geometry":{"type":"Point","coordinates":[22.11771,43.83629]}},{"type":"feature","properties":{"country_en":"Serbia","name":"Stubline","name_adm0":"Serbia","name_adm1":"Beograd","name_en":"Stubline"},"geometry":{"type":"Point","coordinates":[20.13477,44.57476]}},{"type":"feature","properties":{"country_en":"Serbia","name":"Strojkovce","name_adm0":"Serbia","name_adm1":"Jablanica","name_en":"Strojkovac"},"geometry":{"type":"Point","coordinates":[21.92194,42.90388999999999]}},{"type":"feature","properties":{"country_en":"Serbia","name":"Velika Greda","name_adm0":"Serbia","name_adm1":"Juzhni Banat","name_en":"Velika Greda"},"geometry":{"type":"Point","coordinates":[21.03498,45.24376]}},{"type":"feature","properties":{"country_en":"Serbia","name":"Velika Drenova","name_adm0":"Serbia","name_adm1":"Rasina","name_en":"Velika Drenova"},"geometry":{"type":"Point","coordinates":[21.12995,43.62691]}},{"type":"feature","properties":{"country_en":"Serbia","name":"Tulare","name_adm0":"Serbia","name_adm1":"Jablanica","name_en":"Tulari"},"geometry":{"type":"Point","coordinates":[21.460539999999998,42.79417]}},{"type":"feature","properties":{"country_en":"Serbia","name":"Vojvoda Stepa","name_adm0":"Serbia","name_adm1":"Srednji Banat","name_en":"Vojvoda Stepa"},"geometry":{"type":"Point","coordinates":[20.65536,45.68537]}},{"type":"feature","properties":{"country_en":"Serbia","name":"Gornja Lisina","name_adm0":"Serbia","name_adm1":"Pchinja","name_en":"Gornja Lisina"},"geometry":{"type":"Point","coordinates":[22.035819999999998,43.03218]}},{"type":"feature","properties":{"country_en":"Serbia","name":"Veliki Popović","name_adm0":"Serbia","name_adm1":"Pomoravlje","name_en":"Veliki Popović"},"geometry":{"type":"Point","coordinates":[21.3573,44.11788]}},{"type":"feature","properties":{"country_en":"Serbia","name":"Bavaniµte","name_adm0":"Serbia","name_adm1":"Juzhni Banat","name_en":"Bavaniµte"},"geometry":{"type":"Point","coordinates":[20.87654,44.819069999999996]}},{"type":"feature","properties":{"country_en":"Serbia","name":"Belaje","name_adm0":"Serbia","name_adm1":"Pech","name_en":"Belaje"},"geometry":{"type":"Point","coordinates":[20.26051,43.10741]}},{"type":"feature","properties":{"country_en":"Serbia","name":"Belanovica","name_adm0":"Serbia","name_adm1":"Kolubara","name_en":"Belanovica"},"geometry":{"type":"Point","coordinates":[20.39613,44.24947]}},{"type":"feature","properties":{"country_en":"Serbia","name":"Drlače","name_adm0":"Serbia","name_adm1":"Machva","name_en":"Drlače"},"geometry":{"type":"Point","coordinates":[19.48887,44.14324]}},{"type":"feature","properties":{"country_en":"Serbia","name":"Duboka","name_adm0":"Serbia","name_adm1":"Branichevo","name_en":"Donja Duboka"},"geometry":{"type":"Point","coordinates":[21.275329999999997,44.07092]}},{"type":"feature","properties":{"country_en":"Serbia","name":"Dubravica","name_adm0":"Serbia","name_adm1":"Podunavlje","name_en":"Dubravica"},"geometry":{"type":"Point","coordinates":[21.08017,44.69636]}},{"type":"feature","properties":{"country_en":"Serbia","name":"Kosjeric","name_adm0":"Serbia","name_adm1":"Zlatibor","name_en":"Kosjeric"},"geometry":{"type":"Point","coordinates":[19.37528,42.74611]}},{"type":"feature","properties":{"country_en":"Serbia","name":"Jabuka","name_adm0":"Serbia","name_adm1":"Juzhni Banat","name_en":"Jabuka"},"geometry":{"type":"Point","coordinates":[20.59981,44.94921999999999]}},{"type":"feature","properties":{"country_en":"Serbia","name":"Korenita","name_adm0":"Serbia","name_adm1":"Machva","name_en":"Korenita"},"geometry":{"type":"Point","coordinates":[19.289049999999996,44.51215]}},{"type":"feature","properties":{"country_en":"Serbia","name":"Konak","name_adm0":"Serbia","name_adm1":"Juzhni Banat","name_en":"Kanak"},"geometry":{"type":"Point","coordinates":[20.914679999999997,45.31575]}},{"type":"feature","properties":{"country_en":"Serbia","name":"Novo Brdo","name_adm0":"Serbia","name_adm1":"Kosovo","name_en":"Novo Brdo"},"geometry":{"type":"Point","coordinates":[21.434049999999996,42.6159]}},{"type":"feature","properties":{"country_en":"Serbia","name":"Novo Selo","name_adm0":"Serbia","name_adm1":"Pech","name_en":"Novo Selo"},"geometry":{"type":"Point","coordinates":[20.795559999999995,42.73528]}},{"type":"feature","properties":{"country_en":"Serbia","name":"Ogoµte","name_adm0":"Serbia","name_adm1":"Kosovsko Pomoravlje","name_en":"Ogoµte"},"geometry":{"type":"Point","coordinates":[22.20833,42.30833]}},{"type":"feature","properties":{"country_en":"Serbia","name":"Petlovača","name_adm0":"Serbia","name_adm1":"Machva","name_en":"Petlovača"},"geometry":{"type":"Point","coordinates":[19.44673,44.72223999999999]}},{"type":"feature","properties":{"country_en":"Serbia","name":"Skivjane","name_adm0":"Serbia","name_adm1":"Pech","name_en":"Skivljane"},"geometry":{"type":"Point","coordinates":[20.38306,42.43082999999999]}},{"type":"feature","properties":{"country_en":"Serbia","name":"Orlovat","name_adm0":"Serbia","name_adm1":"Srednji Banat","name_en":"Orlovat"},"geometry":{"type":"Point","coordinates":[20.580889999999997,45.24171]}},{"type":"feature","properties":{"country_en":"Serbia","name":"Kopaonik","name_adm0":"Serbia","name_adm1":"Rashka","name_adm2":"Raška","name_en":"Kopaonik"},"geometry":{"type":"Point","coordinates":[20.80918,43.28602]}},{"type":"feature","properties":{"country_en":"Serbia","name":"Dobrica","name_adm0":"Serbia","name_adm1":"Juzhni Banat","name_en":"Dobrica"},"geometry":{"type":"Point","coordinates":[20.84995,45.21339]}},{"type":"feature","properties":{"country_en":"Serbia","name":"Medveða","name_adm0":"Serbia","name_adm1":"Pomoravlje","name_en":"Medvedja"},"geometry":{"type":"Point","coordinates":[21.342959999999998,44.150879999999994]}},{"type":"feature","properties":{"country_en":"Serbia","name":"Kolut","name_adm0":"Serbia","name_adm1":"Zapadna Bachka","name_en":"Kolut"},"geometry":{"type":"Point","coordinates":[18.9276,45.89292]}},{"type":"feature","properties":{"country_en":"Serbia","name":"Banjica","name_adm0":"Serbia","name_adm1":"Beograd","name_en":"Banjica"},"geometry":{"type":"Point","coordinates":[20.469,44.75375]}},{"type":"feature","properties":{"country_en":"Serbia","name":"Shumadija","name_adm0":"Serbia","name_adm1":"Shumadija","name_en":"Shumadija"},"geometry":{"type":"Point","coordinates":[20.731039,44.020560999999994]}},{"type":"feature","properties":{"country_en":"Serbia","name":"Dobanovci","name_adm0":"Serbia","name_adm1":"Beograd","name_en":"Dobanovci"},"geometry":{"type":"Point","coordinates":[20.22487,44.82630999999999]}},{"type":"feature","properties":{"country_en":"Serbia","name":"Pocerski Pricinovic","name_adm0":"Serbia","name_adm1":"Machva","name_en":"Pocerski Pricinovic"},"geometry":{"type":"Point","coordinates":[19.70722,44.72222]}},{"type":"feature","properties":{"country_en":"Serbia","name":"Ajnovce","name_adm0":"Serbia","name_adm1":"Kosovsko Pomoravlje","name_en":"Harnovce"},"geometry":{"type":"Point","coordinates":[21.546669999999995,42.62917]}},{"type":"feature","properties":{"country_en":"Serbia","name":"Vrnjačka Banja","name_adm0":"Serbia","name_adm1":"Rashka","name_en":"Vrnjačka Banja"},"geometry":{"type":"Point","coordinates":[20.912132,43.61397199999999]}},{"type":"feature","properties":{"country_en":"Serbia","name":"Vrµac","name_adm0":"Serbia","name_adm1":"Juzhni Banat","name_en":"Werschetz"},"geometry":{"type":"Point","coordinates":[21.295452,45.117476]}},{"type":"feature","properties":{"country_en":"Serbia","name":"Kalenić","name_adm0":"Serbia","name_adm1":"Pomoravlje","name_en":"Kalenić"},"geometry":{"type":"Point","coordinates":[21.60328,43.44919]}},{"type":"feature","properties":{"country_en":"Serbia","name":"Orom","name_adm0":"Serbia","name_adm1":"Severni Banat","name_en":"Orom"},"geometry":{"type":"Point","coordinates":[19.83458,45.97714]}},{"type":"feature","properties":{"country_en":"Serbia","name":"Popučke","name_adm0":"Serbia","name_adm1":"Kolubara","name_en":"Popučke"},"geometry":{"type":"Point","coordinates":[19.954159999999998,44.29284]}},{"type":"feature","properties":{"country_en":"Serbia","name":"Treµnjevac","name_adm0":"Serbia","name_adm1":"Severni Banat","name_en":"Treµnjevac"},"geometry":{"type":"Point","coordinates":[19.986329999999995,45.978899999999996]}},{"type":"feature","properties":{"country_en":"Serbia","name":"Treµnjevica","name_adm0":"Serbia","name_adm1":"Pomoravlje","name_en":"Treµnjevica"},"geometry":{"type":"Point","coordinates":[21.32512,43.86999]}},{"type":"feature","properties":{"country_en":"Serbia","name":"Prizren","name_adm0":"Serbia","name_adm1":"Prizren","name_en":"Prizren"},"geometry":{"type":"Point","coordinates":[20.7511135,42.232076]}},{"type":"feature","properties":{"country_en":"Serbia","name":"Novi Pazar","name_adm0":"Serbia","name_adm1":"Rashka","name_en":"Yeni Pazar"},"geometry":{"type":"Point","coordinates":[20.516939,43.144835]}},{"type":"feature","properties":{"country_en":"Serbia","name":"Batajnica","name_adm0":"Serbia","name_adm1":"Beograd","name_en":"Batajnica"},"geometry":{"type":"Point","coordinates":[20.28019,44.90319]}},{"type":"feature","properties":{"country_en":"Serbia","name":"Blace","name_adm0":"Serbia","name_adm1":"Prizren","name_en":"Blace"},"geometry":{"type":"Point","coordinates":[21.332779999999996,42.15222]}},{"type":"feature","properties":{"country_en":"Serbia","name":"Magura","name_adm0":"Serbia","name_adm1":"Kosovo","name_en":"Magura"},"geometry":{"type":"Point","coordinates":[21.010229999999996,42.53936]}},{"type":"feature","properties":{"country_en":"Serbia","name":"Ždrelo","name_adm0":"Serbia","name_adm1":"Branichevo","name_en":"Ždrelo"},"geometry":{"type":"Point","coordinates":[21.50376,44.29536999999999]}},{"type":"feature","properties":{"country_en":"Serbia","name":"Toplica","name_adm0":"Serbia","name_adm1":"Toplica","name_en":"Toplica"},"geometry":{"type":"Point","coordinates":[21.400508,43.020713]}},{"type":"feature","properties":{"country_en":"Serbia","name":"Pomoravlje","name_adm0":"Serbia","name_adm1":"Pomoravlje","name_en":"Pomoravlje"},"geometry":{"type":"Point","coordinates":[21.563414999999996,43.992814]}},{"type":"feature","properties":{"country_en":"Serbia","name":"Lubnica","name_adm0":"Serbia","name_adm1":"Zajechar","name_en":"Lubnica"},"geometry":{"type":"Point","coordinates":[22.19723,43.86734]}},{"type":"feature","properties":{"country_en":"Serbia","name":"Luka","name_adm0":"Serbia","name_adm1":"Bor","name_en":"Luke"},"geometry":{"type":"Point","coordinates":[22.18357,44.17028]}},{"type":"feature","properties":{"country_en":"Serbia","name":"Klupci","name_adm0":"Serbia","name_adm1":"Machva","name_en":"Klupci"},"geometry":{"type":"Point","coordinates":[19.24549,44.5385]}},{"type":"feature","properties":{"country_en":"Serbia","name":"Vranje","name_adm0":"Serbia","name_adm1":"Pchinja","name_en":"Vranya"},"geometry":{"type":"Point","coordinates":[21.58582,42.9983]}},{"type":"feature","properties":{"country_en":"Serbia","name":"Zaječar","name_adm0":"Serbia","name_adm1":"Zajechar","name_en":"Zaječar"},"geometry":{"type":"Point","coordinates":[22.273149,43.902801]}},{"type":"feature","properties":{"country_en":"Serbia","name":"Požarevac","name_adm0":"Serbia","name_adm1":"Branichevo","name_adm2":"Požarevac","name_en":"Požarevac"},"geometry":{"type":"Point","coordinates":[21.18782,44.62133]}},{"type":"feature","properties":{"country_en":"Serbia","name":"Priµtina","name_adm0":"Serbia","name_adm1":"Kosovo","name_en":"Pristina"},"geometry":{"type":"Point","coordinates":[21.16688,42.67272]}},{"type":"feature","properties":{"country_en":"Serbia","name":"Žur","name_adm0":"Serbia","name_adm1":"Prizren","name_en":"Žur"},"geometry":{"type":"Point","coordinates":[20.62111,42.16389]}},{"type":"feature","properties":{"country_en":"Serbia","name":"Perlez","name_adm0":"Serbia","name_adm1":"Srednji Banat","name_en":"Perlasz"},"geometry":{"type":"Point","coordinates":[20.38197,45.20813]}},{"type":"feature","properties":{"country_en":"Serbia","name":"Azanja","name_adm0":"Serbia","name_adm1":"Podunavlje","name_en":"Azanja"},"geometry":{"type":"Point","coordinates":[20.87972,44.43306]}},{"type":"feature","properties":{"country_en":"Serbia","name":"Vranjska Banja","name_adm0":"Serbia","name_adm1":"Pchinja","name_en":"Banja"},"geometry":{"type":"Point","coordinates":[22.333609999999997,41.91139]}},{"type":"feature","properties":{"country_en":"Serbia","name":"Boµnjane","name_adm0":"Serbia","name_adm1":"Pomoravlje","name_en":"Boµnjane"},"geometry":{"type":"Point","coordinates":[21.47615,43.88981]}},{"type":"feature","properties":{"country_en":"Serbia","name":"Krajkovac","name_adm0":"Serbia","name_adm1":"Nishava","name_en":"Krajkovac"},"geometry":{"type":"Point","coordinates":[21.65296,43.34207]}},{"type":"feature","properties":{"country_en":"Serbia","name":"Krivi Vir","name_adm0":"Serbia","name_adm1":"Zajechar","name_en":"Krivi Vir"},"geometry":{"type":"Point","coordinates":[21.74898,43.82306]}},{"type":"feature","properties":{"country_en":"Serbia","name":"Kusić","name_adm0":"Serbia","name_adm1":"Juzhni Banat","name_en":"Kusić"},"geometry":{"type":"Point","coordinates":[21.47919,44.87671]}},{"type":"feature","properties":{"country_en":"Serbia","name":"Sjenica","name_adm0":"Serbia","name_adm1":"Zlatibor","name_en":"Sjenica"},"geometry":{"type":"Point","coordinates":[19.41944,42.73667]}},{"type":"feature","properties":{"country_en":"Serbia","name":"Ub","name_adm0":"Serbia","name_adm1":"Kolubara","name_en":"Ub"},"geometry":{"type":"Point","coordinates":[19.673789999999997,43.954319999999996]}},{"type":"feature","properties":{"country_en":"Serbia","name":"Å imanovci","name_adm0":"Serbia","name_adm1":"Srem","name_en":"Å imanovci"},"geometry":{"type":"Point","coordinates":[20.09175,44.87393]}},{"type":"feature","properties":{"country_en":"Serbia","name":"Kladovo","name_adm0":"Serbia","name_adm1":"Bor","name_en":"Kladovo"},"geometry":{"type":"Point","coordinates":[22.653036,44.623447]}},{"type":"feature","properties":{"country_en":"Serbia","name":"Vrbnica","name_adm0":"Serbia","name_adm1":"Prizren","name_en":"Vrbnica"},"geometry":{"type":"Point","coordinates":[20.84083,42.83278]}},{"type":"feature","properties":{"country_en":"Serbia","name":"Gornji Streoc","name_adm0":"Serbia","name_adm1":"Pech","name_en":"Gornji Streoci"},"geometry":{"type":"Point","coordinates":[20.72361,42.87417]}},{"type":"feature","properties":{"country_en":"Serbia","name":"Gradac","name_adm0":"Serbia","name_adm1":"Rashka","name_en":"Gradac"},"geometry":{"type":"Point","coordinates":[20.31876,43.38293]}},{"type":"feature","properties":{"country_en":"Serbia","name":"Groµnica","name_adm0":"Serbia","name_adm1":"Shumadija","name_en":"Groµnica"},"geometry":{"type":"Point","coordinates":[20.875969999999995,43.95401999999999]}},{"type":"feature","properties":{"country_en":"Serbia","name":"Jabučje","name_adm0":"Serbia","name_adm1":"Kolubara","name_en":"Jabučje"},"geometry":{"type":"Point","coordinates":[20.20164,44.40252]}},{"type":"feature","properties":{"country_en":"Serbia","name":"Rakova Bara","name_adm0":"Serbia","name_adm1":"Branichevo","name_en":"Raka Bara"},"geometry":{"type":"Point","coordinates":[21.670229999999997,44.55669]}},{"type":"feature","properties":{"country_en":"Serbia","name":"Ralja","name_adm0":"Serbia","name_adm1":"Beograd","name_en":"Ralja"},"geometry":{"type":"Point","coordinates":[20.56222,44.57222]}},{"type":"feature","properties":{"country_en":"Serbia","name":"Ratkovac","name_adm0":"Serbia","name_adm1":"Prizren","name_en":"Ratkovce"},"geometry":{"type":"Point","coordinates":[20.53972,42.40944]}},{"type":"feature","properties":{"country_en":"Serbia","name":"Saraorci","name_adm0":"Serbia","name_adm1":"Podunavlje","name_en":"Saraorci"},"geometry":{"type":"Point","coordinates":[21.08156,44.49051]}},{"type":"feature","properties":{"country_en":"Serbia","name":"Savino Selo","name_adm0":"Serbia","name_adm1":"Juzhna Bachka","name_en":"Savino Selo"},"geometry":{"type":"Point","coordinates":[19.52234,45.50657]}},{"type":"feature","properties":{"country_en":"Serbia","name":"Vlasotince","name_adm0":"Serbia","name_adm1":"Jablanica","name_en":"Vlasotinci"},"geometry":{"type":"Point","coordinates":[21.7859,43.02325]}},{"type":"feature","properties":{"country_en":"Serbia","name":"Mosna","name_adm0":"Serbia","name_adm1":"Bor","name_en":"Mosna"},"geometry":{"type":"Point","coordinates":[22.18056,44.44694]}},{"type":"feature","properties":{"country_en":"Serbia","name":"Ruski Krstur","name_adm0":"Serbia","name_adm1":"Zapadna Bachka","name_en":"Ruski Krstur"},"geometry":{"type":"Point","coordinates":[19.42002,45.56392]}},{"type":"feature","properties":{"country_en":"Serbia","name":"Žitni Potok","name_adm0":"Serbia","name_adm1":"Toplica","name_en":"Žitni Potok"},"geometry":{"type":"Point","coordinates":[21.57476,43.09021]}},{"type":"feature","properties":{"country_en":"Serbia","name":"Biljača","name_adm0":"Serbia","name_adm1":"Pchinja","name_en":"Biljača"},"geometry":{"type":"Point","coordinates":[21.74782,42.35518]}},{"type":"feature","properties":{"country_en":"Serbia","name":"Duga Poljana","name_adm0":"Serbia","name_adm1":"Rashka","name_en":"Duga Poljana"},"geometry":{"type":"Point","coordinates":[20.22778,43.25151999999999]}},{"type":"feature","properties":{"country_en":"Serbia","name":"Boka","name_adm0":"Serbia","name_adm1":"Srednji Banat","name_en":"Boka"},"geometry":{"type":"Point","coordinates":[20.82987,45.3554]}},{"type":"feature","properties":{"country_en":"Serbia","name":"Jaša Tomić","name_adm0":"Serbia","name_adm1":"Srednji Banat","name_en":"Jaša Tomić"},"geometry":{"type":"Point","coordinates":[20.85546,45.44725]}},{"type":"feature","properties":{"country_en":"Serbia","name":"Kamenica","name_adm0":"Serbia","name_adm1":"Kolubara","name_en":"Ravno Brdo"},"geometry":{"type":"Point","coordinates":[20.17389,43.93455]}},{"type":"feature","properties":{"country_en":"Serbia","name":"Klina","name_adm0":"Serbia","name_adm1":"Pech","name_en":"Kliha"},"geometry":{"type":"Point","coordinates":[20.6,42.63472]}},{"type":"feature","properties":{"country_en":"Serbia","name":"Rumenka","name_adm0":"Serbia","name_adm1":"Juzhna Bachka","name_en":"Rumenka"},"geometry":{"type":"Point","coordinates":[19.74306,45.294]}},{"type":"feature","properties":{"country_en":"Serbia","name":"Ratkovo","name_adm0":"Serbia","name_adm1":"Zapadna Bachka","name_en":"Dubrave"},"geometry":{"type":"Point","coordinates":[19.33728,45.45566]}},{"type":"feature","properties":{"country_en":"Serbia","name":"Morović","name_adm0":"Serbia","name_adm1":"Srem","name_en":"Morović"},"geometry":{"type":"Point","coordinates":[19.21509,45.00986999999999]}},{"type":"feature","properties":{"country_en":"Serbia","name":"Srpski Itebej","name_adm0":"Serbia","name_adm1":"Srednji Banat","name_en":"Itebej"},"geometry":{"type":"Point","coordinates":[20.7135,45.56716]}},{"type":"feature","properties":{"country_en":"Serbia","name":"Sebečevo","name_adm0":"Serbia","name_adm1":"Rashka","name_en":"Sebečevo"},"geometry":{"type":"Point","coordinates":[20.42444,43.09914]}},{"type":"feature","properties":{"country_en":"Serbia","name":"Grocka","name_adm0":"Serbia","name_adm1":"Beograd","name_en":"Grocka"},"geometry":{"type":"Point","coordinates":[20.716781,44.670423]}},{"type":"feature","properties":{"country_en":"Serbia","name":"Indjija","name_adm0":"Serbia","name_adm1":"Srem","name_en":"Jndjija"},"geometry":{"type":"Point","coordinates":[20.127639,45.074186499999996]}},{"type":"feature","properties":{"country_en":"Serbia","name":"Topola","name_adm0":"Serbia","name_adm1":"Shumadija","name_en":"Topola"},"geometry":{"type":"Point","coordinates":[20.65694,44.84861]}},{"type":"feature","properties":{"country_en":"Serbia","name":"Drača","name_adm0":"Serbia","name_adm1":"Shumadija","name_en":"Drača"},"geometry":{"type":"Point","coordinates":[20.80783,44.03257]}},{"type":"feature","properties":{"country_en":"Serbia","name":"Dragaµ","name_adm0":"Serbia","name_adm1":"Prizren","name_en":"Dragaµ"},"geometry":{"type":"Point","coordinates":[20.37048,42.9027]}},{"type":"feature","properties":{"country_en":"Serbia","name":"Drenovac","name_adm0":"Serbia","name_adm1":"Kosovo","name_en":"Drenovce"},"geometry":{"type":"Point","coordinates":[21.10917,42.74381]}},{"type":"feature","properties":{"country_en":"Serbia","name":"Gajdobra","name_adm0":"Serbia","name_adm1":"Juzhna Bachka","name_en":"Gajdobra"},"geometry":{"type":"Point","coordinates":[19.44577,45.3506]}},{"type":"feature","properties":{"country_en":"Serbia","name":"Glavnik","name_adm0":"Serbia","name_adm1":"Kosovo","name_en":"Glavnik"},"geometry":{"type":"Point","coordinates":[21.185369999999995,42.8713]}},{"type":"feature","properties":{"country_en":"Serbia","name":"Požaranje","name_adm0":"Serbia","name_adm1":"Kosovsko Pomoravlje","name_en":"Požaranje"},"geometry":{"type":"Point","coordinates":[21.34028,42.36583]}},{"type":"feature","properties":{"country_en":"Serbia","name":"Radalj","name_adm0":"Serbia","name_adm1":"Machva","name_en":"Radalj"},"geometry":{"type":"Point","coordinates":[19.1832,44.40398]}},{"type":"feature","properties":{"country_en":"Serbia","name":"Ribare","name_adm0":"Serbia","name_adm1":"Nishava","name_en":"Ribare"},"geometry":{"type":"Point","coordinates":[22.14579,43.39253999999999]}},{"type":"feature","properties":{"country_en":"Serbia","name":"Drenovac","name_adm0":"Serbia","name_adm1":"Pchinja","name_en":"Drenovac"},"geometry":{"type":"Point","coordinates":[21.883189999999995,42.63113]}},{"type":"feature","properties":{"country_en":"Serbia","name":"Suva Reka","name_adm0":"Serbia","name_adm1":"Prizren","name_en":"Suha Reka"},"geometry":{"type":"Point","coordinates":[20.821666,42.356514]}},{"type":"feature","properties":{"country_en":"Serbia","name":"Brestovac","name_adm0":"Serbia","name_adm1":"Bor","name_en":"Brestovac"},"geometry":{"type":"Point","coordinates":[22.40538,44.1836]}},{"type":"feature","properties":{"country_en":"Serbia","name":"Vojka","name_adm0":"Serbia","name_adm1":"Srem","name_en":"Vojka"},"geometry":{"type":"Point","coordinates":[20.15236,44.937129999999996]}},{"type":"feature","properties":{"country_en":"Serbia","name":"Mataruµka Banja","name_adm0":"Serbia","name_adm1":"Rashka","name_en":"Banja Mataruge"},"geometry":{"type":"Point","coordinates":[20.61007,43.68816]}},{"type":"feature","properties":{"country_en":"Serbia","name":"Cacak","name_adm0":"Serbia","name_adm1":"Moravica","name_adm2":"Cacak","name_en":"Cacak"},"geometry":{"type":"Point","coordinates":[20.34972,43.89139]}},{"type":"feature","properties":{"country_en":"Serbia","name":"Hrtkovci","name_adm0":"Serbia","name_adm1":"Srem","name_en":"Srbislavci"},"geometry":{"type":"Point","coordinates":[19.76374,44.88154999999999]}},{"type":"feature","properties":{"country_en":"Serbia","name":"Surdulica","name_adm0":"Serbia","name_adm1":"Pchinja","name_en":"Surdulica"},"geometry":{"type":"Point","coordinates":[21.28806,42.84944]}},{"type":"feature","properties":{"country_en":"Serbia","name":"Platičevo","name_adm0":"Serbia","name_adm1":"Srem","name_en":"Platičevo"},"geometry":{"type":"Point","coordinates":[19.79487,44.82213]}},{"type":"feature","properties":{"country_en":"Serbia","name":"Kragujevac","name_adm0":"Serbia","name_adm1":"Shumadija","name_en":"Kragiyevac"},"geometry":{"type":"Point","coordinates":[20.91667,44.01666999999999]}},{"type":"feature","properties":{"country_en":"Serbia","name":"Banjska","name_adm0":"Serbia","name_adm1":"Kosovska Mitrovica","name_en":"Banjska"},"geometry":{"type":"Point","coordinates":[20.95389,42.85860999999999]}},{"type":"feature","properties":{"country_en":"Serbia","name":"Ravna Banja","name_adm0":"Serbia","name_adm1":"Jablanica","name_en":"Ravna Banja"},"geometry":{"type":"Point","coordinates":[21.65701,42.74645]}},{"type":"feature","properties":{"country_en":"Serbia","name":"Simićevo","name_adm0":"Serbia","name_adm1":"Branichevo","name_en":"Rakinac"},"geometry":{"type":"Point","coordinates":[21.21072,44.39331]}},{"type":"feature","properties":{"country_en":"Serbia","name":"Zapadna Bachka","name_adm0":"Serbia","name_adm1":"Zapadna Bachka","name_en":"Zapadna Bachka"},"geometry":{"type":"Point","coordinates":[19.13269,45.71385]}},{"type":"feature","properties":{"country_en":"Serbia","name":"Brodarevo","name_adm0":"Serbia","name_adm1":"Zlatibor","name_en":"Brodarevo"},"geometry":{"type":"Point","coordinates":[19.71958,43.22897]}},{"type":"feature","properties":{"country_en":"Serbia","name":"Debeljača","name_adm0":"Serbia","name_adm1":"Juzhni Banat","name_en":"Debeljača"},"geometry":{"type":"Point","coordinates":[20.60153,45.070699999999995]}},{"type":"feature","properties":{"country_en":"Serbia","name":"Jarak","name_adm0":"Serbia","name_adm1":"Machva","name_en":"Jarak"},"geometry":{"type":"Point","coordinates":[19.75477,44.91843]}},{"type":"feature","properties":{"country_en":"Serbia","name":"Vranić","name_adm0":"Serbia","name_adm1":"Prizren","name_en":"Vranić"},"geometry":{"type":"Point","coordinates":[20.96778,42.78833]}},{"type":"feature","properties":{"country_en":"Serbia","name":"Klek","name_adm0":"Serbia","name_adm1":"Srednji Banat","name_en":"Klek"},"geometry":{"type":"Point","coordinates":[20.48049,45.42254]}},{"type":"feature","properties":{"country_en":"Serbia","name":"Futog","name_adm0":"Serbia","name_adm1":"Juzhna Bachka","name_en":"Futak"},"geometry":{"type":"Point","coordinates":[19.71416,45.23874]}},{"type":"feature","properties":{"country_en":"Serbia","name":"Bačko Petrovo Selo","name_adm0":"Serbia","name_adm1":"Juzhna Bachka","name_en":"Bačko Petrovo Selo"},"geometry":{"type":"Point","coordinates":[20.079279999999997,45.70682]}},{"type":"feature","properties":{"country_en":"Serbia","name":"Gračanica","name_adm0":"Serbia","name_adm1":"Machva","name_en":"Gračanica"},"geometry":{"type":"Point","coordinates":[19.37987,44.49208]}},{"type":"feature","properties":{"country_en":"Serbia","name":"Gaj","name_adm0":"Serbia","name_adm1":"Juzhni Banat","name_en":"Gaj"},"geometry":{"type":"Point","coordinates":[21.065879999999996,44.79526]}},{"type":"feature","properties":{"country_en":"Serbia","name":"Gnjilane","name_adm0":"Serbia","name_adm1":"Kosovsko Pomoravlje","name_en":"Gilan"},"geometry":{"type":"Point","coordinates":[21.475181,42.469374]}},{"type":"feature","properties":{"country_en":"Serbia","name":"Lipljan","name_adm0":"Serbia","name_adm1":"Kosovo","name_en":"Lipljane"},"geometry":{"type":"Point","coordinates":[21.140097999999995,42.520446]}},{"type":"feature","properties":{"country_en":"Serbia","name":"Ljig","name_adm0":"Serbia","name_adm1":"Kolubara","name_en":"Ljig"},"geometry":{"type":"Point","coordinates":[20.22789,44.220721999999995]}},{"type":"feature","properties":{"country_en":"Serbia","name":"Kotraža","name_adm0":"Serbia","name_adm1":"Moravica","name_en":"Kotraža"},"geometry":{"type":"Point","coordinates":[20.52555,43.33748]}},{"type":"feature","properties":{"country_en":"Serbia","name":"Kovačevac","name_adm0":"Serbia","name_adm1":"Beograd","name_en":"Kovačevac"},"geometry":{"type":"Point","coordinates":[20.73998,44.43995]}},{"type":"feature","properties":{"country_en":"Serbia","name":"Kruµevac","name_adm0":"Serbia","name_adm1":"Pech","name_en":"Kruµevac"},"geometry":{"type":"Point","coordinates":[21.08298,42.66897999999999]}},{"type":"feature","properties":{"country_en":"Serbia","name":"Omoljica","name_adm0":"Serbia","name_adm1":"Juzhni Banat","name_en":"Omoljica"},"geometry":{"type":"Point","coordinates":[20.73407,44.75892]}},{"type":"feature","properties":{"country_en":"Serbia","name":"Bučje","name_adm0":"Serbia","name_adm1":"Zajechar","name_en":"Bučje"},"geometry":{"type":"Point","coordinates":[22.14904,44.13811]}},{"type":"feature","properties":{"country_en":"Serbia","name":"Dobro Polje","name_adm0":"Serbia","name_adm1":"Zajechar","name_en":"Dobro Polje"},"geometry":{"type":"Point","coordinates":[22.02858,43.77157999999999]}},{"type":"feature","properties":{"country_en":"Serbia","name":"Negbina","name_adm0":"Serbia","name_adm1":"Zlatibor","name_en":"Negbina"},"geometry":{"type":"Point","coordinates":[19.79069,43.54177]}},{"type":"feature","properties":{"country_en":"Serbia","name":"Orlate","name_adm0":"Serbia","name_adm1":"Kosovo","name_en":"Orlat"},"geometry":{"type":"Point","coordinates":[21.34333,42.81778]}},{"type":"feature","properties":{"country_en":"Serbia","name":"Radovnica","name_adm0":"Serbia","name_adm1":"Pchinja","name_en":"Radovnica"},"geometry":{"type":"Point","coordinates":[21.89376,42.89407]}},{"type":"feature","properties":{"country_en":"Serbia","name":"Ravniste","name_adm0":"Serbia","name_adm1":"Toplica","name_en":"Ravniste"},"geometry":{"type":"Point","coordinates":[21.559169999999998,42.65749999999999]}},{"type":"feature","properties":{"country_en":"Serbia","name":"Plavna","name_adm0":"Serbia","name_adm1":"Juzhna Bachka","name_en":"Plavna"},"geometry":{"type":"Point","coordinates":[19.12687,45.34911]}},{"type":"feature","properties":{"country_en":"Serbia","name":"Poljna","name_adm0":"Serbia","name_adm1":"Rasina","name_en":"Poljna"},"geometry":{"type":"Point","coordinates":[21.10723,43.71013]}},{"type":"feature","properties":{"country_en":"Serbia","name":"Brodica","name_adm0":"Serbia","name_adm1":"Branichevo","name_en":"Brodica"},"geometry":{"type":"Point","coordinates":[21.82001,44.48987]}},{"type":"feature","properties":{"country_en":"Serbia","name":"Burovac","name_adm0":"Serbia","name_adm1":"Branichevo","name_en":"Burovac"},"geometry":{"type":"Point","coordinates":[21.35778,44.27278]}},{"type":"feature","properties":{"country_en":"Serbia","name":"Popovac","name_adm0":"Serbia","name_adm1":"Pomoravlje","name_en":"Popovac"},"geometry":{"type":"Point","coordinates":[21.50346,43.90946]}},{"type":"feature","properties":{"country_en":"Serbia","name":"Čitluk","name_adm0":"Serbia","name_adm1":"Zajechar","name_en":"Čitluk"},"geometry":{"type":"Point","coordinates":[22.025,43.645]}},{"type":"feature","properties":{"country_en":"Serbia","name":"Crni Vrh","name_adm0":"Serbia","name_adm1":"Pchinja","name_en":"Crni Vrh"},"geometry":{"type":"Point","coordinates":[22.133819999999996,42.5187]}},{"type":"feature","properties":{"country_en":"Serbia","name":"Brestač","name_adm0":"Serbia","name_adm1":"Srem","name_en":"Brestač"},"geometry":{"type":"Point","coordinates":[19.904469999999996,44.86077]}},{"type":"feature","properties":{"country_en":"Serbia","name":"Bački Brestovac","name_adm0":"Serbia","name_adm1":"Zapadna Bachka","name_en":"Bački Brestovac"},"geometry":{"type":"Point","coordinates":[19.27095,45.61822999999999]}},{"type":"feature","properties":{"country_en":"Serbia","name":"Bačko Novo Selo","name_adm0":"Serbia","name_adm1":"Juzhna Bachka","name_en":"Bačko Novo Selo"},"geometry":{"type":"Point","coordinates":[19.14109,45.29337]}},{"type":"feature","properties":{"country_en":"Serbia","name":"Banatsko Aranðelovo","name_adm0":"Serbia","name_adm1":"Severni Banat","name_en":"Banat Aranaelovo"},"geometry":{"type":"Point","coordinates":[20.24243,46.06446]}},{"type":"feature","properties":{"country_en":"Serbia","name":"Beli Potok","name_adm0":"Serbia","name_adm1":"Nishava","name_en":"Beli Potok"},"geometry":{"type":"Point","coordinates":[22.08327,43.53281]}},{"type":"feature","properties":{"country_en":"Serbia","name":"Boževac","name_adm0":"Serbia","name_adm1":"Branichevo","name_en":"Boževac"},"geometry":{"type":"Point","coordinates":[21.394279999999995,44.54182]}},{"type":"feature","properties":{"country_en":"Serbia","name":"Brðani","name_adm0":"Serbia","name_adm1":"Moravica","name_en":"Brgjani"},"geometry":{"type":"Point","coordinates":[20.16056,43.65389]}},{"type":"feature","properties":{"country_en":"Serbia","name":"Donje Brijanje","name_adm0":"Serbia","name_adm1":"Jablanica","name_en":"Donje Brijanje"},"geometry":{"type":"Point","coordinates":[21.817229999999995,43.10054]}},{"type":"feature","properties":{"country_en":"Serbia","name":"Donje Ljupče","name_adm0":"Serbia","name_adm1":"Kosovo","name_en":"Donje Ljupče"},"geometry":{"type":"Point","coordinates":[21.09444,42.85417]}},{"type":"feature","properties":{"country_en":"Serbia","name":"Donji Krivodol","name_adm0":"Serbia","name_adm1":"Pirot","name_en":"Donji Krivodol"},"geometry":{"type":"Point","coordinates":[22.935839999999995,43.10152]}},{"type":"feature","properties":{"country_en":"Serbia","name":"Dragocvet","name_adm0":"Serbia","name_adm1":"Pomoravlje","name_en":"Dragocvet"},"geometry":{"type":"Point","coordinates":[21.213939999999997,43.94036]}},{"type":"feature","properties":{"country_en":"Serbia","name":"Draževac","name_adm0":"Serbia","name_adm1":"Beograd","name_en":"Draževac"},"geometry":{"type":"Point","coordinates":[20.249999999999996,44.59306]}},{"type":"feature","properties":{"country_en":"Serbia","name":"Ðunis","name_adm0":"Serbia","name_adm1":"Rasina","name_en":"Ðunis"},"geometry":{"type":"Point","coordinates":[21.510839999999998,43.59251999999999]}},{"type":"feature","properties":{"country_en":"Serbia","name":"Golemo Selo","name_adm0":"Serbia","name_adm1":"Pchinja","name_en":"Golemo Selo"},"geometry":{"type":"Point","coordinates":[21.86229,42.71327]}},{"type":"feature","properties":{"country_en":"Serbia","name":"Lipar","name_adm0":"Serbia","name_adm1":"Zapadna Bachka","name_en":"Emusitz"},"geometry":{"type":"Point","coordinates":[19.55418,45.70625]}},{"type":"feature","properties":{"country_en":"Serbia","name":"Gornja Treµnjevica","name_adm0":"Serbia","name_adm1":"Shumadija","name_en":"Gornja Treµnjevica"},"geometry":{"type":"Point","coordinates":[20.52963,44.21621]}},{"type":"feature","properties":{"country_en":"Serbia","name":"Grabovac","name_adm0":"Serbia","name_adm1":"Beograd","name_en":"Grabovac"},"geometry":{"type":"Point","coordinates":[20.458409999999997,44.55985999999999]}},{"type":"feature","properties":{"country_en":"Serbia","name":"Jalovik","name_adm0":"Serbia","name_adm1":"Machva","name_en":"Jalovik"},"geometry":{"type":"Point","coordinates":[19.83083,44.62139]}},{"type":"feature","properties":{"country_en":"Serbia","name":"Jelakci","name_adm0":"Serbia","name_adm1":"Rashka","name_en":"Jelakci"},"geometry":{"type":"Point","coordinates":[20.9025,43.13611]}},{"type":"feature","properties":{"country_en":"Serbia","name":"Kaonik","name_adm0":"Serbia","name_adm1":"Rasina","name_en":"Kaonik"},"geometry":{"type":"Point","coordinates":[21.49614,43.56006]}},{"type":"feature","properties":{"country_en":"Serbia","name":"Končulj","name_adm0":"Serbia","name_adm1":"Kosovsko Pomoravlje","name_en":"Končulj"},"geometry":{"type":"Point","coordinates":[21.68738,42.47494]}},{"type":"feature","properties":{"country_en":"Serbia","name":"Korbevac","name_adm0":"Serbia","name_adm1":"Pchinja","name_en":"Korbevac"},"geometry":{"type":"Point","coordinates":[22.11797,42.84587]}},{"type":"feature","properties":{"country_en":"Serbia","name":"Koretin","name_adm0":"Serbia","name_adm1":"Kosovsko Pomoravlje","name_en":"Koretin"},"geometry":{"type":"Point","coordinates":[21.59306,42.55694]}},{"type":"feature","properties":{"country_en":"Serbia","name":"Lepenac","name_adm0":"Serbia","name_adm1":"Rasina","name_en":"Lepenac"},"geometry":{"type":"Point","coordinates":[21.09163,43.34468]}},{"type":"feature","properties":{"country_en":"Serbia","name":"Male Pijace","name_adm0":"Serbia","name_adm1":"Severni Banat","name_en":"Mala Pijaca"},"geometry":{"type":"Point","coordinates":[19.92168,46.06736]}},{"type":"feature","properties":{"country_en":"Serbia","name":"Miločaj","name_adm0":"Serbia","name_adm1":"Rashka","name_en":"Miločaj"},"geometry":{"type":"Point","coordinates":[20.64627,43.79536]}},{"type":"feature","properties":{"country_en":"Serbia","name":"Njegoµevo","name_adm0":"Serbia","name_adm1":"Severna Bachka","name_en":"Njegoµevo"},"geometry":{"type":"Point","coordinates":[19.75348,45.76229]}},{"type":"feature","properties":{"country_en":"Serbia","name":"Pačir","name_adm0":"Serbia","name_adm1":"Severna Bachka","name_en":"Pačir"},"geometry":{"type":"Point","coordinates":[19.44174,45.90024]}},{"type":"feature","properties":{"country_en":"Serbia","name":"Paralovo","name_adm0":"Serbia","name_adm1":"Kosovsko Pomoravlje","name_en":"Paralovo"},"geometry":{"type":"Point","coordinates":[21.353399999999997,43.181459999999994]}},{"type":"feature","properties":{"country_en":"Serbia","name":"Ranovac","name_adm0":"Serbia","name_adm1":"Branichevo","name_en":"Ranovac"},"geometry":{"type":"Point","coordinates":[21.47622,44.44405]}},{"type":"feature","properties":{"country_en":"Serbia","name":"Rudnik","name_adm0":"Serbia","name_adm1":"Kosovska Mitrovica","name_en":"Rudnik"},"geometry":{"type":"Point","coordinates":[20.68972,42.797219999999996]}},{"type":"feature","properties":{"country_en":"Serbia","name":"Salakovac","name_adm0":"Serbia","name_adm1":"Branichevo","name_en":"Salakovac"},"geometry":{"type":"Point","coordinates":[21.270869999999995,44.58832]}},{"type":"feature","properties":{"country_en":"Serbia","name":"Saranovo","name_adm0":"Serbia","name_adm1":"Shumadija","name_en":"Saranovo"},"geometry":{"type":"Point","coordinates":[20.84673,44.22847999999999]}},{"type":"feature","properties":{"country_en":"Serbia","name":"Senjski Rudnik","name_adm0":"Serbia","name_adm1":"Pomoravlje","name_en":"Senjski Rudnici"},"geometry":{"type":"Point","coordinates":[21.569719999999997,43.99582999999999]}},{"type":"feature","properties":{"country_en":"Serbia","name":"Sočanica","name_adm0":"Serbia","name_adm1":"Kosovska Mitrovica","name_en":"Sočanica"},"geometry":{"type":"Point","coordinates":[20.64388,43.58058]}},{"type":"feature","properties":{"country_en":"Serbia","name":"Spance","name_adm0":"Serbia","name_adm1":"Toplica","name_en":"Spanci"},"geometry":{"type":"Point","coordinates":[21.268789999999996,43.19889]}},{"type":"feature","properties":{"country_en":"Serbia","name":"Tovariµevo","name_adm0":"Serbia","name_adm1":"Juzhna Bachka","name_en":"Tovariµevo"},"geometry":{"type":"Point","coordinates":[19.32428,45.35498]}},{"type":"feature","properties":{"country_en":"Serbia","name":"Trbuµani","name_adm0":"Serbia","name_adm1":"Moravica","name_en":"Trbuµani"},"geometry":{"type":"Point","coordinates":[20.31183,43.90802]}},{"type":"feature","properties":{"country_en":"Serbia","name":"Veliki Å iljegovac","name_adm0":"Serbia","name_adm1":"Rasina","name_en":"Veliki Å iljegovac"},"geometry":{"type":"Point","coordinates":[21.529689999999995,43.51901]}},{"type":"feature","properties":{"country_en":"Serbia","name":"Veliko Krčmare","name_adm0":"Serbia","name_adm1":"Shumadija","name_en":"Veliko Krčmare"},"geometry":{"type":"Point","coordinates":[20.90539,44.15765]}},{"type":"feature","properties":{"country_en":"Serbia","name":"Žirovnica","name_adm0":"Serbia","name_adm1":"Shumadija","name_en":"Žirovnica"},"geometry":{"type":"Point","coordinates":[21.026109999999996,44.11785]}},{"type":"feature","properties":{"country_en":"Serbia","name":"Jagodina","name_adm0":"Serbia","name_adm1":"Pomoravlje","name_en":"Svetozarevo"},"geometry":{"type":"Point","coordinates":[21.2628485,43.9804935]}},{"type":"feature","properties":{"country_en":"Serbia","name":"Raška","name_adm0":"Serbia","name_adm1":"Rashka","name_adm2":"Raška","name_en":"Raška"},"geometry":{"type":"Point","coordinates":[20.580825499999996,43.312188]}},{"type":"feature","properties":{"country_en":"Serbia","name":"Bor","name_adm0":"Serbia","name_adm1":"Bor","name_en":"Bor"},"geometry":{"type":"Point","coordinates":[22.314605,44.627007]}},{"type":"feature","properties":{"country_en":"Serbia","name":"Kosovska Mitrovica","name_adm0":"Serbia","name_adm1":"Kosovska Mitrovica","name_en":"Kosovska Mitrovica"},"geometry":{"type":"Point","coordinates":[20.863036999999995,42.8908375]}},{"type":"feature","properties":{"country_en":"Serbia","name":"Jablanica","name_adm0":"Serbia","name_adm1":"Jablanica","name_en":"Jablanica"},"geometry":{"type":"Point","coordinates":[21.8985895,42.9754525]}},{"type":"feature","properties":{"country_en":"Serbia","name":"Podujevo","name_adm0":"Serbia","name_adm1":"Kosovo","name_en":"Podujevo"},"geometry":{"type":"Point","coordinates":[21.193059999999996,42.91055999999999]}},{"type":"feature","properties":{"country_en":"Serbia","name":"Novo Selo","name_adm0":"Serbia","name_adm1":"Rashka","name_en":"Novo Selo"},"geometry":{"type":"Point","coordinates":[20.70706,43.2454]}},{"type":"feature","properties":{"country_en":"Serbia","name":"Gornji Milanovac","name_adm0":"Serbia","name_adm1":"Moravica","name_en":"Gornji Milanovac"},"geometry":{"type":"Point","coordinates":[20.07234,44.16123999999999]}},{"type":"feature","properties":{"country_en":"Serbia","name":"Kostolac","name_adm0":"Serbia","name_adm1":"Branichevo","name_en":"Kostolac"},"geometry":{"type":"Point","coordinates":[21.16929,44.71356]}},{"type":"feature","properties":{"country_en":"Serbia","name":"Padina","name_adm0":"Serbia","name_adm1":"Juzhni Banat","name_en":"Naglajosfalva"},"geometry":{"type":"Point","coordinates":[20.7286,45.11988]}},{"type":"feature","properties":{"country_en":"Serbia","name":"Resnik","name_adm0":"Serbia","name_adm1":"Beograd","name_en":"Resnik"},"geometry":{"type":"Point","coordinates":[20.454859999999996,44.714569999999995]}},{"type":"feature","properties":{"country_en":"Serbia","name":"Lučani","name_adm0":"Serbia","name_adm1":"Moravica","name_en":"Lučani"},"geometry":{"type":"Point","coordinates":[20.191227,43.881438]}},{"type":"feature","properties":{"country_en":"Serbia","name":"Crnajka","name_adm0":"Serbia","name_adm1":"Bor","name_en":"Crnajka"},"geometry":{"type":"Point","coordinates":[22.14228,44.28706]}},{"type":"feature","properties":{"country_en":"Serbia","name":"Peka","name_adm0":"Serbia","name_adm1":"Kolubara","name_en":"Peka"},"geometry":{"type":"Point","coordinates":[20.23511,44.37364]}},{"type":"feature","properties":{"country_en":"Serbia","name":"Aleksandrovac","name_adm0":"Serbia","name_adm1":"Branichevo","name_en":"Prhovo"},"geometry":{"type":"Point","coordinates":[21.2131,44.44925]}},{"type":"feature","properties":{"country_en":"Serbia","name":"Čonoplja","name_adm0":"Serbia","name_adm1":"Zapadna Bachka","name_en":"Csonoplya"},"geometry":{"type":"Point","coordinates":[19.25132,45.81128]}},{"type":"feature","properties":{"country_en":"Serbia","name":"Crna Bara","name_adm0":"Serbia","name_adm1":"Severni Banat","name_en":"Crna Bara"},"geometry":{"type":"Point","coordinates":[20.27614,45.97326]}},{"type":"feature","properties":{"country_en":"Serbia","name":"Crnča","name_adm0":"Serbia","name_adm1":"Machva","name_en":"Crnča"},"geometry":{"type":"Point","coordinates":[19.283589999999997,44.28543]}},{"type":"feature","properties":{"country_en":"Serbia","name":"Stopanja","name_adm0":"Serbia","name_adm1":"Rasina","name_en":"Stopanja"},"geometry":{"type":"Point","coordinates":[21.15016,43.58021999999999]}},{"type":"feature","properties":{"country_en":"Serbia","name":"Varna","name_adm0":"Serbia","name_adm1":"Machva","name_en":"Varna"},"geometry":{"type":"Point","coordinates":[19.7513,44.04362]}},{"type":"feature","properties":{"country_en":"Serbia","name":"Venčane","name_adm0":"Serbia","name_adm1":"Beograd","name_en":"Venčane"},"geometry":{"type":"Point","coordinates":[20.46778,44.40666999999999]}},{"type":"feature","properties":{"country_en":"Serbia","name":"Vitkovac","name_adm0":"Serbia","name_adm1":"Rashka","name_en":"Vitkovac"},"geometry":{"type":"Point","coordinates":[20.78364,43.79479]}},{"type":"feature","properties":{"country_en":"Serbia","name":"Bačka Palanka","name_adm0":"Serbia","name_adm1":"Juzhna Bachka","name_en":"Bačka Palanka"},"geometry":{"type":"Point","coordinates":[19.381942,45.24226099999999]}},{"type":"feature","properties":{"country_en":"Serbia","name":"Duµanovac","name_adm0":"Serbia","name_adm1":"Beograd","name_en":"Duµanovac"},"geometry":{"type":"Point","coordinates":[20.488386,44.7905]}},{"type":"feature","properties":{"country_en":"Serbia","name":"Vračar","name_adm0":"Serbia","name_adm1":"Beograd","name_en":"Vračar"},"geometry":{"type":"Point","coordinates":[20.466699,44.802499]}},{"type":"feature","properties":{"country_en":"Serbia","name":"Čoka","name_adm0":"Serbia","name_adm1":"Severni Banat","name_en":"Čoka"},"geometry":{"type":"Point","coordinates":[20.137252,45.94351]}},{"type":"feature","properties":{"country_en":"Serbia","name":"Despotovac","name_adm0":"Serbia","name_adm1":"Pomoravlje","name_en":"Despotovac"},"geometry":{"type":"Point","coordinates":[21.464624,44.100345]}},{"type":"feature","properties":{"country_en":"Serbia","name":"Kovačica","name_adm0":"Serbia","name_adm1":"Juzhni Banat","name_en":"Antalfalva"},"geometry":{"type":"Point","coordinates":[20.619277,45.111694]}},{"type":"feature","properties":{"country_en":"Serbia","name":"Majdanpek","name_adm0":"Serbia","name_adm1":"Bor","name_en":"Majdanpek"},"geometry":{"type":"Point","coordinates":[21.93754,44.42089]}},{"type":"feature","properties":{"country_en":"Serbia","name":"Nova Varoµ","name_adm0":"Serbia","name_adm1":"Zlatibor","name_en":"Nova Varoµ"},"geometry":{"type":"Point","coordinates":[19.8126405,43.46070649999999]}},{"type":"feature","properties":{"country_en":"Serbia","name":"Smederevska Palanka","name_adm0":"Serbia","name_adm1":"Podunavlje","name_en":"Palanka Smederevska"},"geometry":{"type":"Point","coordinates":[20.96127,44.369652]}},{"type":"feature","properties":{"country_en":"Serbia","name":"Jasenovo","name_adm0":"Serbia","name_adm1":"Zlatibor","name_en":"Jasenovo"},"geometry":{"type":"Point","coordinates":[19.29354,44.05224]}},{"type":"feature","properties":{"country_en":"Serbia","name":"Kačanik","name_adm0":"Serbia","name_adm1":"Kosovo","name_en":"Orhanye"},"geometry":{"type":"Point","coordinates":[21.814519999999998,42.48605]}},{"type":"feature","properties":{"country_en":"Serbia","name":"Kačarevo","name_adm0":"Serbia","name_adm1":"Juzhni Banat","name_en":"Francfeld"},"geometry":{"type":"Point","coordinates":[20.69957,44.96721]}},{"type":"feature","properties":{"country_en":"Serbia","name":"Leµnica","name_adm0":"Serbia","name_adm1":"Machva","name_en":"Leµnica"},"geometry":{"type":"Point","coordinates":[18.70304,44.97135999999999]}},{"type":"feature","properties":{"country_en":"Serbia","name":"Severna Bachka","name_adm0":"Serbia","name_adm1":"Severna Bachka","name_en":"Severna Bachka"},"geometry":{"type":"Point","coordinates":[19.8983,45.674642]}},{"type":"feature","properties":{"country_en":"Serbia","name":"Moravica","name_adm0":"Serbia","name_adm1":"Moravica","name_en":"Moravica"},"geometry":{"type":"Point","coordinates":[20.215187,43.904447]}},{"type":"feature","properties":{"country_en":"Serbia","name":"Podunavlje","name_adm0":"Serbia","name_adm1":"Podunavlje","name_en":"Podunavlje"},"geometry":{"type":"Point","coordinates":[21.0758965,44.59939649999999]}},{"type":"feature","properties":{"country_en":"Serbia","name":"Kosovsko Pomoravlje","name_adm0":"Serbia","name_adm1":"Kosovsko Pomoravlje","name_en":"Kosovsko Pomoravlje"},"geometry":{"type":"Point","coordinates":[21.465911,42.480571]}},{"type":"feature","properties":{"country_en":"Serbia","name":"Pirot","name_adm0":"Serbia","name_adm1":"Pirot","name_adm2":"Pirot","name_en":"Pirot"},"geometry":{"type":"Point","coordinates":[22.58611,43.15306]}},{"type":"feature","properties":{"country_en":"Serbia","name":"Leskovac","name_adm0":"Serbia","name_adm1":"Jablanica","name_adm2":"Leskovac","name_en":"Leskovac"},"geometry":{"type":"Point","coordinates":[21.94611,42.99806]}},{"type":"feature","properties":{"country_en":"Serbia","name":"Bački Breg","name_adm0":"Serbia","name_adm1":"Zapadna Bachka","name_en":"Bereg"},"geometry":{"type":"Point","coordinates":[18.92944,45.92034]}},{"type":"feature","properties":{"country_en":"Serbia","name":"Uroµevac","name_adm0":"Serbia","name_adm1":"Kosovo","name_en":"Ferizovik"},"geometry":{"type":"Point","coordinates":[21.206358999999996,42.402164]}},{"type":"feature","properties":{"country_en":"Serbia","name":"Banatski Dvor","name_adm0":"Serbia","name_adm1":"Srednji Banat","name_en":"Banatski Dvor"},"geometry":{"type":"Point","coordinates":[20.51146,45.51866]}},{"type":"feature","properties":{"country_en":"Serbia","name":"Lazarevo","name_adm0":"Serbia","name_adm1":"Srednji Banat","name_en":"Lazarevo"},"geometry":{"type":"Point","coordinates":[20.539989999999996,45.38893]}},{"type":"feature","properties":{"country_en":"Serbia","name":"Dobri Do","name_adm0":"Serbia","name_adm1":"Toplica","name_en":"Dobri Do"},"geometry":{"type":"Point","coordinates":[21.39036,42.92604]}},{"type":"feature","properties":{"country_en":"Serbia","name":"Kladnica","name_adm0":"Serbia","name_adm1":"Zlatibor","name_en":"Kladnica"},"geometry":{"type":"Point","coordinates":[20.029199999999996,43.39972]}},{"type":"feature","properties":{"country_en":"Serbia","name":"Krµevica","name_adm0":"Serbia","name_adm1":"Pchinja","name_en":"Krµevica"},"geometry":{"type":"Point","coordinates":[22.17738,42.99614]}},{"type":"feature","properties":{"country_en":"Serbia","name":"Petrovac","name_adm0":"Serbia","name_adm1":"Pirot","name_en":"Smrdan"},"geometry":{"type":"Point","coordinates":[22.61763,43.0779]}},{"type":"feature","properties":{"country_en":"Serbia","name":"Istok","name_adm0":"Serbia","name_adm1":"Pech","name_en":"Istok"},"geometry":{"type":"Point","coordinates":[20.483632,42.7809365]}},{"type":"feature","properties":{"country_en":"Serbia","name":"Borča","name_adm0":"Serbia","name_adm1":"Beograd","name_en":"Borča"},"geometry":{"type":"Point","coordinates":[20.45413,44.86969]}},{"type":"feature","properties":{"country_en":"Serbia","name":"Jajinci","name_adm0":"Serbia","name_adm1":"Beograd","name_en":"Jajince"},"geometry":{"type":"Point","coordinates":[20.48634,44.74061]}},{"type":"feature","properties":{"country_en":"Serbia","name":"Vranje","name_adm0":"Serbia","name_adm1":"Pchinja","name_adm2":"Vranje","name_en":"Vranje"},"geometry":{"type":"Point","coordinates":[21.90028,42.55139]}},{"type":"feature","properties":{"country_en":"Serbia","name":"Vlajkovac","name_adm0":"Serbia","name_adm1":"Juzhni Banat","name_en":"Vlajkovac"},"geometry":{"type":"Point","coordinates":[21.199449999999995,45.07207]}},{"type":"feature","properties":{"country_en":"Serbia","name":"Turija","name_adm0":"Serbia","name_adm1":"Branichevo","name_en":"Turija"},"geometry":{"type":"Point","coordinates":[21.639449999999997,44.522729999999996]}},{"type":"feature","properties":{"country_en":"Serbia","name":"Prokuplje","name_adm0":"Serbia","name_adm1":"Toplica","name_adm2":"Prokuplje","name_en":"Prokuplje"},"geometry":{"type":"Point","coordinates":[21.58806,43.23417]}},{"type":"feature","properties":{"country_en":"Serbia","name":"Kraljevo","name_adm0":"Serbia","name_adm1":"Rashka","name_adm2":"Kraljevo","name_en":"Kraljevo"},"geometry":{"type":"Point","coordinates":[20.68944,43.725829999999995]}},{"type":"feature","properties":{"country_en":"Serbia","name":"Deronje","name_adm0":"Serbia","name_adm1":"Zapadna Bachka","name_en":"Deronje"},"geometry":{"type":"Point","coordinates":[19.22027,45.45534]}},{"type":"feature","properties":{"country_en":"Serbia","name":"Lalinac","name_adm0":"Serbia","name_adm1":"Nishava","name_en":"Lalinac"},"geometry":{"type":"Point","coordinates":[21.78662,43.34183]}},{"type":"feature","properties":{"country_en":"Serbia","name":"Mala Bosna","name_adm0":"Serbia","name_adm1":"Severna Bachka","name_en":"Mala Bosna"},"geometry":{"type":"Point","coordinates":[19.57247,46.039469999999994]}},{"type":"feature","properties":{"country_en":"Serbia","name":"Rabrovo","name_adm0":"Serbia","name_adm1":"Branichevo","name_en":"Rabrovo"},"geometry":{"type":"Point","coordinates":[21.51375,44.576409999999996]}},{"type":"feature","properties":{"country_en":"Serbia","name":"Rudnik","name_adm0":"Serbia","name_adm1":"Moravica","name_en":"Rudnik"},"geometry":{"type":"Point","coordinates":[20.493979999999997,44.13982]}},{"type":"feature","properties":{"country_en":"Serbia","name":"Staro Selo","name_adm0":"Serbia","name_adm1":"Podunavlje","name_en":"Staro Selo"},"geometry":{"type":"Point","coordinates":[21.088669999999997,44.29426]}},{"type":"feature","properties":{"country_en":"Serbia","name":"Prigrevica","name_adm0":"Serbia","name_adm1":"Zapadna Bachka","name_en":"Prigrevica Sveti Ivan"},"geometry":{"type":"Point","coordinates":[19.088089999999998,45.67636]}},{"type":"feature","properties":{"country_en":"Serbia","name":"Zajechar","name_adm0":"Serbia","name_adm1":"Zajechar","name_en":"Zajechar"},"geometry":{"type":"Point","coordinates":[22.261047,43.910755]}},{"type":"feature","properties":{"country_en":"Serbia","name":"Zajecar","name_adm0":"Serbia","name_adm1":"Zajechar","name_adm2":"Zajecar","name_en":"Zajecar"},"geometry":{"type":"Point","coordinates":[22.26405,43.90358]}},{"type":"feature","properties":{"country_en":"Serbia","name":"Veliko Srediµte","name_adm0":"Serbia","name_adm1":"Juzhni Banat","name_en":"Veliko Srediµte"},"geometry":{"type":"Point","coordinates":[21.40353,45.17919]}},{"type":"feature","properties":{"country_en":"Serbia","name":"Stalać","name_adm0":"Serbia","name_adm1":"Rasina","name_en":"Stalać"},"geometry":{"type":"Point","coordinates":[21.41328,43.677389999999995]}},{"type":"feature","properties":{"country_en":"Serbia","name":"Smederevo","name_adm0":"Serbia","name_adm1":"Podunavlje","name_adm2":"Smederevo","name_en":"Smederevo"},"geometry":{"type":"Point","coordinates":[20.93,44.66278]}},{"type":"feature","properties":{"country_en":"Serbia","name":"Pancevo","name_adm0":"Serbia","name_adm1":"Juzhni Banat","name_adm2":"Pancevo","name_en":"Pancevo"},"geometry":{"type":"Point","coordinates":[20.64028,44.87083]}},{"type":"feature","properties":{"country_en":"Serbia","name":"Kruševac","name_adm0":"Serbia","name_adm1":"Rasina","name_adm2":"Kruševac","name_en":"Kruševac"},"geometry":{"type":"Point","coordinates":[21.33389,43.57999999999999]}},{"type":"feature","properties":{"country_en":"Serbia","name":"Crepaja","name_adm0":"Serbia","name_adm1":"Juzhni Banat","name_en":"Crepaja"},"geometry":{"type":"Point","coordinates":[20.63702,45.00984]}},{"type":"feature","properties":{"country_en":"Serbia","name":"Bor","name_adm0":"Serbia","name_adm1":"Bor","name_adm2":"Bor","name_en":"Bor"},"geometry":{"type":"Point","coordinates":[22.09591,44.07488]}},{"type":"feature","properties":{"country_en":"Serbia","name":"Stanišić","name_adm0":"Serbia","name_adm1":"Zapadna Bachka","name_en":"Stanišić"},"geometry":{"type":"Point","coordinates":[19.167089999999998,45.93895]}},{"type":"feature","properties":{"country_en":"Serbia","name":"Belotić","name_adm0":"Serbia","name_adm1":"Machva","name_en":"Belotić"},"geometry":{"type":"Point","coordinates":[19.54801,44.81781999999999]}},{"type":"feature","properties":{"country_en":"Serbia","name":"Begaljica","name_adm0":"Serbia","name_adm1":"Beograd","name_en":"Begaljica"},"geometry":{"type":"Point","coordinates":[20.695,44.63361]}},{"type":"feature","properties":{"country_en":"Serbia","name":"Dučina","name_adm0":"Serbia","name_adm1":"Beograd","name_en":"Dučina"},"geometry":{"type":"Point","coordinates":[20.49752,44.4864]}},{"type":"feature","properties":{"country_en":"Serbia","name":"Hetin","name_adm0":"Serbia","name_adm1":"Srednji Banat","name_en":"Hetin"},"geometry":{"type":"Point","coordinates":[20.791379999999997,45.66202]}},{"type":"feature","properties":{"country_en":"Serbia","name":"Gornja Ljubata","name_adm0":"Serbia","name_adm1":"Pchinja","name_en":"Gornja Lljubata"},"geometry":{"type":"Point","coordinates":[22.34081,42.50273]}},{"type":"feature","properties":{"country_en":"Serbia","name":"Janjevo","name_adm0":"Serbia","name_adm1":"Kosovo","name_en":"Janjevo"},"geometry":{"type":"Point","coordinates":[21.24889,42.57389]}},{"type":"feature","properties":{"country_en":"Serbia","name":"Maglić","name_adm0":"Serbia","name_adm1":"Juzhna Bachka","name_en":"Buljkes"},"geometry":{"type":"Point","coordinates":[19.53211,45.36248]}},{"type":"feature","properties":{"country_en":"Serbia","name":"Pečenjevce","name_adm0":"Serbia","name_adm1":"Jablanica","name_en":"Pečenjevce"},"geometry":{"type":"Point","coordinates":[21.91431,43.09862]}},{"type":"feature","properties":{"country_en":"Serbia","name":"Padej","name_adm0":"Serbia","name_adm1":"Severni Banat","name_en":"Srpski Padej"},"geometry":{"type":"Point","coordinates":[20.16279,45.82756]}},{"type":"feature","properties":{"country_en":"Serbia","name":"Ratari","name_adm0":"Serbia","name_adm1":"Podunavlje","name_en":"Ratare"},"geometry":{"type":"Point","coordinates":[20.82977,44.35372]}},{"type":"feature","properties":{"country_en":"Serbia","name":"Sajkas","name_adm0":"Serbia","name_adm1":"Juzhna Bachka","name_en":"Sajkas"},"geometry":{"type":"Point","coordinates":[20.09051,45.273149999999994]}},{"type":"feature","properties":{"country_en":"Serbia","name":"Dorćol","name_adm0":"Serbia","name_adm1":"Beograd","name_en":"Dorćol"},"geometry":{"type":"Point","coordinates":[20.450406,44.821348]}},{"type":"feature","properties":{"country_en":"Serbia","name":"Valjevo","name_adm0":"Serbia","name_adm1":"Kolubara","name_adm2":"Valjevo","name_en":"Valjevo"},"geometry":{"type":"Point","coordinates":[19.898209999999995,44.27513]}},{"type":"feature","properties":{"country_en":"Serbia","name":"Užice","name_adm0":"Serbia","name_adm1":"Zlatibor","name_adm2":"Užice","name_en":"Užice"},"geometry":{"type":"Point","coordinates":[19.84878,43.85861]}},{"type":"feature","properties":{"country_en":"Serbia","name":"Crna Bara","name_adm0":"Serbia","name_adm1":"Machva","name_en":"Crna Bara"},"geometry":{"type":"Point","coordinates":[19.3948,44.87374]}},{"type":"feature","properties":{"country_en":"Serbia","name":"Ruma","name_adm0":"Serbia","name_adm1":"Srem","name_en":"Ruma"},"geometry":{"type":"Point","coordinates":[19.58988,44.572599999999994]}},{"type":"feature","properties":{"country_en":"Serbia","name":"Čukarica","name_adm0":"Serbia","name_adm1":"Beograd","name_en":"Čukarica"},"geometry":{"type":"Point","coordinates":[20.40675,44.786586]}},{"type":"feature","properties":{"country_en":"Serbia","name":"Soko Banja","name_adm0":"Serbia","name_adm1":"Zajechar","name_en":"Banja Aleksinacka"},"geometry":{"type":"Point","coordinates":[21.864509,43.64175]}},{"type":"feature","properties":{"country_en":"Serbia","name":"Janja","name_adm0":"Serbia","name_adm1":"Zajechar","name_en":"Janja"},"geometry":{"type":"Point","coordinates":[22.51886,43.42907]}},{"type":"feature","properties":{"country_en":"Serbia","name":"Sremska Mitrovica","name_adm0":"Serbia","name_adm1":"Srem","name_en":"Strema Mitrovica"},"geometry":{"type":"Point","coordinates":[19.612741,44.983299]}},{"type":"feature","properties":{"country_en":"Serbia","name":"Vrbas","name_adm0":"Serbia","name_adm1":"Juzhna Bachka","name_en":"Titov Vrbas"},"geometry":{"type":"Point","coordinates":[19.642868,45.569999]}},{"type":"feature","properties":{"country_en":"Serbia","name":"Jelaµnica","name_adm0":"Serbia","name_adm1":"Nishava","name_en":"Jelaµnica"},"geometry":{"type":"Point","coordinates":[22.051439999999996,43.28971]}},{"type":"feature","properties":{"country_en":"Serbia","name":"Mladenovac","name_adm0":"Serbia","name_adm1":"Beograd","name_en":"Selo-Mladenovac"},"geometry":{"type":"Point","coordinates":[21.5969,44.196239999999996]}},{"type":"feature","properties":{"country_en":"Serbia","name":"Stepojevac","name_adm0":"Serbia","name_adm1":"Beograd","name_en":"Stepajevac"},"geometry":{"type":"Point","coordinates":[20.295,44.51278]}},{"type":"feature","properties":{"country_en":"Serbia","name":"Sumrakovac","name_adm0":"Serbia","name_adm1":"Zajechar","name_en":"Sumrakovac"},"geometry":{"type":"Point","coordinates":[22.03053,43.93988]}},{"type":"feature","properties":{"country_en":"Serbia","name":"Veliki Kupci","name_adm0":"Serbia","name_adm1":"Rasina","name_en":"Veliki Kupci"},"geometry":{"type":"Point","coordinates":[21.23313,43.45516]}},{"type":"feature","properties":{"country_en":"Serbia","name":"Pec","name_adm0":"Serbia","name_adm1":"Pech","name_en":"Ipek"},"geometry":{"type":"Point","coordinates":[20.300331,42.659577]}},{"type":"feature","properties":{"country_en":"Serbia","name":"Sige","name_adm0":"Serbia","name_adm1":"Branichevo","name_en":"Sige"},"geometry":{"type":"Point","coordinates":[21.59858,44.21894]}},{"type":"feature","properties":{"country_en":"Serbia","name":"Vojlovica","name_adm0":"Serbia","name_adm1":"Juzhni Banat","name_en":"Vojlovica"},"geometry":{"type":"Point","coordinates":[20.67042,44.84726]}},{"type":"feature","properties":{"country_en":"Serbia","name":"Starčevo","name_adm0":"Serbia","name_adm1":"Juzhni Banat","name_en":"Starčevo"},"geometry":{"type":"Point","coordinates":[20.70546,44.807289999999995]}},{"type":"feature","properties":{"country_en":"Serbia","name":"Velika Krsna","name_adm0":"Serbia","name_adm1":"Beograd","name_en":"Velika Krsna"},"geometry":{"type":"Point","coordinates":[20.80521,44.47841]}},{"type":"feature","properties":{"country_en":"Serbia","name":"Orahovac","name_adm0":"Serbia","name_adm1":"Prizren","name_en":"Orahovac"},"geometry":{"type":"Point","coordinates":[21.103529999999996,43.23028999999999]}},{"type":"feature","properties":{"country_en":"Serbia","name":"Velika Plana","name_adm0":"Serbia","name_adm1":"Podunavlje","name_en":"Velika Plana"},"geometry":{"type":"Point","coordinates":[20.487219999999997,44.64139]}},{"type":"feature","properties":{"country_en":"Serbia","name":"Juzhna Bachka","name_adm0":"Serbia","name_adm1":"Juzhna Bachka","name_en":"Juzhna Bachka"},"geometry":{"type":"Point","coordinates":[19.830322,45.309605]}},{"type":"feature","properties":{"country_en":"Serbia","name":"Prijepolje","name_adm0":"Serbia","name_adm1":"Zlatibor","name_adm2":"Prijepolje","name_en":"Prijepolje"},"geometry":{"type":"Point","coordinates":[19.782943,43.643404]}},{"type":"feature","properties":{"country_en":"Serbia","name":"Zlatibor","name_adm0":"Serbia","name_adm1":"Zlatibor","name_en":"Zlatibor"},"geometry":{"type":"Point","coordinates":[19.70029,43.729]}},{"type":"feature","properties":{"country_en":"Serbia","name":"Bezdam","name_adm0":"Serbia","name_adm1":"Zapadna Bachka","name_en":"Bezdam"},"geometry":{"type":"Point","coordinates":[18.93021,45.85141]}},{"type":"feature","properties":{"country_en":"Serbia","name":"Aleksinac","name_adm0":"Serbia","name_adm1":"Nishava","name_en":"Aleksinac"},"geometry":{"type":"Point","coordinates":[21.40917,43.05444]}},{"type":"feature","properties":{"country_en":"Serbia","name":"Arilje","name_adm0":"Serbia","name_adm1":"Zlatibor","name_en":"Arilje"},"geometry":{"type":"Point","coordinates":[19.37417,42.78027999999999]}},{"type":"feature","properties":{"country_en":"Serbia","name":"Bački Sokolac","name_adm0":"Serbia","name_adm1":"Severna Bachka","name_en":"Bački Sokolac"},"geometry":{"type":"Point","coordinates":[19.54019,45.84961]}},{"type":"feature","properties":{"country_en":"Serbia","name":"Banatski Brestovac","name_adm0":"Serbia","name_adm1":"Juzhni Banat","name_en":"Brestovac"},"geometry":{"type":"Point","coordinates":[20.80904,44.72735999999999]}},{"type":"feature","properties":{"country_en":"Serbia","name":"Kukujevci","name_adm0":"Serbia","name_adm1":"Srem","name_en":"Kukujevci"},"geometry":{"type":"Point","coordinates":[19.34072,45.06971]}},{"type":"feature","properties":{"country_en":"Serbia","name":"Mala Krsna","name_adm0":"Serbia","name_adm1":"Podunavlje","name_en":"Mala Krsna"},"geometry":{"type":"Point","coordinates":[21.00744,44.58617]}},{"type":"feature","properties":{"country_en":"Serbia","name":"Mala Plana","name_adm0":"Serbia","name_adm1":"Toplica","name_en":"Mala Plana"},"geometry":{"type":"Point","coordinates":[21.47606,43.25348]}},{"type":"feature","properties":{"country_en":"Serbia","name":"Neresnica","name_adm0":"Serbia","name_adm1":"Branichevo","name_en":"Neresnica"},"geometry":{"type":"Point","coordinates":[21.72622,44.44252]}},{"type":"feature","properties":{"country_en":"Serbia","name":"Nova Crnja","name_adm0":"Serbia","name_adm1":"Srednji Banat","name_en":"Nova Crnja"},"geometry":{"type":"Point","coordinates":[19.48772,45.69564]}},{"type":"feature","properties":{"country_en":"Serbia","name":"Sremska Rača","name_adm0":"Serbia","name_adm1":"Srem","name_en":"Raca"},"geometry":{"type":"Point","coordinates":[19.28577,44.92077]}},{"type":"feature","properties":{"country_en":"Serbia","name":"Susara","name_adm0":"Serbia","name_adm1":"Juzhni Banat","name_en":"Susara"},"geometry":{"type":"Point","coordinates":[21.12379,44.941289999999995]}},{"type":"feature","properties":{"country_en":"Serbia","name":"Takovo","name_adm0":"Serbia","name_adm1":"Moravica","name_en":"Takova"},"geometry":{"type":"Point","coordinates":[20.3875,44.04278]}},{"type":"feature","properties":{"country_en":"Serbia","name":"Vračev Gaj","name_adm0":"Serbia","name_adm1":"Juzhni Banat","name_en":"Vračev Gaj"},"geometry":{"type":"Point","coordinates":[21.36738,44.87868999999999]}},{"type":"feature","properties":{"country_en":"Serbia","name":"Grgurevci","name_adm0":"Serbia","name_adm1":"Srem","name_en":"Grgurevci"},"geometry":{"type":"Point","coordinates":[19.64639,45.10434]}},{"type":"feature","properties":{"country_en":"Serbia","name":"Džep","name_adm0":"Serbia","name_adm1":"Pchinja","name_en":"Džep"},"geometry":{"type":"Point","coordinates":[22.08834,42.76822]}},{"type":"feature","properties":{"country_en":"Serbia","name":"Batlava","name_adm0":"Serbia","name_adm1":"Kosovo","name_en":"Batlava"},"geometry":{"type":"Point","coordinates":[21.23771,42.83505]}},{"type":"feature","properties":{"country_en":"Serbia","name":"Bistrica","name_adm0":"Serbia","name_adm1":"Zlatibor","name_en":"Bistrica"},"geometry":{"type":"Point","coordinates":[19.656179999999996,43.46919]}},{"type":"feature","properties":{"country_en":"Serbia","name":"Banja","name_adm0":"Serbia","name_adm1":"Zlatibor","name_en":"Banja"},"geometry":{"type":"Point","coordinates":[19.676259999999996,43.85119]}},{"type":"feature","properties":{"country_en":"Serbia","name":"Baranda","name_adm0":"Serbia","name_adm1":"Juzhni Banat","name_en":"Baranda"},"geometry":{"type":"Point","coordinates":[20.442639999999997,45.08459]}},{"type":"feature","properties":{"country_en":"Serbia","name":"Banja","name_adm0":"Serbia","name_adm1":"Prizren","name_en":"Banja"},"geometry":{"type":"Point","coordinates":[20.6725,42.81417]}},{"type":"feature","properties":{"country_en":"Serbia","name":"Banja Koviljača","name_adm0":"Serbia","name_adm1":"Machva","name_en":"Banja Koviljača"},"geometry":{"type":"Point","coordinates":[19.15278,44.51464]}},{"type":"feature","properties":{"country_en":"Serbia","name":"Banjani","name_adm0":"Serbia","name_adm1":"Kolubara","name_en":"Banjane"},"geometry":{"type":"Point","coordinates":[19.980329999999995,44.53774]}},{"type":"feature","properties":{"country_en":"Serbia","name":"Donja Å atornja","name_adm0":"Serbia","name_adm1":"Shumadija","name_en":"Donja Å atornja"},"geometry":{"type":"Point","coordinates":[20.60205,44.19407999999999]}},{"type":"feature","properties":{"country_en":"Serbia","name":"Ðurakovac","name_adm0":"Serbia","name_adm1":"Pech","name_en":"Ðurakovac"},"geometry":{"type":"Point","coordinates":[20.33416,43.21176]}},{"type":"feature","properties":{"country_en":"Serbia","name":"Erdevik","name_adm0":"Serbia","name_adm1":"Srem","name_en":"Ervenik"},"geometry":{"type":"Point","coordinates":[19.40881,45.11721]}},{"type":"feature","properties":{"country_en":"Serbia","name":"Gornja Gorevnica","name_adm0":"Serbia","name_adm1":"Moravica","name_en":"Gornja Gorijevnica"},"geometry":{"type":"Point","coordinates":[20.288689999999995,43.96341]}},{"type":"feature","properties":{"country_en":"Serbia","name":"Gornja Klina","name_adm0":"Serbia","name_adm1":"Kosovska Mitrovica","name_en":"Gornja Klina"},"geometry":{"type":"Point","coordinates":[20.78333,42.79222]}},{"type":"feature","properties":{"country_en":"Serbia","name":"Ilandža","name_adm0":"Serbia","name_adm1":"Juzhni Banat","name_en":"Iloncz"},"geometry":{"type":"Point","coordinates":[20.92008,45.16897]}},{"type":"feature","properties":{"country_en":"Serbia","name":"Idvor","name_adm0":"Serbia","name_adm1":"Juzhni Banat","name_en":"Idvor"},"geometry":{"type":"Point","coordinates":[20.51442,45.18896]}},{"type":"feature","properties":{"country_en":"Serbia","name":"Golubinci","name_adm0":"Serbia","name_adm1":"Srem","name_en":"Golubinci"},"geometry":{"type":"Point","coordinates":[20.06338,44.98533]}},{"type":"feature","properties":{"country_en":"Serbia","name":"Ivanjica","name_adm0":"Serbia","name_adm1":"Moravica","name_en":"Ivanjica"},"geometry":{"type":"Point","coordinates":[19.63219,43.47672]}},{"type":"feature","properties":{"country_en":"Serbia","name":"Kljajićevo","name_adm0":"Serbia","name_adm1":"Zapadna Bachka","name_en":"Kernyaja"},"geometry":{"type":"Point","coordinates":[19.27696,45.77036]}},{"type":"feature","properties":{"country_en":"Serbia","name":"Kupinovo","name_adm0":"Serbia","name_adm1":"Srem","name_en":"Kupinovo"},"geometry":{"type":"Point","coordinates":[20.04958,44.70707999999999]}},{"type":"feature","properties":{"country_en":"Serbia","name":"Kumane","name_adm0":"Serbia","name_adm1":"Srednji Banat","name_en":"Kumani"},"geometry":{"type":"Point","coordinates":[20.22902,45.53946]}},{"type":"feature","properties":{"country_en":"Serbia","name":"Krstur","name_adm0":"Serbia","name_adm1":"Severni Banat","name_en":"Srpski Krstur"},"geometry":{"type":"Point","coordinates":[20.09268,46.12836]}},{"type":"feature","properties":{"country_en":"Serbia","name":"Klenje","name_adm0":"Serbia","name_adm1":"Machva","name_en":"Klenje"},"geometry":{"type":"Point","coordinates":[19.43508,44.80794]}},{"type":"feature","properties":{"country_en":"Serbia","name":"Kupci","name_adm0":"Serbia","name_adm1":"Rasina","name_en":"Kupci"},"geometry":{"type":"Point","coordinates":[21.1396,43.34396]}},{"type":"feature","properties":{"country_en":"Serbia","name":"Ležimir","name_adm0":"Serbia","name_adm1":"Srem","name_en":"Ležimir"},"geometry":{"type":"Point","coordinates":[19.57068,45.12315]}},{"type":"feature","properties":{"country_en":"Serbia","name":"Lozovik","name_adm0":"Serbia","name_adm1":"Podunavlje","name_en":"Lozovik"},"geometry":{"type":"Point","coordinates":[21.10154,44.46731]}},{"type":"feature","properties":{"country_en":"Serbia","name":"Lukovo","name_adm0":"Serbia","name_adm1":"Toplica","name_en":"Lukovo"},"geometry":{"type":"Point","coordinates":[21.04496,43.17227999999999]}},{"type":"feature","properties":{"country_en":"Serbia","name":"Mihajlovac","name_adm0":"Serbia","name_adm1":"Podunavlje","name_en":"Mihajlovac"},"geometry":{"type":"Point","coordinates":[20.97315,44.54377]}},{"type":"feature","properties":{"country_en":"Serbia","name":"Miroµevce","name_adm0":"Serbia","name_adm1":"Jablanica","name_en":"Miroµevce"},"geometry":{"type":"Point","coordinates":[21.8381,42.86552]}},{"type":"feature","properties":{"country_en":"Serbia","name":"Rekovac","name_adm0":"Serbia","name_adm1":"Pomoravlje","name_en":"Rekovac"},"geometry":{"type":"Point","coordinates":[20.81389,44.43389]}},{"type":"feature","properties":{"country_en":"Serbia","name":"Ribare","name_adm0":"Serbia","name_adm1":"Pomoravlje","name_en":"Ribare"},"geometry":{"type":"Point","coordinates":[21.67122,44.234669999999994]}},{"type":"feature","properties":{"country_en":"Serbia","name":"Sefkerin","name_adm0":"Serbia","name_adm1":"Juzhni Banat","name_en":"Sevkerin"},"geometry":{"type":"Point","coordinates":[20.48256,45.00501]}},{"type":"feature","properties":{"country_en":"Serbia","name":"Selenča","name_adm0":"Serbia","name_adm1":"Juzhna Bachka","name_en":"Selenča"},"geometry":{"type":"Point","coordinates":[19.30022,45.40957999999999]}},{"type":"feature","properties":{"country_en":"Serbia","name":"Senje","name_adm0":"Serbia","name_adm1":"Pomoravlje","name_en":"Senj"},"geometry":{"type":"Point","coordinates":[21.483589999999996,43.96506999999999]}},{"type":"feature","properties":{"country_en":"Serbia","name":"Slatina","name_adm0":"Serbia","name_adm1":"Bor","name_en":"Slatina"},"geometry":{"type":"Point","coordinates":[22.45517,44.41214]}},{"type":"feature","properties":{"country_en":"Serbia","name":"Sliµane","name_adm0":"Serbia","name_adm1":"Jablanica","name_en":"Sliµane"},"geometry":{"type":"Point","coordinates":[21.593699999999995,42.956739999999996]}},{"type":"feature","properties":{"country_en":"Serbia","name":"Srpski Miletić","name_adm0":"Serbia","name_adm1":"Zapadna Bachka","name_en":"Srpski Miletić"},"geometry":{"type":"Point","coordinates":[19.20378,45.55942]}},{"type":"feature","properties":{"country_en":"Serbia","name":"Studenčane","name_adm0":"Serbia","name_adm1":"Prizren","name_en":"Studenčane"},"geometry":{"type":"Point","coordinates":[20.75861,42.35860999999999]}},{"type":"feature","properties":{"country_en":"Serbia","name":"Kanjiža","name_adm0":"Serbia","name_adm1":"Severni Banat","name_en":"Magyarkanizsa"},"geometry":{"type":"Point","coordinates":[20.054119,46.060009]}},{"type":"feature","properties":{"country_en":"Serbia","name":"Kikinda","name_adm0":"Serbia","name_adm1":"Severni Banat","name_en":"Chichinda Mare"},"geometry":{"type":"Point","coordinates":[20.405069,45.8567]}},{"type":"feature","properties":{"country_en":"Serbia","name":"Niµka Banja","name_adm0":"Serbia","name_adm1":"Nishava","name_en":"Niµka Banja"},"geometry":{"type":"Point","coordinates":[21.993254999999998,43.282141]}},{"type":"feature","properties":{"country_en":"Serbia","name":"Paraćin","name_adm0":"Serbia","name_adm1":"Pomoravlje","name_en":"Paraćin"},"geometry":{"type":"Point","coordinates":[21.411752,43.869435]}},{"type":"feature","properties":{"country_en":"Serbia","name":"Prijepolje","name_adm0":"Serbia","name_adm1":"Zlatibor","name_en":"Prijepolje"},"geometry":{"type":"Point","coordinates":[19.643554,43.390079]}},{"type":"feature","properties":{"country_en":"Serbia","name":"Raµka","name_adm0":"Serbia","name_adm1":"Rashka","name_en":"Raµka"},"geometry":{"type":"Point","coordinates":[20.619878,43.29631]}},{"type":"feature","properties":{"country_en":"Serbia","name":"Bački Monoštor","name_adm0":"Serbia","name_adm1":"Zapadna Bachka","name_en":"Bački Monoštor"},"geometry":{"type":"Point","coordinates":[18.93402,45.79441]}},{"type":"feature","properties":{"country_en":"Serbia","name":"Sombor","name_adm0":"Serbia","name_adm1":"Zapadna Bachka","name_adm2":"Sombor","name_en":"Sombor"},"geometry":{"type":"Point","coordinates":[19.112219999999997,45.77417]}},{"type":"feature","properties":{"country_en":"Serbia","name":"Riðica","name_adm0":"Serbia","name_adm1":"Zapadna Bachka","name_en":"Ridjica"},"geometry":{"type":"Point","coordinates":[19.10635,45.99088]}},{"type":"feature","properties":{"country_en":"Serbia","name":"Bač","name_adm0":"Serbia","name_adm1":"Juzhna Bachka","name_en":"Bač"},"geometry":{"type":"Point","coordinates":[19.241352,45.3913975]}},{"type":"feature","properties":{"country_en":"Serbia","name":"Hum","name_adm0":"Serbia","name_adm1":"Nishava","name_en":"Hum"},"geometry":{"type":"Point","coordinates":[21.89976,43.37442999999999]}},{"type":"feature","properties":{"country_en":"Serbia","name":"Sićevo","name_adm0":"Serbia","name_adm1":"Nishava","name_en":"Sićevo"},"geometry":{"type":"Point","coordinates":[22.0841,43.34093]}},{"type":"feature","properties":{"country_en":"Serbia","name":"Boðani","name_adm0":"Serbia","name_adm1":"Juzhna Bachka","name_en":"Bodjani"},"geometry":{"type":"Point","coordinates":[19.10665,45.38958]}},{"type":"feature","properties":{"country_en":"Serbia","name":"Boljkovci","name_adm0":"Serbia","name_adm1":"Moravica","name_en":"Boljkovci"},"geometry":{"type":"Point","coordinates":[20.34556,44.14355]}},{"type":"feature","properties":{"country_en":"Serbia","name":"Boµnjace","name_adm0":"Serbia","name_adm1":"Jablanica","name_en":"Boµnjace"},"geometry":{"type":"Point","coordinates":[21.827149999999996,42.94635]}},{"type":"feature","properties":{"country_en":"Serbia","name":"Bresaljce","name_adm0":"Serbia","name_adm1":"Kosovsko Pomoravlje","name_en":"Bresaljce"},"geometry":{"type":"Point","coordinates":[21.40431,42.50152]}},{"type":"feature","properties":{"country_en":"Serbia","name":"Brestovac","name_adm0":"Serbia","name_adm1":"Jablanica","name_en":"Brestovac"},"geometry":{"type":"Point","coordinates":[21.87772,43.15319]}},{"type":"feature","properties":{"country_en":"Serbia","name":"Gleðica","name_adm0":"Serbia","name_adm1":"Moravica","name_en":"Gledjica"},"geometry":{"type":"Point","coordinates":[19.74089,43.88527]}},{"type":"feature","properties":{"country_en":"Serbia","name":"Glogonj","name_adm0":"Serbia","name_adm1":"Juzhni Banat","name_en":"Glogonj"},"geometry":{"type":"Point","coordinates":[20.52753,44.98644]}},{"type":"feature","properties":{"country_en":"Serbia","name":"Glogovac","name_adm0":"Serbia","name_adm1":"Pomoravlje","name_en":"Glogovac"},"geometry":{"type":"Point","coordinates":[21.3134,44.04213]}},{"type":"feature","properties":{"country_en":"Serbia","name":"Gojna Gora","name_adm0":"Serbia","name_adm1":"Zlatibor","name_en":"Gojna Gora"},"geometry":{"type":"Point","coordinates":[19.66889,43.03111]}},{"type":"feature","properties":{"country_en":"Serbia","name":"Kamenica","name_adm0":"Serbia","name_adm1":"Kosovsko Pomoravlje","name_en":"Kamenica"},"geometry":{"type":"Point","coordinates":[21.216389999999997,42.26417]}},{"type":"feature","properties":{"country_en":"Serbia","name":"Kočane","name_adm0":"Serbia","name_adm1":"Nishava","name_en":"Kočane"},"geometry":{"type":"Point","coordinates":[21.83486,43.1862]}},{"type":"feature","properties":{"country_en":"Serbia","name":"Malča","name_adm0":"Serbia","name_adm1":"Nishava","name_en":"Malča"},"geometry":{"type":"Point","coordinates":[22.03122,43.33428]}},{"type":"feature","properties":{"country_en":"Serbia","name":"Markovac","name_adm0":"Serbia","name_adm1":"Juzhni Banat","name_en":"Markovac"},"geometry":{"type":"Point","coordinates":[21.47242,45.14963999999999]}},{"type":"feature","properties":{"country_en":"Serbia","name":"Mramorak","name_adm0":"Serbia","name_adm1":"Juzhni Banat","name_en":"Mtamorak"},"geometry":{"type":"Point","coordinates":[20.97088,44.88021]}},{"type":"feature","properties":{"country_en":"Serbia","name":"Mustapić","name_adm0":"Serbia","name_adm1":"Branichevo","name_en":"Mustapić"},"geometry":{"type":"Point","coordinates":[21.53808,44.53116]}},{"type":"feature","properties":{"country_en":"Serbia","name":"Ribariće","name_adm0":"Serbia","name_adm1":"Rashka","name_en":"Ribariće"},"geometry":{"type":"Point","coordinates":[20.4697,42.97072]}},{"type":"feature","properties":{"country_en":"Serbia","name":"Ribnica","name_adm0":"Serbia","name_adm1":"Rashka","name_en":"Ribnica"},"geometry":{"type":"Point","coordinates":[20.68986,43.7132]}},{"type":"feature","properties":{"country_en":"Serbia","name":"Sevojno","name_adm0":"Serbia","name_adm1":"Zlatibor","name_en":"Sevojno"},"geometry":{"type":"Point","coordinates":[19.910749999999997,43.8496]}},{"type":"feature","properties":{"country_en":"Serbia","name":"Stara Moravica","name_adm0":"Serbia","name_adm1":"Severna Bachka","name_en":"Staro Moravice"},"geometry":{"type":"Point","coordinates":[19.46719,45.86954]}},{"type":"feature","properties":{"country_en":"Serbia","name":"Stragari","name_adm0":"Serbia","name_adm1":"Shumadija","name_en":"Stragari"},"geometry":{"type":"Point","coordinates":[20.66126,44.153349999999996]}},{"type":"feature","properties":{"country_en":"Serbia","name":"Straža","name_adm0":"Serbia","name_adm1":"Juzhni Banat","name_en":"Temes-Strazsa"},"geometry":{"type":"Point","coordinates":[21.30193,44.97513]}},{"type":"feature","properties":{"country_en":"Serbia","name":"Strezovce","name_adm0":"Serbia","name_adm1":"Pchinja","name_en":"Strezovce"},"geometry":{"type":"Point","coordinates":[21.889169999999996,42.14667]}},{"type":"feature","properties":{"country_en":"Serbia","name":"Strmosten","name_adm0":"Serbia","name_adm1":"Pomoravlje","name_en":"Strmosten"},"geometry":{"type":"Point","coordinates":[21.59037,44.10399]}},{"type":"feature","properties":{"country_en":"Serbia","name":"Trstenik","name_adm0":"Serbia","name_adm1":"Kosovo","name_en":"Trstenik"},"geometry":{"type":"Point","coordinates":[21.25472,42.34638999999999]}},{"type":"feature","properties":{"country_en":"Serbia","name":"Ušće","name_adm0":"Serbia","name_adm1":"Rashka","name_en":"Ušće"},"geometry":{"type":"Point","coordinates":[20.61465,43.4675]}},{"type":"feature","properties":{"country_en":"Serbia","name":"Veliko Selo","name_adm0":"Serbia","name_adm1":"Branichevo","name_en":"Veliko Selo"},"geometry":{"type":"Point","coordinates":[21.29407,44.49192]}},{"type":"feature","properties":{"country_en":"Serbia","name":"Bovan","name_adm0":"Serbia","name_adm1":"Nishava","name_en":"Bovan"},"geometry":{"type":"Point","coordinates":[21.719339999999995,43.63464]}},{"type":"feature","properties":{"country_en":"Serbia","name":"Vitanovac","name_adm0":"Serbia","name_adm1":"Rashka","name_en":"Vitanovac"},"geometry":{"type":"Point","coordinates":[20.79944,43.726389999999995]}},{"type":"feature","properties":{"country_en":"Serbia","name":"Vodanj","name_adm0":"Serbia","name_adm1":"Podunavlje","name_en":"Vodanj"},"geometry":{"type":"Point","coordinates":[20.85263,44.60963]}},{"type":"feature","properties":{"country_en":"Serbia","name":"Zaglavak","name_adm0":"Serbia","name_adm1":"Zlatibor","name_en":"Zaglavak"},"geometry":{"type":"Point","coordinates":[19.71638,43.94156]}},{"type":"feature","properties":{"country_en":"Serbia","name":"Zagraðe","name_adm0":"Serbia","name_adm1":"Moravica","name_en":"Zagraðe"},"geometry":{"type":"Point","coordinates":[20.43812,44.169]}},{"type":"feature","properties":{"country_en":"Serbia","name":"Zdravinje","name_adm0":"Serbia","name_adm1":"Rasina","name_en":"Zdravinje"},"geometry":{"type":"Point","coordinates":[21.446029999999997,43.4982]}},{"type":"feature","properties":{"country_en":"Serbia","name":"Žegra","name_adm0":"Serbia","name_adm1":"Kosovsko Pomoravlje","name_en":"Žegra"},"geometry":{"type":"Point","coordinates":[21.484999999999996,42.37056]}},{"type":"feature","properties":{"country_en":"Serbia","name":"Zjum","name_adm0":"Serbia","name_adm1":"Prizren","name_en":"Zimbi"},"geometry":{"type":"Point","coordinates":[20.62556,42.2725]}},{"type":"feature","properties":{"country_en":"Serbia","name":"Zlot","name_adm0":"Serbia","name_adm1":"Bor","name_en":"Zlot"},"geometry":{"type":"Point","coordinates":[21.9855,44.00853]}},{"type":"feature","properties":{"country_en":"Serbia","name":"Srednji Banat","name_adm0":"Serbia","name_adm1":"Srednji Banat","name_en":"Srednji Banat"},"geometry":{"type":"Point","coordinates":[20.401611,45.367584]}},{"type":"feature","properties":{"country_en":"Serbia","name":"Branichevo","name_adm0":"Serbia","name_adm1":"Branichevo","name_en":"Branichevo"},"geometry":{"type":"Point","coordinates":[21.714477,44.656931]}},{"type":"feature","properties":{"country_en":"Serbia","name":"Pirot","name_adm0":"Serbia","name_adm1":"Pirot","name_en":"Pirot"},"geometry":{"type":"Point","coordinates":[22.62042,43.137069]}},{"type":"feature","properties":{"country_en":"Serbia","name":"Kosovo","name_adm0":"Serbia","name_adm1":"Kosovo","name_en":"Kosovo"},"geometry":{"type":"Point","coordinates":[21.137695,42.654160999999995]}},{"type":"feature","properties":{"country_en":"Serbia","name":"Machva","name_adm0":"Serbia","name_adm1":"Machva","name_en":"Machva"},"geometry":{"type":"Point","coordinates":[19.685402,44.932427499999996]}},{"type":"feature","properties":{"country_en":"Serbia","name":"Umka","name_adm0":"Serbia","name_adm1":"Beograd","name_en":"Umka"},"geometry":{"type":"Point","coordinates":[20.304719999999996,44.67806]}},{"type":"feature","properties":{"country_en":"Serbia","name":"Novi Slankamen","name_adm0":"Serbia","name_adm1":"Srem","name_en":"Slankamen"},"geometry":{"type":"Point","coordinates":[20.23914,45.12554]}},{"type":"feature","properties":{"country_en":"Serbia","name":"Kikinda","name_adm0":"Serbia","name_adm1":"Severni Banat","name_adm2":"Kikinda","name_en":"Kikinda"},"geometry":{"type":"Point","coordinates":[20.46528,45.82972]}},{"type":"feature","properties":{"country_en":"Serbia","name":"Serbia","name_adm0":"Serbia","name_en":"Serbia"},"geometry":{"type":"Point","coordinates":[20.910789,44.04980799999999]}},{"type":"feature","properties":{"country_en":"Serbia","name":"Kučevo","name_adm0":"Serbia","name_adm1":"Branichevo","name_en":"Kučevo"},"geometry":{"type":"Point","coordinates":[21.637229,44.462333]}},{"type":"feature","properties":{"country_en":"Serbia","name":"Surčin","name_adm0":"Serbia","name_adm1":"Beograd","name_en":"Surčin"},"geometry":{"type":"Point","coordinates":[20.2847095,44.7995335]}},{"type":"feature","properties":{"country_en":"Serbia","name":"Beočin","name_adm0":"Serbia","name_adm1":"Juzhna Bachka","name_en":"Beočin"},"geometry":{"type":"Point","coordinates":[19.773673999999996,45.186271]}},{"type":"feature","properties":{"country_en":"Serbia","name":"Bajina Baµta","name_adm0":"Serbia","name_adm1":"Zlatibor","name_en":"Bajina Baµta"},"geometry":{"type":"Point","coordinates":[19.568195,43.955752999999994]}},{"type":"feature","properties":{"country_en":"Serbia","name":"Apatin","name_adm0":"Serbia","name_adm1":"Zapadna Bachka","name_en":"Apatin"},"geometry":{"type":"Point","coordinates":[18.973280999999997,45.668285]}},{"type":"feature","properties":{"country_en":"Serbia","name":"Bečej","name_adm0":"Serbia","name_adm1":"Juzhna Bachka","name_en":"Becse"},"geometry":{"type":"Point","coordinates":[20.047479,45.61991999999999]}},{"type":"feature","properties":{"country_en":"Serbia","name":"Petrovaradin","name_adm0":"Serbia","name_adm1":"Juzhna Bachka","name_en":"Peterwardein"},"geometry":{"type":"Point","coordinates":[19.873065,45.249753999999996]}},{"type":"feature","properties":{"country_en":"Serbia","name":"Požarevac","name_adm0":"Serbia","name_adm1":"Branichevo","name_en":"Požarevac"},"geometry":{"type":"Point","coordinates":[21.185759999999995,44.61423899999999]}},{"type":"feature","properties":{"country_en":"Serbia","name":"Predejane","name_adm0":"Serbia","name_adm1":"Jablanica","name_en":"Predejane"},"geometry":{"type":"Point","coordinates":[22.12914,42.83284]}},{"type":"feature","properties":{"country_en":"Serbia","name":"Braničevo","name_adm0":"Serbia","name_adm1":"Branichevo","name_en":"Braničevo"},"geometry":{"type":"Point","coordinates":[21.53833,44.70499999999999]}},{"type":"feature","properties":{"country_en":"Serbia","name":"Brankovina","name_adm0":"Serbia","name_adm1":"Kolubara","name_en":"Brankovina"},"geometry":{"type":"Point","coordinates":[19.89839,44.346619999999994]}},{"type":"feature","properties":{"country_en":"Serbia","name":"Gornja Sabanta","name_adm0":"Serbia","name_adm1":"Shumadija","name_en":"Gornja Sabanta"},"geometry":{"type":"Point","coordinates":[21.00373,43.94195]}},{"type":"feature","properties":{"country_en":"Serbia","name":"Vrčin","name_adm0":"Serbia","name_adm1":"Beograd","name_en":"Vrčin"},"geometry":{"type":"Point","coordinates":[20.59325,44.66845]}},{"type":"feature","properties":{"country_en":"Serbia","name":"Vrhpolje","name_adm0":"Serbia","name_adm1":"Machva","name_en":"Vrhpolje"},"geometry":{"type":"Point","coordinates":[19.44083,44.14524]}},{"type":"feature","properties":{"country_en":"Serbia","name":"Vrmbaje","name_adm0":"Serbia","name_adm1":"Moravica","name_en":"Vrmbaje"},"geometry":{"type":"Point","coordinates":[20.35146,43.50701]}},{"type":"feature","properties":{"country_en":"Serbia","name":"Bački Petrovac","name_adm0":"Serbia","name_adm1":"Juzhna Bachka","name_en":"Petrovac"},"geometry":{"type":"Point","coordinates":[19.588108,45.361071]}},{"type":"feature","properties":{"country_en":"Serbia","name":"Blace","name_adm0":"Serbia","name_adm1":"Toplica","name_en":"Blace"},"geometry":{"type":"Point","coordinates":[21.332779999999996,42.15222]}},{"type":"feature","properties":{"country_en":"Serbia","name":"Bor","name_adm0":"Serbia","name_adm1":"Bor","name_en":"Bor"},"geometry":{"type":"Point","coordinates":[22.09591,44.07488]}},{"type":"feature","properties":{"country_en":"Serbia","name":"Draginje","name_adm0":"Serbia","name_adm1":"Machva","name_en":"Draginje"},"geometry":{"type":"Point","coordinates":[19.7625,44.53302]}},{"type":"feature","properties":{"country_en":"Serbia","name":"Čuprija","name_adm0":"Serbia","name_adm1":"Pomoravlje","name_en":"Čuprija"},"geometry":{"type":"Point","coordinates":[21.369952999999995,43.937523]}},{"type":"feature","properties":{"country_en":"Serbia","name":"Dub","name_adm0":"Serbia","name_adm1":"Zlatibor","name_en":"Dub"},"geometry":{"type":"Point","coordinates":[19.673789999999997,43.954319999999996]}},{"type":"feature","properties":{"country_en":"Serbia","name":"Sirig","name_adm0":"Serbia","name_adm1":"Juzhna Bachka","name_en":"Sirig"},"geometry":{"type":"Point","coordinates":[19.81044,45.44026]}},{"type":"feature","properties":{"country_en":"Serbia","name":"Srbobran","name_adm0":"Serbia","name_adm1":"Juzhna Bachka","name_en":"Srbobran"},"geometry":{"type":"Point","coordinates":[19.792385,45.551231]}},{"type":"feature","properties":{"country_en":"Serbia","name":"Niµ","name_adm0":"Serbia","name_adm1":"Nishava","name_en":"Nish"},"geometry":{"type":"Point","coordinates":[21.895751,43.321805]}},{"type":"feature","properties":{"country_en":"Serbia","name":"Čačak","name_adm0":"Serbia","name_adm1":"Moravica","name_en":"Čačak"},"geometry":{"type":"Point","coordinates":[20.344553,43.887825]}},{"type":"feature","properties":{"country_en":"Serbia","name":"Djakovica","name_adm0":"Serbia","name_adm1":"Pech","name_en":"Djakovo"},"geometry":{"type":"Point","coordinates":[20.427532,42.395365]}},{"type":"feature","properties":{"country_en":"Serbia","name":"Knjaževac","name_adm0":"Serbia","name_adm1":"Zajechar","name_en":"Knjaževac"},"geometry":{"type":"Point","coordinates":[22.256949999999996,43.568451]}},{"type":"feature","properties":{"country_en":"Serbia","name":"Kosovska Mitrovica","name_adm0":"Serbia","name_adm1":"Kosovska Mitrovica","name_en":"Titova Mitrovica"},"geometry":{"type":"Point","coordinates":[20.871019,42.895585]}},{"type":"feature","properties":{"country_en":"Serbia","name":"Nova Pazova","name_adm0":"Serbia","name_adm1":"Srem","name_en":"Nova Pazova"},"geometry":{"type":"Point","coordinates":[20.246558,44.932891]}},{"type":"feature","properties":{"country_en":"Serbia","name":"Pančevo","name_adm0":"Serbia","name_adm1":"Juzhni Banat","name_en":"Pantschowa"},"geometry":{"type":"Point","coordinates":[20.646797,44.873457]}},{"type":"feature","properties":{"country_en":"Serbia","name":"Prizren","name_adm0":"Serbia","name_adm1":"Prizren","name_en":"Perzerin"},"geometry":{"type":"Point","coordinates":[20.739719,42.219873]}},{"type":"feature","properties":{"country_en":"Serbia","name":"Å Abac","name_adm0":"Serbia","name_adm1":"Machva","name_en":"Chabats"},"geometry":{"type":"Point","coordinates":[19.699001,44.750512]}},{"type":"feature","properties":{"country_en":"Serbia","name":"Smederevo","name_adm0":"Serbia","name_adm1":"Podunavlje","name_en":"Smedere"},"geometry":{"type":"Point","coordinates":[20.931336499999997,44.6673705]}},{"type":"feature","properties":{"country_en":"Serbia","name":"Sombor","name_adm0":"Serbia","name_adm1":"Zapadna Bachka","name_en":"Zombor"},"geometry":{"type":"Point","coordinates":[19.092199,45.7708155]}},{"type":"feature","properties":{"country_en":"Serbia","name":"Sremski Karlovci","name_adm0":"Serbia","name_adm1":"Juzhna Bachka","name_en":"Karlowitz"},"geometry":{"type":"Point","coordinates":[19.934778,45.20175499999999]}},{"type":"feature","properties":{"country_en":"Serbia","name":"Subotica","name_adm0":"Serbia","name_adm1":"Severna Bachka","name_en":"Zubotica"},"geometry":{"type":"Point","coordinates":[19.672908,46.098412]}},{"type":"feature","properties":{"country_en":"Serbia","name":"Temerin","name_adm0":"Serbia","name_adm1":"Juzhna Bachka","name_en":"Temerin"},"geometry":{"type":"Point","coordinates":[19.833759,45.38451]}},{"type":"feature","properties":{"country_en":"Serbia","name":"Titovo Užice","name_adm0":"Serbia","name_adm1":"Zlatibor","name_en":"Oujiste"},"geometry":{"type":"Point","coordinates":[19.841736999999995,43.854861]}},{"type":"feature","properties":{"country_en":"Serbia","name":"Topčidersko Brdo","name_adm0":"Serbia","name_adm1":"Beograd","name_en":"Topchi Dere"},"geometry":{"type":"Point","coordinates":[20.459547,44.781758]}},{"type":"feature","properties":{"country_en":"Serbia","name":"Palić","name_adm0":"Serbia","name_adm1":"Severna Bachka","name_en":"Palics"},"geometry":{"type":"Point","coordinates":[19.75647,46.10646]}},{"type":"feature","properties":{"country_en":"Serbia","name":"Rashka","name_adm0":"Serbia","name_adm1":"Rashka","name_en":"Rashka"},"geometry":{"type":"Point","coordinates":[20.580825499999996,43.312188]}},{"type":"feature","properties":{"country_en":"Serbia","name":"Kolubara","name_adm0":"Serbia","name_adm1":"Kolubara","name_en":"Kolubara"},"geometry":{"type":"Point","coordinates":[19.97447,44.112876]}},{"type":"feature","properties":{"country_en":"Serbia","name":"Zlatibor","name_adm0":"Serbia","name_adm1":"Zlatibor","name_en":"Zlatibor"},"geometry":{"type":"Point","coordinates":[19.782943,43.643404]}},{"type":"feature","properties":{"country_en":"Serbia","name":"Rasina","name_adm0":"Serbia","name_adm1":"Rasina","name_en":"Rasina"},"geometry":{"type":"Point","coordinates":[21.203613,43.504238]}},{"type":"feature","properties":{"country_en":"Serbia","name":"Pchinja","name_adm0":"Serbia","name_adm1":"Pchinja","name_en":"Pchinja"},"geometry":{"type":"Point","coordinates":[22.03956,42.52999799999999]}},{"type":"feature","properties":{"country_en":"Serbia","name":"Juzhni Banat","name_adm0":"Serbia","name_adm1":"Juzhni Banat","name_en":"Juzhni Banat"},"geometry":{"type":"Point","coordinates":[20.939426,44.99648899999999]}},{"type":"feature","properties":{"country_en":"Serbia","name":"Nishava","name_adm0":"Serbia","name_adm1":"Nishava","name_en":"Nishava"},"geometry":{"type":"Point","coordinates":[21.895709,43.343157]}},{"type":"feature","properties":{"country_en":"Serbia","name":"Kovilj","name_adm0":"Serbia","name_adm1":"Juzhna Bachka","name_en":"Kovilj"},"geometry":{"type":"Point","coordinates":[20.02327,45.23422]}},{"type":"feature","properties":{"country_en":"Serbia","name":"Severni Banat","name_adm0":"Serbia","name_adm1":"Severni Banat","name_en":"Severni Banat"},"geometry":{"type":"Point","coordinates":[20.450502,45.8384585]}},{"type":"feature","properties":{"country_en":"Serbia","name":"Boljevac","name_adm0":"Serbia","name_adm1":"Zajechar","name_en":"Boljevac"},"geometry":{"type":"Point","coordinates":[21.506789999999995,43.4104]}},{"type":"feature","properties":{"country_en":"Serbia","name":"Sibnica","name_adm0":"Serbia","name_adm1":"Beograd","name_en":"Sibnica"},"geometry":{"type":"Point","coordinates":[20.453299999999995,44.46437]}},{"type":"feature","properties":{"country_en":"Serbia","name":"Svetozar Miletić","name_adm0":"Serbia","name_adm1":"Zapadna Bachka","name_en":"Nemes-Militics"},"geometry":{"type":"Point","coordinates":[19.20581,45.85223]}},{"type":"feature","properties":{"country_en":"Serbia","name":"Vučitrn","name_adm0":"Serbia","name_adm1":"Kosovska Mitrovica","name_en":"Vučitrn"},"geometry":{"type":"Point","coordinates":[20.974906,42.8152755]}},{"type":"feature","properties":{"country_en":"Serbia","name":"Zrenjanin","name_adm0":"Serbia","name_adm1":"Srednji Banat","name_adm2":"Zrenjanin","name_en":"Zrenjanin"},"geometry":{"type":"Point","coordinates":[20.38194,45.38361]}},{"type":"feature","properties":{"country_en":"Serbia","name":"Subotica","name_adm0":"Serbia","name_adm1":"Severna Bachka","name_adm2":"Subotica","name_en":"Subotica"},"geometry":{"type":"Point","coordinates":[19.66667,46.1]}},{"type":"feature","properties":{"country_en":"Serbia","name":"Vinča","name_adm0":"Serbia","name_adm1":"Beograd","name_en":"Vinča"},"geometry":{"type":"Point","coordinates":[20.61581,44.76139]}},{"type":"feature","properties":{"country_en":"Serbia","name":"Brzeće","name_adm0":"Serbia","name_adm1":"Rasina","name_en":"Brzeće"},"geometry":{"type":"Point","coordinates":[21.076669999999996,43.07193999999999]}},{"type":"feature","properties":{"country_en":"Serbia","name":"Dobra","name_adm0":"Serbia","name_adm1":"Branichevo","name_en":"Dobra"},"geometry":{"type":"Point","coordinates":[21.90826,44.63602]}},{"type":"feature","properties":{"country_en":"Serbia","name":"Golubac","name_adm0":"Serbia","name_adm1":"Branichevo","name_en":"Golubats"},"geometry":{"type":"Point","coordinates":[21.49863,43.80762]}},{"type":"feature","properties":{"country_en":"Serbia","name":"Laplje Selo","name_adm0":"Serbia","name_adm1":"Kosovo","name_en":"Kadikej"},"geometry":{"type":"Point","coordinates":[21.140829999999998,42.596669999999996]}},{"type":"feature","properties":{"country_en":"Serbia","name":"Krnjača","name_adm0":"Serbia","name_adm1":"Beograd","name_en":"Krnjača"},"geometry":{"type":"Point","coordinates":[20.49612,44.83786]}},{"type":"feature","properties":{"country_en":"Serbia","name":"Å Etonje","name_adm0":"Serbia","name_adm1":"Branichevo","name_en":"Å Etonje"},"geometry":{"type":"Point","coordinates":[21.38762,44.76713]}},{"type":"feature","properties":{"country_en":"Serbia","name":"Studencia","name_adm0":"Serbia","name_adm1":"Rashka","name_en":"Studencia"},"geometry":{"type":"Point","coordinates":[20.38694,42.76778]}},{"type":"feature","properties":{"country_en":"Serbia","name":"Šabac","name_adm0":"Serbia","name_adm1":"Machva","name_adm2":"Šabac","name_en":"Šabac"},"geometry":{"type":"Point","coordinates":[19.69,44.74667]}},{"type":"feature","properties":{"country_en":"Serbia","name":"Draginja","name_adm0":"Serbia","name_adm1":"Machva","name_en":"Draginja"},"geometry":{"type":"Point","coordinates":[19.7625,44.53302]}},{"type":"feature","properties":{"country_en":"Serbia","name":"Veliki Gaj","name_adm0":"Serbia","name_adm1":"Juzhni Banat","name_en":"Nagygaj"},"geometry":{"type":"Point","coordinates":[21.17057,45.288489999999996]}},{"type":"feature","properties":{"country_en":"Serbia","name":"Vreoci","name_adm0":"Serbia","name_adm1":"Beograd","name_en":"Vreoci"},"geometry":{"type":"Point","coordinates":[20.28201,44.44336]}},{"type":"feature","properties":{"country_en":"Serbia","name":"Železnik","name_adm0":"Serbia","name_adm1":"Beograd","name_en":"Železnik"},"geometry":{"type":"Point","coordinates":[20.37513,44.724059999999994]}},