{"type":"FeatureCollection","features":[{"type":"feature","properties":{"country_en":"Singapore","name":"Central Catchment Reserve","name_adm0":"Singapore","name_adm1":"Central Singapore","name_en":"Central Catchment Reserve"},"geometry":{"type":"Point","coordinates":[103.82771299999999,1.3562]}},{"type":"feature","properties":{"country_en":"Singapore","name":"Kampong Loyang","name_adm0":"Singapore","name_adm1":"South East","name_en":"Kampong Loyang"},"geometry":{"type":"Point","coordinates":[103.95944,1.37778]}},{"type":"feature","properties":{"country_en":"Singapore","name":"Paya Lebar","name_adm0":"Singapore","name_adm1":"North East","name_en":"Paya Lebar"},"geometry":{"type":"Point","coordinates":[103.32081,1.08611]}},{"type":"feature","properties":{"country_en":"Singapore","name":"Marina","name_adm0":"Singapore","name_adm1":"Central Singapore","name_en":"Marina"},"geometry":{"type":"Point","coordinates":[103.860797,1.285094]}},{"type":"feature","properties":{"country_en":"Singapore","name":"Dhoby Ghaut","name_adm0":"Singapore","name_adm1":"Central Singapore","name_en":"Dhoby Ghaut"},"geometry":{"type":"Point","coordinates":[103.845326,1.298287]}},{"type":"feature","properties":{"country_en":"Singapore","name":"Queenstown","name_adm0":"Singapore","name_adm1":"Central Singapore","name_en":"Queenstown"},"geometry":{"type":"Point","coordinates":[103.79477249999998,1.302491]}},{"type":"feature","properties":{"country_en":"Singapore","name":"Kallang","name_adm0":"Singapore","name_adm1":"South East","name_en":"Kallang"},"geometry":{"type":"Point","coordinates":[103.874305,1.300974]}},{"type":"feature","properties":{"country_en":"Singapore","name":"Sungei Kadut","name_adm0":"Singapore","name_adm1":"South West","name_en":"Sungei Kadut"},"geometry":{"type":"Point","coordinates":[103.76474999999999,1.454977]}},{"type":"feature","properties":{"country_en":"Singapore","name":"Bukit Timah","name_adm0":"Singapore","name_adm1":"Central Singapore","name_en":"Bukit Timah"},"geometry":{"type":"Point","coordinates":[103.777767,1.3346999999999998]}},{"type":"feature","properties":{"country_en":"Singapore","name":"Changi Village","name_adm0":"Singapore","name_adm1":"South East","name_en":"Changi Village"},"geometry":{"type":"Point","coordinates":[103.98306,1.38444]}},{"type":"feature","properties":{"country_en":"Singapore","name":"Marina Centre","name_adm0":"Singapore","name_adm1":"Central Singapore","name_en":"Marina Centre"},"geometry":{"type":"Point","coordinates":[103.858833,1.2937789999999998]}},{"type":"feature","properties":{"country_en":"Singapore","name":"Choa Chu Kang New Town","name_adm0":"Singapore","name_adm1":"South West","name_en":"Choa Chu Kang New Town"},"geometry":{"type":"Point","coordinates":[103.74972,1.3824999999999998]}},{"type":"feature","properties":{"country_en":"Singapore","name":"Chong Pang","name_adm0":"Singapore","name_adm1":"North West","name_en":"Chong Pang"},"geometry":{"type":"Point","coordinates":[103.82389,1.4444399999999997]}},{"type":"feature","properties":{"country_en":"Singapore","name":"Braddell Heights","name_adm0":"Singapore","name_adm1":"North East","name_en":"Braddell Heights"},"geometry":{"type":"Point","coordinates":[103.85243,1.338225]}},{"type":"feature","properties":{"country_en":"Singapore","name":"Bukit Batok","name_adm0":"Singapore","name_adm1":"South West","name_en":"Bukit Batok"},"geometry":{"type":"Point","coordinates":[103.36183999999999,1.0404599999999997]}},{"type":"feature","properties":{"country_en":"Singapore","name":"Newton","name_adm0":"Singapore","name_adm1":"Central Singapore","name_en":"Newton"},"geometry":{"type":"Point","coordinates":[103.83757,1.30902]}},{"type":"feature","properties":{"country_en":"Singapore","name":"Telok Blangah","name_adm0":"Singapore","name_adm1":"South West","name_en":"Telok Blangah"},"geometry":{"type":"Point","coordinates":[103.802574,1.2792]}},{"type":"feature","properties":{"country_en":"Singapore","name":"Kranji","name_adm0":"Singapore","name_adm1":"North West","name_en":"Kranji"},"geometry":{"type":"Point","coordinates":[103.7291205,1.4447985]}},{"type":"feature","properties":{"country_en":"Singapore","name":"Buona Vista","name_adm0":"Singapore","name_adm1":"South West","name_en":"Buona Vista"},"geometry":{"type":"Point","coordinates":[103.776683,1.2782769999999999]}},{"type":"feature","properties":{"country_en":"Singapore","name":"Kampong Punggol","name_adm0":"Singapore","name_adm1":"North East","name_en":"Kampong Punggol"},"geometry":{"type":"Point","coordinates":[103.91028,1.4125]}},{"type":"feature","properties":{"country_en":"Singapore","name":"Matilda Estate","name_adm0":"Singapore","name_adm1":"North East","name_en":"Matilda Estate"},"geometry":{"type":"Point","coordinates":[103.90278,1.39944]}},{"type":"feature","properties":{"country_en":"Singapore","name":"Mok Peng Hiang Estate","name_adm0":"Singapore","name_adm1":"North West","name_en":"Mok Peng Hiang Estate"},"geometry":{"type":"Point","coordinates":[103.79694,1.44556]}},{"type":"feature","properties":{"country_en":"Singapore","name":"Sin Watt Estate","name_adm0":"Singapore","name_adm1":"North East","name_en":"Sin Watt Estate"},"geometry":{"type":"Point","coordinates":[103.95056,1.4141699999999997]}},{"type":"feature","properties":{"country_en":"Singapore","name":"Tampines Central","name_adm0":"Singapore","name_adm1":"North East","name_en":"Tampines Central"},"geometry":{"type":"Point","coordinates":[103.931522,1.3556999999999997]}},{"type":"feature","properties":{"country_en":"Singapore","name":"Marina East","name_adm0":"Singapore","name_adm1":"South East","name_en":"Marina East"},"geometry":{"type":"Point","coordinates":[103.894711,1.296265]}},{"type":"feature","properties":{"country_en":"Singapore","name":"Tiong Bahru","name_adm0":"Singapore","name_adm1":"Central Singapore","name_en":"Tiong Bahru"},"geometry":{"type":"Point","coordinates":[103.83199999999998,1.2894789999999998]}},{"type":"feature","properties":{"country_en":"Singapore","name":"Sungai Simpang","name_adm0":"Singapore","name_adm1":"North West","name_en":"Sungai Simpang"},"geometry":{"type":"Point","coordinates":[103.82667,1.43806]}},{"type":"feature","properties":{"country_en":"Singapore","name":"Bukit Mandai Village","name_adm0":"Singapore","name_adm1":"North West","name_en":"Bukit Mandai Village"},"geometry":{"type":"Point","coordinates":[103.75667,1.41222]}},{"type":"feature","properties":{"country_en":"Singapore","name":"Yishun New Town","name_adm0":"Singapore","name_adm1":"North West","name_en":"Yishun New Town"},"geometry":{"type":"Point","coordinates":[103.83111,1.4333299999999998]}},{"type":"feature","properties":{"country_en":"Singapore","name":"Singapore","name_adm0":"Singapore","name_adm1":"Central Singapore","name_en":"Singapore"},"geometry":{"type":"Point","coordinates":[103.85007,1.28967]}},{"type":"feature","properties":{"country_en":"Singapore","name":"Hougang","name_adm0":"Singapore","name_adm1":"North East","name_en":"Hougang"},"geometry":{"type":"Point","coordinates":[103.89498999999999,1.371169]}},{"type":"feature","properties":{"country_en":"Singapore","name":"Nee Soon Estate","name_adm0":"Singapore","name_adm1":"Central Singapore","name_en":"Nee Soon Estate"},"geometry":{"type":"Point","coordinates":[103.81778,1.40278]}},{"type":"feature","properties":{"country_en":"Singapore","name":"Outram","name_adm0":"Singapore","name_adm1":"Central Singapore","name_en":"Outram"},"geometry":{"type":"Point","coordinates":[103.843588,1.2833229999999998]}},{"type":"feature","properties":{"country_en":"Singapore","name":"Rochor","name_adm0":"Singapore","name_adm1":"Central Singapore","name_en":"Rochor"},"geometry":{"type":"Point","coordinates":[103.852043,1.302797]}},{"type":"feature","properties":{"country_en":"Singapore","name":"River Valley","name_adm0":"Singapore","name_adm1":"Central Singapore","name_en":"River Valley"},"geometry":{"type":"Point","coordinates":[103.831862,1.295291]}},{"type":"feature","properties":{"country_en":"Singapore","name":"Simei","name_adm0":"Singapore","name_adm1":"North East","name_en":"Simei"},"geometry":{"type":"Point","coordinates":[103.958773,1.333656]}},{"type":"feature","properties":{"country_en":"Singapore","name":"Tampines West","name_adm0":"Singapore","name_adm1":"North East","name_en":"Tampines West"},"geometry":{"type":"Point","coordinates":[103.93238,1.344979]}},{"type":"feature","properties":{"country_en":"Singapore","name":"Tampines Changkat","name_adm0":"Singapore","name_adm1":"North East","name_en":"Tampines Changkat"},"geometry":{"type":"Point","coordinates":[103.950265,1.345154]}},{"type":"feature","properties":{"country_en":"Singapore","name":"Tampines North","name_adm0":"Singapore","name_adm1":"North East","name_en":"Tampines North"},"geometry":{"type":"Point","coordinates":[103.945788,1.3605399999999999]}},{"type":"feature","properties":{"country_en":"Singapore","name":"Katong","name_adm0":"Singapore","name_adm1":"South East","name_en":"Katong"},"geometry":{"type":"Point","coordinates":[103.89524,1.315282]}},{"type":"feature","properties":{"country_en":"Singapore","name":"Western Catchment Area","name_adm0":"Singapore","name_adm1":"South West","name_en":"Western Catchment Area"},"geometry":{"type":"Point","coordinates":[103.691711,1.385678]}},{"type":"feature","properties":{"country_en":"Singapore","name":"Jurong Town","name_adm0":"Singapore","name_adm1":"South West","name_en":"Jurong Town"},"geometry":{"type":"Point","coordinates":[103.72278,1.33417]}},{"type":"feature","properties":{"country_en":"Singapore","name":"Orchard","name_adm0":"Singapore","name_adm1":"Central Singapore","name_en":"Orchard"},"geometry":{"type":"Point","coordinates":[103.83468999999998,1.30256]}},{"type":"feature","properties":{"country_en":"Singapore","name":"Thomson","name_adm0":"Singapore","name_adm1":"Central Singapore","name_en":"Thomson"},"geometry":{"type":"Point","coordinates":[103.836167,1.3645354999999997]}},{"type":"feature","properties":{"country_en":"Singapore","name":"Bedok North","name_adm0":"Singapore","name_adm1":"South East","name_en":"Bedok North"},"geometry":{"type":"Point","coordinates":[103.922344,1.333911]}},{"type":"feature","properties":{"country_en":"Singapore","name":"Punggol","name_adm0":"Singapore","name_adm1":"North East","name_en":"Punggol"},"geometry":{"type":"Point","coordinates":[103.90694,1.41444]}},{"type":"feature","properties":{"country_en":"Singapore","name":"Marsiling","name_adm0":"Singapore","name_adm1":"North West","name_en":"Marsiling"},"geometry":{"type":"Point","coordinates":[103.77082999999999,1.44111]}},{"type":"feature","properties":{"country_en":"Singapore","name":"Kampong Pasir Ris","name_adm0":"Singapore","name_adm1":"North East","name_en":"Kampong Pasir Ris"},"geometry":{"type":"Point","coordinates":[103.93194,1.3783299999999998]}},{"type":"feature","properties":{"country_en":"Singapore","name":"Seletar","name_adm0":"Singapore","name_adm1":"Central Singapore","name_en":"Seletar"},"geometry":{"type":"Point","coordinates":[103.87417,1.4099999999999997]}},{"type":"feature","properties":{"country_en":"Singapore","name":"Marine Parade","name_adm0":"Singapore","name_adm1":"South East","name_en":"Marine Parade"},"geometry":{"type":"Point","coordinates":[103.90778,1.30306]}},{"type":"feature","properties":{"country_en":"Singapore","name":"Jurong West New Town","name_adm0":"Singapore","name_adm1":"South West","name_en":"Jurong West New Town"},"geometry":{"type":"Point","coordinates":[103.706635,1.346833]}},{"type":"feature","properties":{"country_en":"Singapore","name":"Eunos","name_adm0":"Singapore","name_adm1":"North East","name_en":"Eunos"},"geometry":{"type":"Point","coordinates":[103.89822,1.32252]}},{"type":"feature","properties":{"country_en":"Singapore","name":"Tanglin Halt","name_adm0":"Singapore","name_adm1":"Central Singapore","name_en":"Tanglin Halt"},"geometry":{"type":"Point","coordinates":[103.7975,1.30139]}},{"type":"feature","properties":{"country_en":"Singapore","name":"Singapore","name_adm0":"Singapore","name_en":"Singapore"},"geometry":{"type":"Point","coordinates":[103.82771299999999,1.365579]}},{"type":"feature","properties":{"country_en":"Singapore","name":"Pioneer","name_adm0":"Singapore","name_adm1":"South West","name_en":"Pioneer"},"geometry":{"type":"Point","coordinates":[103.676838,1.331502]}},{"type":"feature","properties":{"country_en":"Singapore","name":"Bishan","name_adm0":"Singapore","name_adm1":"Central Singapore","name_en":"Bishan"},"geometry":{"type":"Point","coordinates":[103.83933299999998,1.355343]}},{"type":"feature","properties":{"country_en":"Singapore","name":"Central Catchment Area","name_adm0":"Singapore","name_adm1":"North West","name_en":"Central Catchment Area"},"geometry":{"type":"Point","coordinates":[103.79023399999998,1.404607]}},{"type":"feature","properties":{"country_en":"Singapore","name":"Tampines East","name_adm0":"Singapore","name_adm1":"North East","name_en":"Tampines East"},"geometry":{"type":"Point","coordinates":[103.961996,1.3555739999999998]}},{"type":"feature","properties":{"country_en":"Singapore","name":"Tuas","name_adm0":"Singapore","name_adm1":"South West","name_en":"Tuas"},"geometry":{"type":"Point","coordinates":[103.63821699999998,1.338665]}},{"type":"feature","properties":{"country_en":"Singapore","name":"Sentosa","name_adm0":"Singapore","name_adm1":"South West","name_en":"Sentosa"},"geometry":{"type":"Point","coordinates":[103.82278,1.254057]}},{"type":"feature","properties":{"country_en":"Singapore","name":"Novena","name_adm0":"Singapore","name_adm1":"Central Singapore","name_en":"Novena"},"geometry":{"type":"Point","coordinates":[103.8438,1.31697]}},{"type":"feature","properties":{"country_en":"Singapore","name":"Siglap","name_adm0":"Singapore","name_adm1":"South East","name_en":"Siglap"},"geometry":{"type":"Point","coordinates":[103.92457,1.311421]}},{"type":"feature","properties":{"country_en":"Singapore","name":"Kampong Belimbing","name_adm0":"Singapore","name_adm1":"South West","name_en":"Kampong Belimbing"},"geometry":{"type":"Point","coordinates":[103.3181,2.0541999999999994]}},{"type":"feature","properties":{"country_en":"Singapore","name":"Kampong Salabin","name_adm0":"Singapore","name_adm1":"South East","name_en":"Kampong Salabin"},"geometry":{"type":"Point","coordinates":[104.03333,1.41611]}},{"type":"feature","properties":{"country_en":"Singapore","name":"Serangoon","name_adm0":"Singapore","name_adm1":"North East","name_en":"Serangoon"},"geometry":{"type":"Point","coordinates":[103.87229999999998,1.35119]}},{"type":"feature","properties":{"country_en":"Singapore","name":"Bukit Panjang New Town","name_adm0":"Singapore","name_adm1":"North West","name_en":"Bukit Panjang New Town"},"geometry":{"type":"Point","coordinates":[103.76472,1.37972]}},{"type":"feature","properties":{"country_en":"Singapore","name":"Pulau Tekong","name_adm0":"Singapore","name_adm1":"South East","name_en":"Pulau Tekong"},"geometry":{"type":"Point","coordinates":[104.0223,1.364963]}},{"type":"feature","properties":{"country_en":"Singapore","name":"Tampines","name_adm0":"Singapore","name_adm1":"North East","name_en":"Tampines"},"geometry":{"type":"Point","coordinates":[103.944675,1.349627]}},{"type":"feature","properties":{"country_en":"Singapore","name":"Geylang","name_adm0":"Singapore","name_adm1":"North East","name_en":"Geylang"},"geometry":{"type":"Point","coordinates":[103.88646099999998,1.318197]}},{"type":"feature","properties":{"country_en":"Singapore","name":"Tanjong Rhu","name_adm0":"Singapore","name_adm1":"South East","name_en":"Tanjong Rhu"},"geometry":{"type":"Point","coordinates":[103.882942,1.297949]}},{"type":"feature","properties":{"country_en":"Singapore","name":"South East","name_adm0":"Singapore","name_adm1":"South East","name_en":"South East"},"geometry":{"type":"Point","coordinates":[103.88698,1.30683]}},{"type":"feature","properties":{"country_en":"Singapore","name":"South West","name_adm0":"Singapore","name_adm1":"South West","name_en":"South West"},"geometry":{"type":"Point","coordinates":[103.83007,1.31464]}},{"type":"feature","properties":{"country_en":"Singapore","name":"North West","name_adm0":"Singapore","name_adm1":"North West","name_en":"North West"},"geometry":{"type":"Point","coordinates":[103.81985999999999,1.2986799999999998]}},{"type":"feature","properties":{"country_en":"Singapore","name":"Jurong East New Town","name_adm0":"Singapore","name_adm1":"South West","name_en":"Jurong East New Town"},"geometry":{"type":"Point","coordinates":[103.738317,1.332867]}},{"type":"feature","properties":{"country_en":"Singapore","name":"Clementi","name_adm0":"Singapore","name_adm1":"South West","name_en":"Clementi"},"geometry":{"type":"Point","coordinates":[103.765482,1.31435]}},{"type":"feature","properties":{"country_en":"Singapore","name":"Ang Mo Kio","name_adm0":"Singapore","name_adm1":"Central Singapore","name_en":"Ang Mo Kio"},"geometry":{"type":"Point","coordinates":[103.849419,1.372833]}},{"type":"feature","properties":{"country_en":"Singapore","name":"Central Singapore","name_adm0":"Singapore","name_adm1":"Central Singapore","name_en":"Central Singapore"},"geometry":{"type":"Point","coordinates":[103.85366999999998,1.2986799999999998]}},{"type":"feature","properties":{"country_en":"Singapore","name":"Boon Lay","name_adm0":"Singapore","name_adm1":"South West","name_en":"Boon Lay"},"geometry":{"type":"Point","coordinates":[103.7,1.3333299999999997]}},{"type":"feature","properties":{"country_en":"Singapore","name":"North East","name_adm0":"Singapore","name_adm1":"North East","name_en":"North East"},"geometry":{"type":"Point","coordinates":[103.85822,1.31421]}},{"type":"feature","properties":{"country_en":"Singapore","name":"Bedok","name_adm0":"Singapore","name_adm1":"South East","name_en":"Bedok"},"geometry":{"type":"Point","coordinates":[103.937015,1.324658]}},{"type":"feature","properties":{"country_en":"Singapore","name":"Bukit Merah","name_adm0":"Singapore","name_adm1":"Central Singapore","name_en":"Bukit Merah"},"geometry":{"type":"Point","coordinates":[103.77394,1.34184]}},{"type":"feature","properties":{"country_en":"Singapore","name":"Marina South","name_adm0":"Singapore","name_adm1":"Central Singapore","name_en":"Marina South"},"geometry":{"type":"Point","coordinates":[103.85406,1.2297729999999998]}},{"type":"feature","properties":{"country_en":"Singapore","name":"Pulau Ubin Village","name_adm0":"Singapore","name_adm1":"North East","name_en":"Pulau Ubin Village"},"geometry":{"type":"Point","coordinates":[103.97139,1.40333]}},{"type":"feature","properties":{"country_en":"Singapore","name":"Jalan Kayu","name_adm0":"Singapore","name_adm1":"Central Singapore","name_en":"Jalan Kayu"},"geometry":{"type":"Point","coordinates":[103.87194,1.39722]}},{"type":"feature","properties":{"country_en":"Singapore","name":"Toa Payoh","name_adm0":"Singapore","name_adm1":"South East","name_en":"Toa Payoh"},"geometry":{"type":"Point","coordinates":[103.846979,1.329569]}},{"type":"feature","properties":{"country_en":"Singapore","name":"Woodlands New Town","name_adm0":"Singapore","name_adm1":"North West","name_en":"Woodlands New Town"},"geometry":{"type":"Point","coordinates":[103.77667,1.4444399999999997]}},{"type":"feature","properties":{"country_en":"Singapore","name":"Bedok South","name_adm0":"Singapore","name_adm1":"South East","name_en":"Bedok South"},"geometry":{"type":"Point","coordinates":[103.988014,1.315642]}}]}