{"type":"FeatureCollection","features":[{"type":"feature","properties":{"country_en":"San Marino","name":"Borgo Maggiore","name_adm0":"San Marino","name_adm1":"Borgo Maggiore","name_en":"Borgo Maggiore"},"geometry":{"type":"Point","coordinates":[12.447379999999999,43.94192999999999]}},{"type":"feature","properties":{"country_en":"San Marino","name":"San Marino","name_adm0":"San Marino","name_en":"San Marino"},"geometry":{"type":"Point","coordinates":[12.45979,43.942729]}},{"type":"feature","properties":{"country_en":"San Marino","name":"Domagnano","name_adm0":"San Marino","name_adm1":"Domagnano","name_en":"Domagnano"},"geometry":{"type":"Point","coordinates":[12.47008,43.95279]}},{"type":"feature","properties":{"country_en":"San Marino","name":"Faetano","name_adm0":"San Marino","name_adm1":"Faetano","name_en":"Faetano"},"geometry":{"type":"Point","coordinates":[12.49798,43.92831]}},{"type":"feature","properties":{"country_en":"San Marino","name":"San Marino","name_adm0":"San Marino","name_adm1":"San Marino","name_en":"San Marino"},"geometry":{"type":"Point","coordinates":[12.44639,43.93667]}},{"type":"feature","properties":{"country_en":"San Marino","name":"Fiorentino","name_adm0":"San Marino","name_adm1":"Fiorentino","name_en":"Fiorentino"},"geometry":{"type":"Point","coordinates":[12.45738,43.91001]}},{"type":"feature","properties":{"country_en":"San Marino","name":"Montegiardino","name_adm0":"San Marino","name_adm1":"Montegiardino","name_en":"Montegiardino"},"geometry":{"type":"Point","coordinates":[12.78333,43.8]}},{"type":"feature","properties":{"country_en":"San Marino","name":"Faetano","name_adm0":"San Marino","name_adm1":"Faetano","name_en":"Faetano"},"geometry":{"type":"Point","coordinates":[12.49849,43.9251]}},{"type":"feature","properties":{"country_en":"San Marino","name":"Serravalle","name_adm0":"San Marino","name_adm1":"Serravalle","name_en":"Serravalle"},"geometry":{"type":"Point","coordinates":[12.48167,43.96897]}},{"type":"feature","properties":{"country_en":"San Marino","name":"San Marino","name_adm0":"San Marino","name_adm1":"San Marino","name_en":"San Marino"},"geometry":{"type":"Point","coordinates":[12.45,43.93333]}},{"type":"feature","properties":{"country_en":"San Marino","name":"Valdragone","name_adm0":"San Marino","name_adm1":"Borgo Maggiore","name_en":"Valdragone"},"geometry":{"type":"Point","coordinates":[12.45622,43.94021]}},{"type":"feature","properties":{"country_en":"San Marino","name":"Serravalle","name_adm0":"San Marino","name_adm1":"Serravalle","name_en":"Serravalle"},"geometry":{"type":"Point","coordinates":[12.466669999999999,43.96666999999999]}},{"type":"feature","properties":{"country_en":"San Marino","name":"Fiorentino","name_adm0":"San Marino","name_adm1":"Fiorentino","name_en":"Fiorentino"},"geometry":{"type":"Point","coordinates":[12.45652,43.91144]}},{"type":"feature","properties":{"country_en":"San Marino","name":"Acquaviva","name_adm0":"San Marino","name_adm1":"Acquaviva","name_en":"Acquaviva"},"geometry":{"type":"Point","coordinates":[12.41667,43.95]}},{"type":"feature","properties":{"country_en":"San Marino","name":"Borgo Maggiore","name_adm0":"San Marino","name_adm1":"Borgo Maggiore","name_en":"Borgo Maggiore"},"geometry":{"type":"Point","coordinates":[12.44562,43.94092]}},{"type":"feature","properties":{"country_en":"San Marino","name":"Domagnano","name_adm0":"San Marino","name_adm1":"Domagnano","name_en":"Domagnano"},"geometry":{"type":"Point","coordinates":[12.48333,43.95417]}},{"type":"feature","properties":{"country_en":"San Marino","name":"Acquaviva","name_adm0":"San Marino","name_adm1":"Acquaviva","name_en":"Acquaviva"},"geometry":{"type":"Point","coordinates":[12.4185,43.94593]}},{"type":"feature","properties":{"country_en":"San Marino","name":"Poggio di Chiesanuova","name_adm0":"San Marino","name_adm1":"Chiesanuova","name_en":"Chiesanuova"},"geometry":{"type":"Point","coordinates":[12.42142,43.90451]}}]}