{"type":"FeatureCollection","features":[{"type":"feature","properties":{"country_en":"Suriname","name":"Hamburg","name_adm0":"Suriname","name_adm1":"Saramacca","name_en":"Hamburg"},"geometry":{"type":"Point","coordinates":[-55.349999999999994,5.78333]}},{"type":"feature","properties":{"country_en":"Suriname","name":"Constantia","name_adm0":"Suriname","name_adm1":"Commewijne","name_en":"Constantia"},"geometry":{"type":"Point","coordinates":[-54.916669999999996,5.91667]}},{"type":"feature","properties":{"country_en":"Suriname","name":"Djoemoe","name_adm0":"Suriname","name_adm1":"Sipaliwini","name_en":"Djoemoe"},"geometry":{"type":"Point","coordinates":[-55.48333,4.01667]}},{"type":"feature","properties":{"country_en":"Suriname","name":"Jodensavanne","name_adm0":"Suriname","name_adm1":"Para","name_en":"Jodensavanne"},"geometry":{"type":"Point","coordinates":[-54.98333,5.416669999999999]}},{"type":"feature","properties":{"country_en":"Suriname","name":"Suriname","name_adm0":"Suriname","name_en":"Suriname"},"geometry":{"type":"Point","coordinates":[-56.032028,3.91784]}},{"type":"feature","properties":{"country_en":"Suriname","name":"Commewijne","name_adm0":"Suriname","name_adm1":"Commewijne","name_en":"Commewijne"},"geometry":{"type":"Point","coordinates":[-54.916669999999996,5.749999999999999]}},{"type":"feature","properties":{"country_en":"Suriname","name":"Nickerie","name_adm0":"Suriname","name_adm1":"Nickerie","name_en":"Nickerie"},"geometry":{"type":"Point","coordinates":[-56.83333,5.66667]}},{"type":"feature","properties":{"country_en":"Suriname","name":"Brokopondo","name_adm0":"Suriname","name_adm1":"Brokopondo","name_en":"Brokopondo"},"geometry":{"type":"Point","coordinates":[-55.53333,5.05]}},{"type":"feature","properties":{"country_en":"Suriname","name":"Friendship","name_adm0":"Suriname","name_adm1":"Coronie","name_en":"Friendship"},"geometry":{"type":"Point","coordinates":[-56.33332999999999,5.9]}},{"type":"feature","properties":{"country_en":"Suriname","name":"Berlijn","name_adm0":"Suriname","name_adm1":"Para","name_en":"Berlijn"},"geometry":{"type":"Point","coordinates":[-55.21667,5.3999999999999995]}},{"type":"feature","properties":{"country_en":"Suriname","name":"Bigiston","name_adm0":"Suriname","name_adm1":"Marowijne","name_en":"Bigiston"},"geometry":{"type":"Point","coordinates":[-54.133329999999994,5.3999999999999995]}},{"type":"feature","properties":{"country_en":"Suriname","name":"Hecht en Sterk","name_adm0":"Suriname","name_adm1":"Commewijne","name_en":"Hecht en Sterk"},"geometry":{"type":"Point","coordinates":[-54.96666999999999,5.883329999999999]}},{"type":"feature","properties":{"country_en":"Suriname","name":"Huwelijkszorg","name_adm0":"Suriname","name_adm1":"Saramacca","name_en":"Huwelijkszorg"},"geometry":{"type":"Point","coordinates":[-55.68333,5.883329999999999]}},{"type":"feature","properties":{"country_en":"Suriname","name":"Pikienkondre","name_adm0":"Suriname","name_adm1":"Sipaliwini","name_en":"Pikienkondre"},"geometry":{"type":"Point","coordinates":[-54.68332999999999,4.11667]}},{"type":"feature","properties":{"country_en":"Suriname","name":"Kwamalasamutu","name_adm0":"Suriname","name_adm1":"Sipaliwini","name_en":"Kwamalasamutu"},"geometry":{"type":"Point","coordinates":[-56.78333,2.33333]}},{"type":"feature","properties":{"country_en":"Suriname","name":"Wanica","name_adm0":"Suriname","name_adm1":"Wanica","name_en":"Wanica"},"geometry":{"type":"Point","coordinates":[-55.25,5.749999999999999]}},{"type":"feature","properties":{"country_en":"Suriname","name":"La Poule","name_adm0":"Suriname","name_adm1":"Saramacca","name_en":"La Poule"},"geometry":{"type":"Point","coordinates":[-55.41667,5.78333]}},{"type":"feature","properties":{"country_en":"Suriname","name":"Overtoom","name_adm0":"Suriname","name_adm1":"Para","name_en":"Overtoom"},"geometry":{"type":"Point","coordinates":[-55.15,5.58333]}},{"type":"feature","properties":{"country_en":"Suriname","name":"Pakka-Pakka","name_adm0":"Suriname","name_adm1":"Sipaliwini","name_en":"Pakka-Pakka"},"geometry":{"type":"Point","coordinates":[-55.68333,4.63333]}},{"type":"feature","properties":{"country_en":"Suriname","name":"Mongotapoe","name_adm0":"Suriname","name_adm1":"Marowijne","name_en":"Mongotapoe"},"geometry":{"type":"Point","coordinates":[-54.24999999999999,5.58333]}},{"type":"feature","properties":{"country_en":"Suriname","name":"Asindonhopo","name_adm0":"Suriname","name_adm1":"Sipaliwini","name_en":"Asindonhopo"},"geometry":{"type":"Point","coordinates":[-55.48333,4]}},{"type":"feature","properties":{"country_en":"Suriname","name":"Brownsweg","name_adm0":"Suriname","name_adm1":"Brokopondo","name_en":"Brownsweg"},"geometry":{"type":"Point","coordinates":[-55.15,4.999999999999999]}},{"type":"feature","properties":{"country_en":"Suriname","name":"Langamankondre","name_adm0":"Suriname","name_adm1":"Marowijne","name_en":"Langamankondre"},"geometry":{"type":"Point","coordinates":[-54.01667,5.71667]}},{"type":"feature","properties":{"country_en":"Suriname","name":"Onverdacht","name_adm0":"Suriname","name_adm1":"Para","name_en":"Onverdacht"},"geometry":{"type":"Point","coordinates":[-55.15,5.6]}},{"type":"feature","properties":{"country_en":"Suriname","name":"Stonehoekoe","name_adm0":"Suriname","name_adm1":"Sipaliwini","name_en":"Stonehoekoe"},"geometry":{"type":"Point","coordinates":[-55.58333,3.8833299999999995]}},{"type":"feature","properties":{"country_en":"Suriname","name":"Pokigron","name_adm0":"Suriname","name_adm1":"Sipaliwini","name_en":"Pokigron"},"geometry":{"type":"Point","coordinates":[-55.36667,4.5]}},{"type":"feature","properties":{"country_en":"Suriname","name":"Meerzorg","name_adm0":"Suriname","name_adm1":"Commewijne","name_en":"Meerzorg"},"geometry":{"type":"Point","coordinates":[-55.15209999999999,5.81194]}},{"type":"feature","properties":{"country_en":"Suriname","name":"Moengo","name_adm0":"Suriname","name_adm1":"Marowijne","name_en":"Moengo"},"geometry":{"type":"Point","coordinates":[-54.4,5.616669999999999]}},{"type":"feature","properties":{"country_en":"Suriname","name":"Saramacca","name_adm0":"Suriname","name_adm1":"Saramacca","name_en":"Saramacca"},"geometry":{"type":"Point","coordinates":[-55.58333,5.66667]}},{"type":"feature","properties":{"country_en":"Suriname","name":"Visserszorg","name_adm0":"Suriname","name_adm1":"Commewijne","name_en":"Visserszorg"},"geometry":{"type":"Point","coordinates":[-55.01666999999999,5.86667]}},{"type":"feature","properties":{"country_en":"Suriname","name":"Springlands","name_adm0":"Suriname","name_adm1":"Nickerie","name_en":"Springlands"},"geometry":{"type":"Point","coordinates":[-57.13475,5.90049]}},{"type":"feature","properties":{"country_en":"Suriname","name":"Spieringshoek","name_adm0":"Suriname","name_adm1":"Commewijne","name_en":"Spieringshoek"},"geometry":{"type":"Point","coordinates":[-54.96666999999999,5.86667]}},{"type":"feature","properties":{"country_en":"Suriname","name":"Tamanredjo","name_adm0":"Suriname","name_adm1":"Commewijne","name_en":"Tamanredjo"},"geometry":{"type":"Point","coordinates":[-55,5.76667]}},{"type":"feature","properties":{"country_en":"Suriname","name":"Waterloo","name_adm0":"Suriname","name_adm1":"Nickerie","name_en":"Waterloo"},"geometry":{"type":"Point","coordinates":[-56.98333,5.93333]}},{"type":"feature","properties":{"country_en":"Suriname","name":"Mariënburg","name_adm0":"Suriname","name_adm1":"Commewijne","name_en":"Mariënburg"},"geometry":{"type":"Point","coordinates":[-55.02159,5.84691]}},{"type":"feature","properties":{"country_en":"Suriname","name":"Marowijne","name_adm0":"Suriname","name_adm1":"Marowijne","name_en":"Marowijne"},"geometry":{"type":"Point","coordinates":[-54.33333,5.5]}},{"type":"feature","properties":{"country_en":"Suriname","name":"Paramaribo","name_adm0":"Suriname","name_adm1":"Paramaribo","name_en":"Paramaribo"},"geometry":{"type":"Point","coordinates":[-55.16667,5.86667]}},{"type":"feature","properties":{"country_en":"Suriname","name":"Sipaliwini","name_adm0":"Suriname","name_adm1":"Sipaliwini","name_en":"Sipaliwini"},"geometry":{"type":"Point","coordinates":[-56,4]}},{"type":"feature","properties":{"country_en":"Suriname","name":"Lelydorp","name_adm0":"Suriname","name_adm1":"Wanica","name_en":"Lelydorp"},"geometry":{"type":"Point","coordinates":[-55.233329999999995,5.7]}},{"type":"feature","properties":{"country_en":"Suriname","name":"Nieuw Nickerie","name_adm0":"Suriname","name_adm1":"Nickerie","name_en":"Nieuw Nickerie"},"geometry":{"type":"Point","coordinates":[-56.990203,5.943814]}},{"type":"feature","properties":{"country_en":"Suriname","name":"Palumeu","name_adm0":"Suriname","name_adm1":"Sipaliwini","name_en":"Palumeu"},"geometry":{"type":"Point","coordinates":[-55.446109,3.3455789999999994]}},{"type":"feature","properties":{"country_en":"Suriname","name":"Zoelen","name_adm0":"Suriname","name_adm1":"Commewijne","name_en":"Zoelen"},"geometry":{"type":"Point","coordinates":[-55.06667,5.883329999999999]}},{"type":"feature","properties":{"country_en":"Suriname","name":"Johanna-Margaretha","name_adm0":"Suriname","name_adm1":"Commewijne","name_en":"Johanna-Margaretha"},"geometry":{"type":"Point","coordinates":[-55.05,5.9]}},{"type":"feature","properties":{"country_en":"Suriname","name":"Belwaarde","name_adm0":"Suriname","name_adm1":"Commewijne","name_en":"Belwaarde"},"geometry":{"type":"Point","coordinates":[-55.08333,5.85]}},{"type":"feature","properties":{"country_en":"Suriname","name":"Para","name_adm0":"Suriname","name_adm1":"Para","name_en":"Para"},"geometry":{"type":"Point","coordinates":[-55.33332999999999,5.416669999999999]}},{"type":"feature","properties":{"country_en":"Suriname","name":"Dirkshoop","name_adm0":"Suriname","name_adm1":"Saramacca","name_en":"Dirkshoop"},"geometry":{"type":"Point","coordinates":[-55.48333,5.78333]}},{"type":"feature","properties":{"country_en":"Suriname","name":"Mon Trésor","name_adm0":"Suriname","name_adm1":"Commewijne","name_en":"Mon Trésor"},"geometry":{"type":"Point","coordinates":[-55.01666999999999,5.85]}},{"type":"feature","properties":{"country_en":"Suriname","name":"Zorg en Hoop","name_adm0":"Suriname","name_adm1":"Paramaribo","name_en":"Zorg en Hoop"},"geometry":{"type":"Point","coordinates":[-55.186,5.8099]}},{"type":"feature","properties":{"country_en":"Suriname","name":"Brokopondo","name_adm0":"Suriname","name_adm1":"Brokopondo","name_en":"Brokopondo"},"geometry":{"type":"Point","coordinates":[-55.16667,4.75]}},{"type":"feature","properties":{"country_en":"Suriname","name":"Potribo","name_adm0":"Suriname","name_adm1":"Commewijne","name_en":"Potribo"},"geometry":{"type":"Point","coordinates":[-54.75,5.749999999999999]}},{"type":"feature","properties":{"country_en":"Suriname","name":"Reynsdorp","name_adm0":"Suriname","name_adm1":"Commewijne","name_en":"Reynsdorp"},"geometry":{"type":"Point","coordinates":[-54.89999999999999,5.93333]}},{"type":"feature","properties":{"country_en":"Suriname","name":"Tioboto","name_adm0":"Suriname","name_adm1":"Sipaliwini","name_en":"Tioboto"},"geometry":{"type":"Point","coordinates":[-55.45,4.08333]}},{"type":"feature","properties":{"country_en":"Suriname","name":"Corneliskondre","name_adm0":"Suriname","name_adm1":"Sipaliwini","name_en":"Corneliskondre"},"geometry":{"type":"Point","coordinates":[-56.13333,5.35]}},{"type":"feature","properties":{"country_en":"Suriname","name":"Berg en Dal","name_adm0":"Suriname","name_adm1":"Brokopondo","name_en":"Berg en Dal"},"geometry":{"type":"Point","coordinates":[-55.06667,5.15]}},{"type":"feature","properties":{"country_en":"Suriname","name":"Granbori","name_adm0":"Suriname","name_adm1":"Sipaliwini","name_en":"Granbori"},"geometry":{"type":"Point","coordinates":[-54.849999999999994,3.8]}},{"type":"feature","properties":{"country_en":"Suriname","name":"Paranam","name_adm0":"Suriname","name_adm1":"Para","name_en":"Paranam"},"geometry":{"type":"Point","coordinates":[-55.1,5.616669999999999]}},{"type":"feature","properties":{"country_en":"Suriname","name":"Acote","name_adm0":"Suriname","name_adm1":"Sipaliwini","name_en":"Acote"},"geometry":{"type":"Point","coordinates":[-54.45,4.33333]}},{"type":"feature","properties":{"country_en":"Suriname","name":"Galibi","name_adm0":"Suriname","name_adm1":"Marowijne","name_en":"Galibi"},"geometry":{"type":"Point","coordinates":[-54,5.749999999999999]}},{"type":"feature","properties":{"country_en":"Suriname","name":"Dekweh","name_adm0":"Suriname","name_adm1":"Sipaliwini","name_en":"Dekweh"},"geometry":{"type":"Point","coordinates":[-55.45,3.93333]}},{"type":"feature","properties":{"country_en":"Suriname","name":"Calcutta","name_adm0":"Suriname","name_adm1":"Saramacca","name_en":"Calcutta"},"geometry":{"type":"Point","coordinates":[-55.68333,5.85]}}]}