{"type":"FeatureCollection","features":[{"type":"feature","properties":{"country_en":"Thailand","name":"Khlung","name_adm0":"Thailand","name_adm1":"Chanthaburi","name_adm2":"Khlung","name_en":"Khlung"},"geometry":{"type":"Point","coordinates":[102.22142,12.454669999999998]}},{"type":"feature","properties":{"country_en":"Thailand","name":"Ban Bua Loi (1)","name_adm0":"Thailand","name_adm1":"Sara Buri","name_adm2":"Nong Khae","name_en":"Ban Bua Loi (1)"},"geometry":{"type":"Point","coordinates":[100.84999999999998,14.4]}},{"type":"feature","properties":{"country_en":"Thailand","name":"Ban Bung Kaeo","name_adm0":"Thailand","name_adm1":"Udon Thani","name_adm2":"Non Sa-at","name_en":"Ban Bung Kaeo"},"geometry":{"type":"Point","coordinates":[102.94703,16.96928]}},{"type":"feature","properties":{"country_en":"Thailand","name":"Ban Bung Khla","name_adm0":"Thailand","name_adm1":"Nong Khai","name_adm2":"Bung Khla","name_en":"Ban Bung Khla"},"geometry":{"type":"Point","coordinates":[103.99111,18.29178]}},{"type":"feature","properties":{"country_en":"Thailand","name":"Ban Ching Kho","name_adm0":"Thailand","name_adm1":"Songkhla","name_adm2":"Singhanakhon","name_en":"Ban Ching Kho"},"geometry":{"type":"Point","coordinates":[100.51992,7.262970000000001]}},{"type":"feature","properties":{"country_en":"Thailand","name":"Ban Don Chomphu (1)","name_adm0":"Thailand","name_adm1":"Nakhon Ratchasima","name_adm2":"Non Sung","name_en":"Ban Don Chomphu (1)"},"geometry":{"type":"Point","coordinates":[102.33332999999999,15.149999999999999]}},{"type":"feature","properties":{"country_en":"Thailand","name":"Ban Don Kaeo","name_adm0":"Thailand","name_adm1":"Phayao","name_adm2":"Pong","name_en":"Ban Don Kaeo"},"geometry":{"type":"Point","coordinates":[100.32169,19.22325]}},{"type":"feature","properties":{"country_en":"Thailand","name":"Ban Hua Krut","name_adm0":"Thailand","name_adm1":"Nong Khai","name_adm2":"Tha Bo","name_en":"Ban Hua Krut"},"geometry":{"type":"Point","coordinates":[102.70264,17.33044]}},{"type":"feature","properties":{"country_en":"Thailand","name":"Ban Hua Tha Chang","name_adm0":"Thailand","name_adm1":"Phetchaburi","name_adm2":"Khao Yoi","name_en":"Ban Hua Tha Chang"},"geometry":{"type":"Point","coordinates":[99.82947,13.14392]}},{"type":"feature","properties":{"country_en":"Thailand","name":"Ban Hua Thale","name_adm0":"Thailand","name_adm1":"Nakhon Ratchasima","name_adm2":"Mueang Nakhon Ratchasima","name_en":"Ban Hua Thale"},"geometry":{"type":"Point","coordinates":[102.11667,14.96667]}},{"type":"feature","properties":{"country_en":"Thailand","name":"Ban Huai Na","name_adm0":"Thailand","name_adm1":"Phetchabun","name_adm2":"Mueang Phetchabun","name_en":"Ban Huai Na"},"geometry":{"type":"Point","coordinates":[101.06667,16.266669999999998]}},{"type":"feature","properties":{"country_en":"Thailand","name":"Ban Huai Phai","name_adm0":"Thailand","name_adm1":"Ratchaburi","name_adm2":"Mueang Ratchaburi","name_en":"Ban Huai Phai"},"geometry":{"type":"Point","coordinates":[99.72789,13.51247]}},{"type":"feature","properties":{"country_en":"Thailand","name":"Ban Huai Pong","name_adm0":"Thailand","name_adm1":"Lop Buri","name_adm2":"Khok Samrong","name_en":"Ban Huai Pong"},"geometry":{"type":"Point","coordinates":[100.66667,14.96667]}},{"type":"feature","properties":{"country_en":"Thailand","name":"Ban Khlong Krachaeng","name_adm0":"Thailand","name_adm1":"Phetchaburi","name_adm2":"Mueang Phetchaburi","name_en":"Ban Khlong Krachaeng"},"geometry":{"type":"Point","coordinates":[99.95,13.13333]}},{"type":"feature","properties":{"country_en":"Thailand","name":"Ban Khlong Lat Khwang (2)","name_adm0":"Thailand","name_adm1":"Chachoengsao","name_adm2":"Ban Pho","name_en":"Ban Khlong Lat Khwang (2)"},"geometry":{"type":"Point","coordinates":[100.48525,14.012389999999998]}},{"type":"feature","properties":{"country_en":"Thailand","name":"Ban Khlong Tan","name_adm0":"Thailand","name_adm1":"Samut Sakhon","name_adm2":"Ban Phaeo","name_en":"Ban Khlong Tan"},"geometry":{"type":"Point","coordinates":[100.16667,13.65]}},{"type":"feature","properties":{"country_en":"Thailand","name":"Ban Khlong Tha Thong Lang","name_adm0":"Thailand","name_adm1":"Chachoengsao","name_adm2":"Bang Khla","name_en":"Ban Khlong Tha Thong Lang"},"geometry":{"type":"Point","coordinates":[101.18317,13.71522]}},{"type":"feature","properties":{"country_en":"Thailand","name":"Ban Kho Hong","name_adm0":"Thailand","name_adm1":"Songkhla","name_adm2":"Hat Yai","name_en":"Ban Kho Hong"},"geometry":{"type":"Point","coordinates":[100.48928,7.02794]}},{"type":"feature","properties":{"country_en":"Thailand","name":"Ban Khok Ngam","name_adm0":"Thailand","name_adm1":"Khon Kaen","name_adm2":"Ban Fang","name_en":"Ban Khok Ngam"},"geometry":{"type":"Point","coordinates":[102.61666999999998,16.566669999999995]}},{"type":"feature","properties":{"country_en":"Thailand","name":"Ban Khok Phrao (1)","name_adm0":"Thailand","name_adm1":"Sing Buri","name_adm2":"Khai Bang Rachan","name_en":"Ban Khok Phrao (1)"},"geometry":{"type":"Point","coordinates":[100.35,14.8]}},{"type":"feature","properties":{"country_en":"Thailand","name":"Ban Khok Sawang (1)","name_adm0":"Thailand","name_adm1":"Sara Buri","name_adm2":"Mueang Saraburi","name_en":"Ban Khok Sawang (1)"},"geometry":{"type":"Point","coordinates":[100.89999999999999,14.51667]}},{"type":"feature","properties":{"country_en":"Thailand","name":"Ban Khrung","name_adm0":"Thailand","name_adm1":"Chiang Rai","name_adm2":"Chiang Khong","name_en":"Ban Khrung"},"geometry":{"type":"Point","coordinates":[100.53754999999998,19.68367]}},{"type":"feature","properties":{"country_en":"Thailand","name":"Ban Kong Nang","name_adm0":"Thailand","name_adm1":"Nong Khai","name_adm2":"Tha Bo","name_en":"Ban Kong Nang"},"geometry":{"type":"Point","coordinates":[102.60563,17.89838]}},{"type":"feature","properties":{"country_en":"Thailand","name":"Ban Map Ammarit","name_adm0":"Thailand","name_adm1":"Chumphon","name_adm2":"Pathio","name_en":"Ban Map Ammarit"},"geometry":{"type":"Point","coordinates":[99.34768999999999,10.86794]}},{"type":"feature","properties":{"country_en":"Thailand","name":"Ban Muang Mo","name_adm0":"Thailand","name_adm1":"Phrae","name_adm2":"Mueang Phrae","name_en":"Ban Muang Mo"},"geometry":{"type":"Point","coordinates":[100.18356,18.14292]}},{"type":"feature","properties":{"country_en":"Thailand","name":"Ban Muang Ngam","name_adm0":"Thailand","name_adm1":"Chiang Mai","name_adm2":"Mae Ai","name_en":"Ban Muang Ngam"},"geometry":{"type":"Point","coordinates":[99.46666999999998,19.98333]}},{"type":"feature","properties":{"country_en":"Thailand","name":"Ban Muang Paeng","name_adm0":"Thailand","name_adm1":"Mae Hong Son","name_adm2":"Pai","name_en":"Ban Muang Paeng"},"geometry":{"type":"Point","coordinates":[98.36642,19.21467]}},{"type":"feature","properties":{"country_en":"Thailand","name":"Ban Muang Phai","name_adm0":"Thailand","name_adm1":"Sa Kaeo","name_adm2":"Aranyaprathet","name_en":"Ban Muang Phai"},"geometry":{"type":"Point","coordinates":[102.43528,13.682779999999998]}},{"type":"feature","properties":{"country_en":"Thailand","name":"Ban Nakhon Chum","name_adm0":"Thailand","name_adm1":"Ratchaburi","name_adm2":"Ban Pong","name_en":"Ban Nakhon Chum"},"geometry":{"type":"Point","coordinates":[99.84981999999998,13.76696]}},{"type":"feature","properties":{"country_en":"Thailand","name":"Ban Nam Bo","name_adm0":"Thailand","name_adm1":"Pattani","name_adm2":"Panare","name_en":"Ban Nam Bo"},"geometry":{"type":"Point","coordinates":[101.48607999999999,6.22839]}},{"type":"feature","properties":{"country_en":"Thailand","name":"Ban Nam Chieo","name_adm0":"Thailand","name_adm1":"Trat","name_adm2":"Laem Ngop","name_en":"Ban Nam Chieo"},"geometry":{"type":"Point","coordinates":[101.97467,12.69272]}},{"type":"feature","properties":{"country_en":"Thailand","name":"Ban Nong Khao Ngai","name_adm0":"Thailand","name_adm1":"Suphan Buri","name_adm2":"Song Phi Nong","name_en":"Ban Nong Khao Ngai"},"geometry":{"type":"Point","coordinates":[99.88707999999998,14.243589999999998]}},{"type":"feature","properties":{"country_en":"Thailand","name":"Ban Nong Pru","name_adm0":"Thailand","name_adm1":"Chon Buri","name_adm2":"Ban Bueng","name_en":"Ban Nong Pru"},"geometry":{"type":"Point","coordinates":[101.63333,12.83333]}},{"type":"feature","properties":{"country_en":"Thailand","name":"Ban Pa Muang","name_adm0":"Thailand","name_adm1":"Tak","name_adm2":"Mueang Tak","name_en":"Ban Pa Muang"},"geometry":{"type":"Point","coordinates":[99.54056,16.12194]}},{"type":"feature","properties":{"country_en":"Thailand","name":"Ban Nong Tom","name_adm0":"Thailand","name_adm1":"Phitsanulok","name_adm2":"Phrom Phiram","name_en":"Ban Nong Tom"},"geometry":{"type":"Point","coordinates":[100.15994,17.1155]}},{"type":"feature","properties":{"country_en":"Thailand","name":"Ban Nong Ya Khao","name_adm0":"Thailand","name_adm1":"Nakhon Ratchasima","name_adm2":"Sikhio","name_en":"Ban Nong Ya Khao"},"geometry":{"type":"Point","coordinates":[101.57972,14.993329999999998]}},{"type":"feature","properties":{"country_en":"Thailand","name":"Ban Pang Nam Thu (1)","name_adm0":"Thailand","name_adm1":"Chiang Mai","name_adm2":"Doi Saket","name_en":"Ban Pang Nam Thu (1)"},"geometry":{"type":"Point","coordinates":[99.30806,19.021109999999997]}},{"type":"feature","properties":{"country_en":"Thailand","name":"Ban Phon","name_adm0":"Thailand","name_adm1":"Kalasin","name_adm2":"Kham Muang","name_en":"Ban Phon"},"geometry":{"type":"Point","coordinates":[103.58333,16.816669999999995]}},{"type":"feature","properties":{"country_en":"Thailand","name":"Ban Pom","name_adm0":"Thailand","name_adm1":"Phra Nakhon Si Ayutthaya","name_adm2":"Phra Nakhon Si Ayutthaya","name_en":"Ban Pom"},"geometry":{"type":"Point","coordinates":[100.53333,14.366670000000001]}},{"type":"feature","properties":{"country_en":"Thailand","name":"Ban Pra Non","name_adm0":"Thailand","name_adm1":"Nakhon Sawan","name_adm2":"Mueang Nakhon Sawan","name_en":"Ban Pra Non"},"geometry":{"type":"Point","coordinates":[100.24547,15.639939999999998]}},{"type":"feature","properties":{"country_en":"Thailand","name":"Ban Rai (1)","name_adm0":"Thailand","name_adm1":"Ratchaburi","name_adm2":"Damnoen Saduak","name_en":"Ban Rai (1)"},"geometry":{"type":"Point","coordinates":[100.38333,14.433329999999998]}},{"type":"feature","properties":{"country_en":"Thailand","name":"Ban Ron Thong","name_adm0":"Thailand","name_adm1":"Buriram","name_adm2":"Satuek","name_en":"Ban Ron Thong"},"geometry":{"type":"Point","coordinates":[103.2,15.18333]}},{"type":"feature","properties":{"country_en":"Thailand","name":"Ban Rong Chang (1)","name_adm0":"Thailand","name_adm1":"Phichit","name_adm2":"Mueang Phichit","name_en":"Ban Rong Chang (1)"},"geometry":{"type":"Point","coordinates":[100.28975,16.43236]}},{"type":"feature","properties":{"country_en":"Thailand","name":"Ban Rong Khe","name_adm0":"Thailand","name_adm1":"Samut Sakhon","name_adm2":"Ban Phaeo","name_en":"Ban Rong Khe"},"geometry":{"type":"Point","coordinates":[100.06724,13.51461]}},{"type":"feature","properties":{"country_en":"Thailand","name":"Ban Sa","name_adm0":"Thailand","name_adm1":"Phayao","name_adm2":"Chiang Muan","name_en":"Ban Sa"},"geometry":{"type":"Point","coordinates":[99.52572,19.19853]}},{"type":"feature","properties":{"country_en":"Thailand","name":"Ban Sanam Chai (1)","name_adm0":"Thailand","name_adm1":"Phra Nakhon Si Ayutthaya","name_adm2":"Bang Sai","name_en":"Ban Sanam Chai (1)"},"geometry":{"type":"Point","coordinates":[100.51667,14.2]}},{"type":"feature","properties":{"country_en":"Thailand","name":"Ban Song Phi Nong","name_adm0":"Thailand","name_adm1":"Rayong","name_adm2":"Klaeng","name_en":"Ban Song Phi Nong"},"geometry":{"type":"Point","coordinates":[101.54794999999999,12.75122]}},{"type":"feature","properties":{"country_en":"Thailand","name":"Ban Takhu","name_adm0":"Thailand","name_adm1":"Nakhon Ratchasima","name_adm2":"Pak Thong Chai","name_en":"Ban Takhu"},"geometry":{"type":"Point","coordinates":[101.98333,14.71667]}},{"type":"feature","properties":{"country_en":"Thailand","name":"Ban Tat Thong","name_adm0":"Thailand","name_adm1":"Yasothon","name_adm2":"Mueang Yasothon","name_en":"Ban Tat Thong"},"geometry":{"type":"Point","coordinates":[104.21667,15.766669999999998]}},{"type":"feature","properties":{"country_en":"Thailand","name":"Ban Tha Chan","name_adm0":"Thailand","name_adm1":"Nakhon Si Thammarat","name_adm2":"Khanom","name_en":"Ban Tha Chan"},"geometry":{"type":"Point","coordinates":[99.81942,9.276279999999998]}},{"type":"feature","properties":{"country_en":"Thailand","name":"Ban Tha Chang","name_adm0":"Thailand","name_adm1":"Ang Thong","name_adm2":"Wisat Chai Chan","name_en":"Ban Tha Chang"},"geometry":{"type":"Point","coordinates":[100.34789,14.579969999999998]}},{"type":"feature","properties":{"country_en":"Thailand","name":"Ban Tha Chang (1)","name_adm0":"Thailand","name_adm1":"Phitsanulok","name_adm2":"Phrom Phiram","name_en":"Ban Tha Chang (1)"},"geometry":{"type":"Point","coordinates":[100.19849999999998,16.96797]}},{"type":"feature","properties":{"country_en":"Thailand","name":"Ban Tha Ngam","name_adm0":"Thailand","name_adm1":"Prachin Buri","name_adm2":"Mueang Prachin Buri","name_en":"Ban Tha Ngam"},"geometry":{"type":"Point","coordinates":[101.43333,14.03333]}},{"type":"feature","properties":{"country_en":"Thailand","name":"Ban Tha Raeng Tok","name_adm0":"Thailand","name_adm1":"Phetchaburi","name_adm2":"Ban Laem","name_en":"Ban Tha Raeng Tok"},"geometry":{"type":"Point","coordinates":[99.96667,13.149999999999999]}},{"type":"feature","properties":{"country_en":"Thailand","name":"Ban Tha Sawang","name_adm0":"Thailand","name_adm1":"Surin","name_adm2":"Mueang Surin","name_en":"Ban Tha Sawang"},"geometry":{"type":"Point","coordinates":[103.46667,14.949999999999998]}},{"type":"feature","properties":{"country_en":"Thailand","name":"Ban Tha Som","name_adm0":"Thailand","name_adm1":"Trat","name_adm2":"Khao Saming","name_en":"Ban Tha Som"},"geometry":{"type":"Point","coordinates":[102.34603,12.30353]}},{"type":"feature","properties":{"country_en":"Thailand","name":"Ban Wa Wi","name_adm0":"Thailand","name_adm1":"Chiang Rai","name_adm2":"Mae Suai","name_en":"Ban Wa Wi"},"geometry":{"type":"Point","coordinates":[99.48767,19.93164]}},{"type":"feature","properties":{"country_en":"Thailand","name":"Ban Song Khanong","name_adm0":"Thailand","name_adm1":"Nathon Pathon","name_adm2":"Sam Phran","name_en":"Ban Song Khanong"},"geometry":{"type":"Point","coordinates":[100.25713,13.765559999999999]}},{"type":"feature","properties":{"country_en":"Thailand","name":"Ban Ao Udom","name_adm0":"Thailand","name_adm1":"Buriram","name_adm2":"Krasang","name_en":"Ban Ao Udom"},"geometry":{"type":"Point","coordinates":[103.52139,15.196939999999998]}},{"type":"feature","properties":{"country_en":"Thailand","name":"Ban Bang Kahai","name_adm0":"Thailand","name_adm1":"Chachoengsao","name_adm2":"Mueang Chachoengsao","name_en":"Ban Bang Kahai"},"geometry":{"type":"Point","coordinates":[101.01667,13.66667]}},{"type":"feature","properties":{"country_en":"Thailand","name":"Ban Bang Kha (1)","name_adm0":"Thailand","name_adm1":"Chachoengsao","name_adm2":"Ratchasan","name_en":"Ban Bang Kha (1)"},"geometry":{"type":"Point","coordinates":[101.26667,13.88333]}},{"type":"feature","properties":{"country_en":"Thailand","name":"Ban Bang Khaem","name_adm0":"Thailand","name_adm1":"Nathon Pathon","name_adm2":"Mueang Akhon Pathom","name_en":"Ban Bang Khaem"},"geometry":{"type":"Point","coordinates":[100.03051,13.76973]}},{"type":"feature","properties":{"country_en":"Thailand","name":"Ban Bang Khamot","name_adm0":"Thailand","name_adm1":"Sara Buri","name_adm2":"Ban Mo","name_en":"Ban Bang Khamot"},"geometry":{"type":"Point","coordinates":[100.73333,14.616669999999997]}},{"type":"feature","properties":{"country_en":"Thailand","name":"Ban Bang Khanak","name_adm0":"Thailand","name_adm1":"Ang Thong","name_adm2":"Wisat Chai Chan","name_en":"Ban Bang Khanak"},"geometry":{"type":"Point","coordinates":[100.35311,14.519389999999998]}},{"type":"feature","properties":{"country_en":"Thailand","name":"Ban Bang Luk Sua","name_adm0":"Thailand","name_adm1":"Nakhon Nayok","name_adm2":"Ongkharak","name_en":"Ban Bang Luk Sua"},"geometry":{"type":"Point","coordinates":[101.06,14.03]}},{"type":"feature","properties":{"country_en":"Thailand","name":"Ban Bang Man","name_adm0":"Thailand","name_adm1":"Sisaket","name_adm2":"Yang Chum Noi","name_en":"Ban Bang Man"},"geometry":{"type":"Point","coordinates":[104.92089,15.113669999999999]}},{"type":"feature","properties":{"country_en":"Thailand","name":"Ban Bang Moi","name_adm0":"Thailand","name_adm1":"Surin","name_adm2":"Buachet","name_en":"Ban Bang Moi"},"geometry":{"type":"Point","coordinates":[103.09999999999998,15.33333]}},{"type":"feature","properties":{"country_en":"Thailand","name":"Ban Bong Chong","name_adm0":"Thailand","name_adm1":"Roi Et","name_adm2":"Phon Sai","name_en":"Ban Bong Chong"},"geometry":{"type":"Point","coordinates":[103.13333,15.966669999999999]}},{"type":"feature","properties":{"country_en":"Thailand","name":"Ban Bong Nua","name_adm0":"Thailand","name_adm1":"Sakon Nakhon","name_adm2":"Sawang Daen Din","name_en":"Ban Bong Nua"},"geometry":{"type":"Point","coordinates":[103.20110999999999,17.25722]}},{"type":"feature","properties":{"country_en":"Thailand","name":"Ban Chaman","name_adm0":"Thailand","name_adm1":"Chanthaburi","name_adm2":"Makham","name_en":"Ban Chaman"},"geometry":{"type":"Point","coordinates":[102.20968999999998,12.74442]}},{"type":"feature","properties":{"country_en":"Thailand","name":"Ban Champa","name_adm0":"Thailand","name_adm1":"Roi Et","name_adm2":"Pho Chai","name_en":"Ban Champa"},"geometry":{"type":"Point","coordinates":[103.75,16.33333]}},{"type":"feature","properties":{"country_en":"Thailand","name":"Ban Charok Yai","name_adm0":"Thailand","name_adm1":"Surin","name_adm2":"Prasat","name_en":"Ban Charok Yai"},"geometry":{"type":"Point","coordinates":[103.23333,14.63333]}},{"type":"feature","properties":{"country_en":"Thailand","name":"Ban Chawai","name_adm0":"Thailand","name_adm1":"Uttaradit","name_adm2":"Mueang Uttaradit","name_en":"Ban Chawai"},"geometry":{"type":"Point","coordinates":[100.43464,18.33367]}},{"type":"feature","properties":{"country_en":"Thailand","name":"Ban Chiang Ban","name_adm0":"Thailand","name_adm1":"Phayao","name_adm2":"Chiang Kham","name_en":"Ban Chiang Ban"},"geometry":{"type":"Point","coordinates":[100.28639,19.51417]}},{"type":"feature","properties":{"country_en":"Thailand","name":"Ban Chiang Da","name_adm0":"Thailand","name_adm1":"Udon Thani","name_adm2":"Sang Khom","name_en":"Ban Chiang Da"},"geometry":{"type":"Point","coordinates":[103.02885999999998,17.86378]}},{"type":"feature","properties":{"country_en":"Thailand","name":"Ban Chom Sa-At","name_adm0":"Thailand","name_adm1":"Roi Et","name_adm2":"Moei Wadi","name_en":"Ban Chom Sa-At"},"geometry":{"type":"Point","coordinates":[104.1,16.38333]}},{"type":"feature","properties":{"country_en":"Thailand","name":"Ban Chom Sang","name_adm0":"Thailand","name_adm1":"Rayong","name_adm2":"Ban Khai","name_en":"Ban Chom Sang"},"geometry":{"type":"Point","coordinates":[101.4875,12.92667]}},{"type":"feature","properties":{"country_en":"Thailand","name":"Ban Chua Phloeng","name_adm0":"Thailand","name_adm1":"Surin","name_adm2":"Prasat","name_en":"Ban Chua Phloeng"},"geometry":{"type":"Point","coordinates":[103.41667,14.733329999999999]}},{"type":"feature","properties":{"country_en":"Thailand","name":"Ban Don","name_adm0":"Thailand","name_adm1":"Pattani","name_adm2":"Panare","name_en":"Ban Don"},"geometry":{"type":"Point","coordinates":[101.55231,6.4757]}},{"type":"feature","properties":{"country_en":"Thailand","name":"Ban Don (1)","name_adm0":"Thailand","name_adm1":"Suphan Buri","name_adm2":"U Thong","name_en":"Ban Don (1)"},"geometry":{"type":"Point","coordinates":[99.93333,14.849999999999998]}},{"type":"feature","properties":{"country_en":"Thailand","name":"Ban Don Chik","name_adm0":"Thailand","name_adm1":"Ubon Ratchathani","name_adm2":"Phibun Mangsahan","name_en":"Ban Don Chik"},"geometry":{"type":"Point","coordinates":[105.25961,15.15186]}},{"type":"feature","properties":{"country_en":"Thailand","name":"Ban Don Chim","name_adm0":"Thailand","name_adm1":"Khon Kaen","name_adm2":"Waeng Yai","name_en":"Ban Don Chim"},"geometry":{"type":"Point","coordinates":[102.23242,15.86897]}},{"type":"feature","properties":{"country_en":"Thailand","name":"Ban Dong Don","name_adm0":"Thailand","name_adm1":"Chai Nat","name_adm2":"Sankhaburi","name_en":"Ban Dong Don"},"geometry":{"type":"Point","coordinates":[100.16667,15.016669999999998]}},{"type":"feature","properties":{"country_en":"Thailand","name":"Ban Dong Khwang","name_adm0":"Thailand","name_adm1":"Uthai Thani","name_adm2":"Nong Khayang","name_en":"Ban Dong Khwang"},"geometry":{"type":"Point","coordinates":[99.92686,15.31925]}},{"type":"feature","properties":{"country_en":"Thailand","name":"Ban Dong Klang (1)","name_adm0":"Thailand","name_adm1":"Phichit","name_adm2":"Mueang Phichit","name_en":"Ban Dong Klang (1)"},"geometry":{"type":"Point","coordinates":[100.33139,16.36161]}},{"type":"feature","properties":{"country_en":"Thailand","name":"Ban Dong Luak","name_adm0":"Thailand","name_adm1":"Nathon Pathon","name_adm2":"Don Tum","name_en":"Ban Dong Luak"},"geometry":{"type":"Point","coordinates":[99.61858,13.98719]}},{"type":"feature","properties":{"country_en":"Thailand","name":"Ban Dong Mafai","name_adm0":"Thailand","name_adm1":"Sakon Nakhon","name_adm2":"Phanna Nikhom","name_en":"Ban Dong Mafai"},"geometry":{"type":"Point","coordinates":[103.99686,17.27414]}},{"type":"feature","properties":{"country_en":"Thailand","name":"Ban Dua","name_adm0":"Thailand","name_adm1":"Pathum Thani","name_adm2":"Mueang Pathum Thani","name_en":"Ban Dua"},"geometry":{"type":"Point","coordinates":[100.53333,13.983329999999999]}},{"type":"feature","properties":{"country_en":"Thailand","name":"Ban Bung","name_adm0":"Thailand","name_adm1":"Chon Buri","name_adm2":"Bang Lamung","name_en":"Ban Bung"},"geometry":{"type":"Point","coordinates":[100.97025,12.8663]}},{"type":"feature","properties":{"country_en":"Thailand","name":"Bang Pa-in","name_adm0":"Thailand","name_adm1":"Phra Nakhon Si Ayutthaya","name_adm2":"Bang Pa-in","name_en":"Bang Pa-in"},"geometry":{"type":"Point","coordinates":[100.57589,14.227829999999999]}},{"type":"feature","properties":{"country_en":"Thailand","name":"Ao Luk","name_adm0":"Thailand","name_adm1":"Krabi","name_adm2":"Ao Luek","name_en":"Ao Luk"},"geometry":{"type":"Point","coordinates":[98.72117,8.37803]}},{"type":"feature","properties":{"country_en":"Thailand","name":"Ban Fa","name_adm0":"Thailand","name_adm1":"Nan","name_adm2":"Ban Luang","name_en":"Ban Fa"},"geometry":{"type":"Point","coordinates":[99.43414,18.23011]}},{"type":"feature","properties":{"country_en":"Thailand","name":"Ban Fa Yat","name_adm0":"Thailand","name_adm1":"Yasothon","name_adm2":"Maha Chana Chai","name_en":"Ban Fa Yat"},"geometry":{"type":"Point","coordinates":[104.24999999999999,15.53333]}},{"type":"feature","properties":{"country_en":"Thailand","name":"Ban Fang","name_adm0":"Thailand","name_adm1":"Nong Khai","name_adm2":"Sakhrai","name_en":"Ban Fang"},"geometry":{"type":"Point","coordinates":[103.28325999999998,17.69538]}},{"type":"feature","properties":{"country_en":"Thailand","name":"Ban Hai Sok","name_adm0":"Thailand","name_adm1":"Buriram","name_adm2":"Phutthaisong","name_en":"Ban Hai Sok"},"geometry":{"type":"Point","coordinates":[102.94290999999998,15.539660000000001]}},{"type":"feature","properties":{"country_en":"Thailand","name":"Ban Ho Mok","name_adm0":"Thailand","name_adm1":"Phra Nakhon Si Ayutthaya","name_adm2":"Bang Sai","name_en":"Ban Ho Mok"},"geometry":{"type":"Point","coordinates":[100.48333,14.249999999999998]}},{"type":"feature","properties":{"country_en":"Thailand","name":"Ban Hong","name_adm0":"Thailand","name_adm1":"Lamphun","name_adm2":"Li","name_en":"Ban Hong"},"geometry":{"type":"Point","coordinates":[99.20225,18.092219999999998]}},{"type":"feature","properties":{"country_en":"Thailand","name":"Ban Hong Kruat (1)","name_adm0":"Thailand","name_adm1":"Phichit","name_adm2":"Bang Mun Nak","name_en":"Ban Hong Kruat (1)"},"geometry":{"type":"Point","coordinates":[100,15.68333]}},{"type":"feature","properties":{"country_en":"Thailand","name":"Ban Horathep","name_adm0":"Thailand","name_adm1":"Sara Buri","name_adm2":"Ban Mo","name_en":"Ban Horathep"},"geometry":{"type":"Point","coordinates":[100.68333,14.63333]}},{"type":"feature","properties":{"country_en":"Thailand","name":"Ban Hu Thamnop","name_adm0":"Thailand","name_adm1":"Buriram","name_adm2":"Pakham","name_en":"Ban Hu Thamnop"},"geometry":{"type":"Point","coordinates":[102.73333,14.38333]}},{"type":"feature","properties":{"country_en":"Thailand","name":"Ban Hua Tao","name_adm0":"Thailand","name_adm1":"Nakhon Si Thammarat","name_adm2":"Hua Sai","name_en":"Ban Hua Tao"},"geometry":{"type":"Point","coordinates":[99.35181,8.69906]}},{"type":"feature","properties":{"country_en":"Thailand","name":"Ban Hua Taphan","name_adm0":"Thailand","name_adm1":"Nakhon Si Thammarat","name_adm2":"Tha Sala","name_en":"Ban Hua Taphan"},"geometry":{"type":"Point","coordinates":[99.82767,9.29164]}},{"type":"feature","properties":{"country_en":"Thailand","name":"Ban Hua Thale","name_adm0":"Thailand","name_adm1":"Chaiyaphum","name_adm2":"Bamnet Narong","name_en":"Ban Hua Thale"},"geometry":{"type":"Point","coordinates":[101.75358,15.46453]}},{"type":"feature","properties":{"country_en":"Thailand","name":"Ban Hua Thanon","name_adm0":"Thailand","name_adm1":"Chon Buri","name_adm2":"Phanat Nikhom","name_en":"Ban Hua Thanon"},"geometry":{"type":"Point","coordinates":[101.21096999999999,13.52433]}},{"type":"feature","properties":{"country_en":"Thailand","name":"Ban Huai Rai","name_adm0":"Thailand","name_adm1":"Chaiyaphum","name_adm2":"Khon Sawan","name_en":"Ban Huai Rai"},"geometry":{"type":"Point","coordinates":[101.71,15.812779999999998]}},{"type":"feature","properties":{"country_en":"Thailand","name":"Ban Huai Sakae Rat","name_adm0":"Thailand","name_adm1":"Nakhon Ratchasima","name_adm2":"Pak Thong Chai","name_en":"Ban Huai Sakae Rat"},"geometry":{"type":"Point","coordinates":[102.03333,14.599999999999998]}},{"type":"feature","properties":{"country_en":"Thailand","name":"Ban Huai Si Siat","name_adm0":"Thailand","name_adm1":"Loei","name_adm2":"Phu Luang","name_en":"Ban Huai Si Siat"},"geometry":{"type":"Point","coordinates":[101.73644,17.14203]}},{"type":"feature","properties":{"country_en":"Thailand","name":"Ban Huai Tham","name_adm0":"Thailand","name_adm1":"Phayao","name_adm2":"Dok Khamtai","name_en":"Ban Huai Tham"},"geometry":{"type":"Point","coordinates":[100.03332999999999,18.98333]}},{"type":"feature","properties":{"country_en":"Thailand","name":"Ban Huai Thua Tai","name_adm0":"Thailand","name_adm1":"Nakhon Sawan","name_adm2":"Nong Bua","name_en":"Ban Huai Thua Tai"},"geometry":{"type":"Point","coordinates":[100.46897,15.847329999999998]}},{"type":"feature","properties":{"country_en":"Thailand","name":"Ban Kahat","name_adm0":"Thailand","name_adm1":"Chaiyaphum","name_adm2":"Noen Sa-nga","name_en":"Ban Kahat"},"geometry":{"type":"Point","coordinates":[102.02311,15.63322]}},{"type":"feature","properties":{"country_en":"Thailand","name":"Ban Kai Khia","name_adm0":"Thailand","name_adm1":"Amnat Charoen","name_adm2":"Mueang Amnat Charoen","name_en":"Ban Kai Khia"},"geometry":{"type":"Point","coordinates":[104.63208,15.82217]}},{"type":"feature","properties":{"country_en":"Thailand","name":"Ban Kangchan","name_adm0":"Thailand","name_adm1":"Surin","name_adm2":"Prasat","name_en":"Ban Kangchan"},"geometry":{"type":"Point","coordinates":[103.41667,14.616669999999997]}},{"type":"feature","properties":{"country_en":"Thailand","name":"Ban Kanthrarom","name_adm0":"Thailand","name_adm1":"Buriram","name_adm2":"Krasang","name_en":"Ban Kanthrarom"},"geometry":{"type":"Point","coordinates":[103.35,14.96667]}},{"type":"feature","properties":{"country_en":"Thailand","name":"Ban Kham Yat","name_adm0":"Thailand","name_adm1":"Ang Thong","name_adm2":"Pho Thong","name_en":"Ban Kham Yat"},"geometry":{"type":"Point","coordinates":[100.33725,14.658669999999999]}},{"type":"feature","properties":{"country_en":"Thailand","name":"Ban Khamin","name_adm0":"Thailand","name_adm1":"Kalasin","name_adm2":"Mueang Kalasin","name_en":"Ban Khamin"},"geometry":{"type":"Point","coordinates":[103.5,16.533329999999996]}},{"type":"feature","properties":{"country_en":"Thailand","name":"Ban Khamong","name_adm0":"Thailand","name_adm1":"Chanthaburi","name_adm2":"Tha Mai","name_en":"Ban Khamong"},"geometry":{"type":"Point","coordinates":[101.94539,12.62622]}},{"type":"feature","properties":{"country_en":"Thailand","name":"Ban Khan Ham","name_adm0":"Thailand","name_adm1":"Phra Nakhon Si Ayutthaya","name_adm2":"Uthai","name_en":"Ban Khan Ham"},"geometry":{"type":"Point","coordinates":[100.63333,14.333329999999998]}},{"type":"feature","properties":{"country_en":"Thailand","name":"Ban Khlong Chanuan (1)","name_adm0":"Thailand","name_adm1":"Surat Thani","name_adm2":"Wiang Sa","name_en":"Ban Khlong Chanuan (1)"},"geometry":{"type":"Point","coordinates":[99.36931,8.926079999999999]}},{"type":"feature","properties":{"country_en":"Thailand","name":"Ban Khlong Chinda","name_adm0":"Thailand","name_adm1":"Nathon Pathon","name_adm2":"Sam Phran","name_en":"Ban Khlong Chinda"},"geometry":{"type":"Point","coordinates":[100.15620999999999,13.68379]}},{"type":"feature","properties":{"country_en":"Thailand","name":"Ban Khlong Dan","name_adm0":"Thailand","name_adm1":"Samut Prakan","name_adm2":"Bang Bo","name_en":"Ban Khlong Dan"},"geometry":{"type":"Point","coordinates":[100.81539,13.48956]}},{"type":"feature","properties":{"country_en":"Thailand","name":"Ban Khok Khian","name_adm0":"Thailand","name_adm1":"Phangnga","name_adm2":"Takua Pa","name_en":"Ban Khok Khian"},"geometry":{"type":"Point","coordinates":[98.36667,8.85]}},{"type":"feature","properties":{"country_en":"Thailand","name":"Ban Khok Khian","name_adm0":"Thailand","name_adm1":"Narathiwat","name_adm2":"Mueang Narathiwat","name_en":"Ban Khok Khian"},"geometry":{"type":"Point","coordinates":[101.78444,6.46544]}},{"type":"feature","properties":{"country_en":"Thailand","name":"Ban Khok Na Ko","name_adm0":"Thailand","name_adm1":"Yasothon","name_adm2":"Pa Tio","name_en":"Ban Khok Na Ko"},"geometry":{"type":"Point","coordinates":[104.45,15.899999999999999]}},{"type":"feature","properties":{"country_en":"Thailand","name":"Ban Khok Pho (2)","name_adm0":"Thailand","name_adm1":"Phra Nakhon Si Ayutthaya","name_adm2":"Uthai","name_en":"Ban Khok Pho (2)"},"geometry":{"type":"Point","coordinates":[100.76667,14.333329999999998]}},{"type":"feature","properties":{"country_en":"Thailand","name":"Ban Khok Phutsa","name_adm0":"Thailand","name_adm1":"Ang Thong","name_adm2":"Pho Thong","name_en":"Ban Khok Phutsa"},"geometry":{"type":"Point","coordinates":[100.42283,14.687079999999998]}},{"type":"feature","properties":{"country_en":"Thailand","name":"Ban Khua Kai","name_adm0":"Thailand","name_adm1":"Sakon Nakhon","name_adm2":"Wanon Niwat","name_en":"Ban Khua Kai"},"geometry":{"type":"Point","coordinates":[103.76666999999999,17.53333]}},{"type":"feature","properties":{"country_en":"Thailand","name":"Ban Khuan","name_adm0":"Thailand","name_adm1":"Maha Sarakham","name_adm2":"Kosum Phisai","name_en":"Ban Khuan"},"geometry":{"type":"Point","coordinates":[103.09999999999998,16.33333]}},{"type":"feature","properties":{"country_en":"Thailand","name":"Ban Khuan Phu","name_adm0":"Thailand","name_adm1":"Surat Thani","name_adm2":"Phrasaeng","name_en":"Ban Khuan Phu"},"geometry":{"type":"Point","coordinates":[99.08933,9.71586]}},{"type":"feature","properties":{"country_en":"Thailand","name":"Ban Khulu","name_adm0":"Thailand","name_adm1":"Ubon Ratchathani","name_adm2":"Trakan Phuet Phon","name_en":"Ban Khulu"},"geometry":{"type":"Point","coordinates":[105.01667,15.61667]}},{"type":"feature","properties":{"country_en":"Thailand","name":"Ban Kluai","name_adm0":"Thailand","name_adm1":"Lop Buri","name_adm2":"Ban Mi","name_en":"Ban Kluai"},"geometry":{"type":"Point","coordinates":[100.57540999999999,15.04454]}},{"type":"feature","properties":{"country_en":"Thailand","name":"Ban Ko","name_adm0":"Thailand","name_adm1":"Phra Nakhon Si Ayutthaya","name_adm2":"Sena","name_en":"Ban Ko"},"geometry":{"type":"Point","coordinates":[100.36666999999998,14.366670000000001]}},{"type":"feature","properties":{"country_en":"Thailand","name":"Ban Ko","name_adm0":"Thailand","name_adm1":"Nakhon Si Thammarat","name_adm2":"Phrom Khiri","name_en":"Ban Ko"},"geometry":{"type":"Point","coordinates":[100.09233,8.27081]}},{"type":"feature","properties":{"country_en":"Thailand","name":"Ban Krathiam","name_adm0":"Thailand","name_adm1":"Surin","name_adm2":"Sangkha","name_en":"Ban Krathiam"},"geometry":{"type":"Point","coordinates":[103.68333,14.599999999999998]}},{"type":"feature","properties":{"country_en":"Thailand","name":"Ban Krathum","name_adm0":"Thailand","name_adm1":"Phra Nakhon Si Ayutthaya","name_adm2":"Sena","name_en":"Ban Krathum"},"geometry":{"type":"Point","coordinates":[100.4,14.4]}},{"type":"feature","properties":{"country_en":"Thailand","name":"Ban Krot (1)","name_adm0":"Thailand","name_adm1":"Phra Nakhon Si Ayutthaya","name_adm2":"Bang Pa-in","name_en":"Ban Krot (1)"},"geometry":{"type":"Point","coordinates":[100.61667,14.28333]}},{"type":"feature","properties":{"country_en":"Thailand","name":"Ban Kut Nam Sai","name_adm0":"Thailand","name_adm1":"Yasothon","name_adm2":"Kho Wang","name_en":"Ban Kut Nam Sai"},"geometry":{"type":"Point","coordinates":[104.35,15.399999999999999]}},{"type":"feature","properties":{"country_en":"Thailand","name":"Ban Kut Nam Sai Tai","name_adm0":"Thailand","name_adm1":"Roi Et","name_adm2":"Phanom Phrai","name_en":"Ban Kut Nam Sai Tai"},"geometry":{"type":"Point","coordinates":[104.06667,15.766669999999998]}},{"type":"feature","properties":{"country_en":"Thailand","name":"Ban Kut Phiman","name_adm0":"Thailand","name_adm1":"Nakhon Ratchasima","name_adm2":"Dan Khun Thot","name_en":"Ban Kut Phiman"},"geometry":{"type":"Point","coordinates":[101.75139,15.311669999999998]}},{"type":"feature","properties":{"country_en":"Thailand","name":"Ban Kut Rua","name_adm0":"Thailand","name_adm1":"Ubon Ratchathani","name_adm2":"Thung Si Udom","name_en":"Ban Kut Rua"},"geometry":{"type":"Point","coordinates":[104.9155,14.65708]}},{"type":"feature","properties":{"country_en":"Thailand","name":"Ban Lak Fa","name_adm0":"Thailand","name_adm1":"Ang Thong","name_adm2":"Chaiyo","name_en":"Ban Lak Fa"},"geometry":{"type":"Point","coordinates":[100.45533,14.68689]}},{"type":"feature","properties":{"country_en":"Thailand","name":"Ban Lak Kaeo","name_adm0":"Thailand","name_adm1":"Ang Thong","name_adm2":"Wisat Chai Chan","name_en":"Ban Lak Kaeo"},"geometry":{"type":"Point","coordinates":[100.29842,14.52964]}},{"type":"feature","properties":{"country_en":"Thailand","name":"Ban Laluat (1)","name_adm0":"Thailand","name_adm1":"Buriram","name_adm2":"Chamni","name_en":"Ban Laluat (1)"},"geometry":{"type":"Point","coordinates":[102.76667,14.78333]}},{"type":"feature","properties":{"country_en":"Thailand","name":"Ban Lao Yao","name_adm0":"Thailand","name_adm1":"Lamphun","name_adm2":"Ban Hong","name_en":"Ban Lao Yao"},"geometry":{"type":"Point","coordinates":[99.16536,18.05881]}},{"type":"feature","properties":{"country_en":"Thailand","name":"Ban Lat","name_adm0":"Thailand","name_adm1":"Chaiyaphum","name_adm2":"Mueang Chaiyaphum","name_en":"Ban Lat"},"geometry":{"type":"Point","coordinates":[102.02003,16.40794]}},{"type":"feature","properties":{"country_en":"Thailand","name":"Ban Lat Chit (1)","name_adm0":"Thailand","name_adm1":"Phra Nakhon Si Ayutthaya","name_adm2":"Phak Hai","name_en":"Ban Lat Chit (1)"},"geometry":{"type":"Point","coordinates":[100.35,14.433329999999998]}},{"type":"feature","properties":{"country_en":"Thailand","name":"Ban Lat Kathing","name_adm0":"Thailand","name_adm1":"Chachoengsao","name_adm2":"Sanam Chai Khet","name_en":"Ban Lat Kathing"},"geometry":{"type":"Point","coordinates":[101.44244,13.5845]}},{"type":"feature","properties":{"country_en":"Thailand","name":"Ban Mang","name_adm0":"Thailand","name_adm1":"Phayao","name_adm2":"Chiang Muan","name_en":"Ban Mang"},"geometry":{"type":"Point","coordinates":[100.30176999999999,19.5193]}},{"type":"feature","properties":{"country_en":"Thailand","name":"Ban Map Phai","name_adm0":"Thailand","name_adm1":"Chanthaburi","name_adm2":"Khlung","name_en":"Ban Map Phai"},"geometry":{"type":"Point","coordinates":[102.26075,12.61847]}},{"type":"feature","properties":{"country_en":"Thailand","name":"Ban Na Kha","name_adm0":"Thailand","name_adm1":"Khon Kaen","name_adm2":"Mancha Khiri","name_en":"Ban Na Kha"},"geometry":{"type":"Point","coordinates":[102.51666999999999,16.16667]}},{"type":"feature","properties":{"country_en":"Thailand","name":"Ban Na Khae","name_adm0":"Thailand","name_adm1":"Udon Thani","name_adm2":"Na Yung","name_en":"Ban Na Khae"},"geometry":{"type":"Point","coordinates":[102.65869999999998,17.474699999999995]}},{"type":"feature","properties":{"country_en":"Thailand","name":"Ban Na Noi","name_adm0":"Thailand","name_adm1":"Roi Et","name_adm2":"Suwannaphum","name_en":"Ban Na Noi"},"geometry":{"type":"Point","coordinates":[103.76167,15.71389]}},{"type":"feature","properties":{"country_en":"Thailand","name":"Ban Na Phun","name_adm0":"Thailand","name_adm1":"Phrae","name_adm2":"Wang Chin","name_en":"Ban Na Phun"},"geometry":{"type":"Point","coordinates":[99.76453,17.83212]}},{"type":"feature","properties":{"country_en":"Thailand","name":"Ban Na Waeng","name_adm0":"Thailand","name_adm1":"Ubon Ratchathani","name_adm2":"Khemarat","name_en":"Ban Na Waeng"},"geometry":{"type":"Point","coordinates":[104.82646999999999,15.619]}},{"type":"feature","properties":{"country_en":"Thailand","name":"Ban Nam Phon","name_adm0":"Thailand","name_adm1":"Udon Thani","name_adm2":"Nong Wua So","name_en":"Ban Nam Phon"},"geometry":{"type":"Point","coordinates":[102.55822,17.3415]}},{"type":"feature","properties":{"country_en":"Thailand","name":"Ban Nam Phu","name_adm0":"Thailand","name_adm1":"Surat Thani","name_adm2":"Ban Na San","name_en":"Ban Nam Phu"},"geometry":{"type":"Point","coordinates":[99.16027999999999,9.30975]}},{"type":"feature","properties":{"country_en":"Thailand","name":"Ban Nam Ron","name_adm0":"Thailand","name_adm1":"Phetchabun","name_adm2":"Mueang Phetchabun","name_en":"Ban Nam Ron"},"geometry":{"type":"Point","coordinates":[101.18332999999998,16.33333]}},{"type":"feature","properties":{"country_en":"Thailand","name":"Ban Non Chai Si","name_adm0":"Thailand","name_adm1":"Roi Et","name_adm2":"Phon Thong","name_en":"Ban Non Chai Si"},"geometry":{"type":"Point","coordinates":[103.96667,16.25]}},{"type":"feature","properties":{"country_en":"Thailand","name":"Ban Non Daeng","name_adm0":"Thailand","name_adm1":"Nakhon Ratchasima","name_adm2":"Wang Nam Khiao","name_en":"Ban Non Daeng"},"geometry":{"type":"Point","coordinates":[101.98249999999999,14.57444]}},{"type":"feature","properties":{"country_en":"Thailand","name":"Ban Non Han","name_adm0":"Thailand","name_adm1":"Khon Kaen","name_adm2":"Chum Phae","name_en":"Ban Non Han"},"geometry":{"type":"Point","coordinates":[101.99999999999999,16.516669999999998]}},{"type":"feature","properties":{"country_en":"Thailand","name":"Ban Non Hom","name_adm0":"Thailand","name_adm1":"Sakon Nakhon","name_adm2":"Mueang Sakon Nakhon","name_en":"Ban Non Hom"},"geometry":{"type":"Point","coordinates":[104.21766999999998,17.0522]}},{"type":"feature","properties":{"country_en":"Thailand","name":"Ban Nong Bon Daeng","name_adm0":"Thailand","name_adm1":"Chon Buri","name_adm2":"Ban Bueng","name_en":"Ban Nong Bon Daeng"},"geometry":{"type":"Point","coordinates":[101.1512,13.34592]}},{"type":"feature","properties":{"country_en":"Thailand","name":"Ban Nong Bua","name_adm0":"Thailand","name_adm1":"Surin","name_adm2":"Sikhoraphum","name_en":"Ban Nong Bua"},"geometry":{"type":"Point","coordinates":[103.78333,15.05]}},{"type":"feature","properties":{"country_en":"Thailand","name":"Ban Nong Bua","name_adm0":"Thailand","name_adm1":"Loei","name_adm2":"Phu Ruea","name_en":"Ban Nong Bua"},"geometry":{"type":"Point","coordinates":[101.35988,17.44673]}},{"type":"feature","properties":{"country_en":"Thailand","name":"Ban Nong Bua (1)","name_adm0":"Thailand","name_adm1":"Chai Nat","name_adm2":"Watsingh","name_en":"Ban Nong Bua (1)"},"geometry":{"type":"Point","coordinates":[100.78333,14.616669999999997]}},{"type":"feature","properties":{"country_en":"Thailand","name":"Ban Nong Bua Ban","name_adm0":"Thailand","name_adm1":"Udon Thani","name_adm2":"Nong Wua So","name_en":"Ban Nong Bua Ban"},"geometry":{"type":"Point","coordinates":[102.59894,17.30844]}},{"type":"feature","properties":{"country_en":"Thailand","name":"Ban Nong Bua Khok","name_adm0":"Thailand","name_adm1":"Buriram","name_adm2":"Lam Plai Mat","name_en":"Ban Nong Bua Khok"},"geometry":{"type":"Point","coordinates":[102.91667,14.999999999999998]}},{"type":"feature","properties":{"country_en":"Thailand","name":"Ban Nong Bua Noi","name_adm0":"Thailand","name_adm1":"Nakhon Ratchasima","name_adm2":"Sikhio","name_en":"Ban Nong Bua Noi"},"geometry":{"type":"Point","coordinates":[101.70222,15.008889999999997]}},{"type":"feature","properties":{"country_en":"Thailand","name":"Ban Nong Chang Yai","name_adm0":"Thailand","name_adm1":"Ubon Ratchathani","name_adm2":"Muang Sam Sip","name_en":"Ban Nong Chang Yai"},"geometry":{"type":"Point","coordinates":[104.80881,15.57108]}},{"type":"feature","properties":{"country_en":"Thailand","name":"Ban Nong Chik","name_adm0":"Thailand","name_adm1":"Surat Thani","name_adm2":"Chaiya","name_en":"Ban Nong Chik"},"geometry":{"type":"Point","coordinates":[99.15397,9.486109999999998]}},{"type":"feature","properties":{"country_en":"Thailand","name":"Ban Nong Chim","name_adm0":"Thailand","name_adm1":"Chanthaburi","name_adm2":"Laem Sing","name_en":"Ban Nong Chim"},"geometry":{"type":"Point","coordinates":[102.15,12.45]}},{"type":"feature","properties":{"country_en":"Thailand","name":"Ban Nong Chon","name_adm0":"Thailand","name_adm1":"Nakhon Phanom","name_adm2":"Na Thom","name_en":"Ban Nong Chon"},"geometry":{"type":"Point","coordinates":[104.14616,17.83842]}},{"type":"feature","properties":{"country_en":"Thailand","name":"Ban Nong Chorakhe","name_adm0":"Thailand","name_adm1":"Sara Buri","name_adm2":"Nong Khae","name_en":"Ban Nong Chorakhe"},"geometry":{"type":"Point","coordinates":[100.89999999999999,14.333329999999998]}},{"type":"feature","properties":{"country_en":"Thailand","name":"Ban Nong Ko","name_adm0":"Thailand","name_adm1":"Khon Kaen","name_adm2":"Kranuan","name_en":"Ban Nong Ko"},"geometry":{"type":"Point","coordinates":[102.16667,16.7]}},{"type":"feature","properties":{"country_en":"Thailand","name":"Ban Nong Krabian","name_adm0":"Thailand","name_adm1":"Lop Buri","name_adm2":"Ban Mi","name_en":"Ban Nong Krabian"},"geometry":{"type":"Point","coordinates":[100.51583,15.14778]}},{"type":"feature","properties":{"country_en":"Thailand","name":"Ban Nong Luang","name_adm0":"Thailand","name_adm1":"Sakon Nakhon","name_adm2":"Sawang Daen Din","name_en":"Ban Nong Luang"},"geometry":{"type":"Point","coordinates":[103.38556,17.39794]}},{"type":"feature","properties":{"country_en":"Thailand","name":"Ban Nong Luang","name_adm0":"Thailand","name_adm1":"Kamphaeng Phet","name_adm2":"Lan Krabue","name_en":"Ban Nong Luang"},"geometry":{"type":"Point","coordinates":[99.51855999999998,16.29375]}},{"type":"feature","properties":{"country_en":"Thailand","name":"Ban Nong Luang","name_adm0":"Thailand","name_adm1":"Nakhon Sawan","name_adm2":"Tha Tako","name_en":"Ban Nong Luang"},"geometry":{"type":"Point","coordinates":[100.47880999999998,15.530029999999998]}},{"type":"feature","properties":{"country_en":"Thailand","name":"Ban Nong Ma","name_adm0":"Thailand","name_adm1":"Surin","name_adm2":"Samrong Thap","name_en":"Ban Nong Ma"},"geometry":{"type":"Point","coordinates":[103.88333,15.099999999999998]}},{"type":"feature","properties":{"country_en":"Thailand","name":"Ban Nong Nak","name_adm0":"Thailand","name_adm1":"Sara Buri","name_adm2":"Nong Khae","name_en":"Ban Nong Nak"},"geometry":{"type":"Point","coordinates":[100.89999999999999,14.433329999999998]}},{"type":"feature","properties":{"country_en":"Thailand","name":"Ban Nong Nam Sai","name_adm0":"Thailand","name_adm1":"Sa Kaeo","name_adm2":"Watthana Nakhon","name_en":"Ban Nong Nam Sai"},"geometry":{"type":"Point","coordinates":[102.38332999999999,13.849999999999998]}},{"type":"feature","properties":{"country_en":"Thailand","name":"Ban Nong Nam Sai","name_adm0":"Thailand","name_adm1":"Phra Nakhon Si Ayutthaya","name_adm2":"Phachi","name_en":"Ban Nong Nam Sai"},"geometry":{"type":"Point","coordinates":[100.73333,14.449999999999998]}},{"type":"feature","properties":{"country_en":"Thailand","name":"Ban Nong Rua","name_adm0":"Thailand","name_adm1":"Roi Et","name_adm2":"At Samat","name_en":"Ban Nong Rua"},"geometry":{"type":"Point","coordinates":[103.76249999999999,15.858330000000002]}},{"type":"feature","properties":{"country_en":"Thailand","name":"Ban Nong Sa","name_adm0":"Thailand","name_adm1":"Uthai Thani","name_adm2":"Thap Than","name_en":"Ban Nong Sa"},"geometry":{"type":"Point","coordinates":[99.81189,15.44989]}},{"type":"feature","properties":{"country_en":"Thailand","name":"Ban Nong Saeng","name_adm0":"Thailand","name_adm1":"Phichit","name_adm2":"Tap Khlo","name_en":"Ban Nong Saeng"},"geometry":{"type":"Point","coordinates":[100.62364,16.49511]}},{"type":"feature","properties":{"country_en":"Thailand","name":"Ban Nong Saeng","name_adm0":"Thailand","name_adm1":"Chaiyaphum","name_adm2":"Phu Khiao","name_en":"Ban Nong Saeng"},"geometry":{"type":"Point","coordinates":[101.74177999999999,15.54417]}},{"type":"feature","properties":{"country_en":"Thailand","name":"Ban Nong Waeng","name_adm0":"Thailand","name_adm1":"Mukdahan","name_adm2":"Nikhom Kham Soi","name_en":"Ban Nong Waeng"},"geometry":{"type":"Point","coordinates":[104.59358,16.38622]}},{"type":"feature","properties":{"country_en":"Thailand","name":"Ban Nong Waeng Sok Phra","name_adm0":"Thailand","name_adm1":"Khon Kaen","name_adm2":"Phon","name_en":"Ban Nong Waeng Sok Phra"},"geometry":{"type":"Point","coordinates":[102.37919,17.40092]}},{"type":"feature","properties":{"country_en":"Thailand","name":"Ban Pak Phraek","name_adm0":"Thailand","name_adm1":"Chumphon","name_adm2":"Sawi","name_en":"Ban Pak Phraek"},"geometry":{"type":"Point","coordinates":[98.80378,10.083029999999999]}},{"type":"feature","properties":{"country_en":"Thailand","name":"Ban Pak Puan","name_adm0":"Thailand","name_adm1":"Loei","name_adm2":"Wang Saphung","name_en":"Ban Pak Puan"},"geometry":{"type":"Point","coordinates":[101.71666999999998,17.33333]}},{"type":"feature","properties":{"country_en":"Thailand","name":"Ban Pong","name_adm0":"Thailand","name_adm1":"Phrae","name_adm2":"Sung Men","name_en":"Ban Pong"},"geometry":{"type":"Point","coordinates":[100.07432999999999,18.057689999999997]}},{"type":"feature","properties":{"country_en":"Thailand","name":"Ban Pho Thale","name_adm0":"Thailand","name_adm1":"Sing Buri","name_adm2":"Khai Bang Rachan","name_en":"Ban Pho Thale"},"geometry":{"type":"Point","coordinates":[100.26667,14.833329999999998]}},{"type":"feature","properties":{"country_en":"Thailand","name":"Ban Pho Phra","name_adm0":"Thailand","name_adm1":"Phetchaburi","name_adm2":"Mueang Phetchaburi","name_en":"Ban Pho Phra"},"geometry":{"type":"Point","coordinates":[100.011,13.08903]}},{"type":"feature","properties":{"country_en":"Thailand","name":"Ban Pho Sa","name_adm0":"Thailand","name_adm1":"Ang Thong","name_adm2":"Mueang Ang Thong","name_en":"Ban Pho Sa"},"geometry":{"type":"Point","coordinates":[100.45275,14.574829999999999]}},{"type":"feature","properties":{"country_en":"Thailand","name":"Ban Pla Lo","name_adm0":"Thailand","name_adm1":"Sakon Nakhon","name_adm2":"Waritchaphum","name_en":"Ban Pla Lo"},"geometry":{"type":"Point","coordinates":[103.66447,17.33008]}},{"type":"feature","properties":{"country_en":"Thailand","name":"Ban Plai Nam (1)","name_adm0":"Thailand","name_adm1":"Prachuap Khiri Khan","name_adm2":"Kui Buri","name_en":"Ban Plai Nam (1)"},"geometry":{"type":"Point","coordinates":[99.83802999999999,12.07403]}},{"type":"feature","properties":{"country_en":"Thailand","name":"Ban Plak Nu","name_adm0":"Thailand","name_adm1":"Songkhla","name_adm2":"Na Thawi","name_en":"Ban Plak Nu"},"geometry":{"type":"Point","coordinates":[100.67410999999998,6.69467]}},{"type":"feature","properties":{"country_en":"Thailand","name":"Ban Plak Raet","name_adm0":"Thailand","name_adm1":"Phitsanulok","name_adm2":"Bang Rakam","name_en":"Ban Plak Raet"},"geometry":{"type":"Point","coordinates":[100.09358,16.68836]}},{"type":"feature","properties":{"country_en":"Thailand","name":"Ban Po Daeng","name_adm0":"Thailand","name_adm1":"Khon Kaen","name_adm2":"Chonnabot","name_en":"Ban Po Daeng"},"geometry":{"type":"Point","coordinates":[102.58333,15.966669999999999]}},{"type":"feature","properties":{"country_en":"Thailand","name":"Ban Sa Kaeo","name_adm0":"Thailand","name_adm1":"Buriram","name_adm2":"Nong Hong","name_en":"Ban Sa Kaeo"},"geometry":{"type":"Point","coordinates":[102.66666999999998,14.833329999999998]}},{"type":"feature","properties":{"country_en":"Thailand","name":"Ban Sa Kam","name_adm0":"Thailand","name_adm1":"Pattani","name_adm2":"Mayo","name_en":"Ban Sa Kam"},"geometry":{"type":"Point","coordinates":[101.90917,5.986809999999999]}},{"type":"feature","properties":{"country_en":"Thailand","name":"Ban Sa Khut","name_adm0":"Thailand","name_adm1":"Surin","name_adm2":"Chumpon Buri","name_en":"Ban Sa Khut"},"geometry":{"type":"Point","coordinates":[103.41667,15.133329999999999]}},{"type":"feature","properties":{"country_en":"Thailand","name":"Ban Sai","name_adm0":"Thailand","name_adm1":"Lop Buri","name_adm2":"Ban Mi","name_en":"Ban Sai"},"geometry":{"type":"Point","coordinates":[100.56667,15.05]}},{"type":"feature","properties":{"country_en":"Thailand","name":"Ban Sai","name_adm0":"Thailand","name_adm1":"Buriram","name_adm2":"Prakhon Chai","name_en":"Ban Sai"},"geometry":{"type":"Point","coordinates":[103.03333,14.63333]}},{"type":"feature","properties":{"country_en":"Thailand","name":"Ban Sai Thong","name_adm0":"Thailand","name_adm1":"Ang Thong","name_adm2":"Pa Mok","name_en":"Ban Sai Thong"},"geometry":{"type":"Point","coordinates":[100.01667,15.46667]}},{"type":"feature","properties":{"country_en":"Thailand","name":"Ban Sak Long","name_adm0":"Thailand","name_adm1":"Phetchabun","name_adm2":"Lom Sak","name_en":"Ban Sak Long"},"geometry":{"type":"Point","coordinates":[101.31667,16.816669999999995]}},{"type":"feature","properties":{"country_en":"Thailand","name":"Ban Sakat","name_adm0":"Thailand","name_adm1":"Surin","name_adm2":"Sangkha","name_en":"Ban Sakat"},"geometry":{"type":"Point","coordinates":[103.75,14.616669999999997]}},{"type":"feature","properties":{"country_en":"Thailand","name":"Ban Sam Kha","name_adm0":"Thailand","name_adm1":"Kalasin","name_adm2":"Kuchinarai","name_en":"Ban Sam Kha"},"geometry":{"type":"Point","coordinates":[103.98333,16.48333]}},{"type":"feature","properties":{"country_en":"Thailand","name":"Ban Sam Ko (1)","name_adm0":"Thailand","name_adm1":"Phra Nakhon Si Ayutthaya","name_adm2":"Sena","name_en":"Ban Sam Ko (1)"},"geometry":{"type":"Point","coordinates":[100.4,14.31667]}},{"type":"feature","properties":{"country_en":"Thailand","name":"Ban Sam Krai (1)","name_adm0":"Thailand","name_adm1":"Chumphon","name_adm2":"Tha Sae","name_en":"Ban Sam Krai (1)"},"geometry":{"type":"Point","coordinates":[99.18332999999998,10.73333]}},{"type":"feature","properties":{"country_en":"Thailand","name":"Ban Samo Khon","name_adm0":"Thailand","name_adm1":"Lop Buri","name_adm2":"Tha Wung","name_en":"Ban Samo Khon"},"geometry":{"type":"Point","coordinates":[100.51667,14.900000000000002]}},{"type":"feature","properties":{"country_en":"Thailand","name":"Ban Saphan Mai Kaen","name_adm0":"Thailand","name_adm1":"Songkhla","name_adm2":"Chana","name_en":"Ban Saphan Mai Kaen"},"geometry":{"type":"Point","coordinates":[100.79961,6.82744]}},{"type":"feature","properties":{"country_en":"Thailand","name":"Ban Saphu","name_adm0":"Thailand","name_adm1":"Ubon Ratchathani","name_adm2":"Trakan Phuet Phon","name_en":"Ban Saphu"},"geometry":{"type":"Point","coordinates":[105.04197,15.52686]}},{"type":"feature","properties":{"country_en":"Thailand","name":"Ban Suan Pan","name_adm0":"Thailand","name_adm1":"Nathon Pathon","name_adm2":"Mueang Akhon Pathom","name_en":"Ban Suan Pan"},"geometry":{"type":"Point","coordinates":[99.94302,13.74842]}},{"type":"feature","properties":{"country_en":"Thailand","name":"Ban Sum Sao","name_adm0":"Thailand","name_adm1":"Udon Thani","name_adm2":"Phen","name_en":"Ban Sum Sao"},"geometry":{"type":"Point","coordinates":[102.98728,17.58583]}},{"type":"feature","properties":{"country_en":"Thailand","name":"Ban Talat denKham","name_adm0":"Thailand","name_adm1":"Nathon Pathon","name_adm2":"Kamphaeng Saen","name_en":"Ban Talat denKham"},"geometry":{"type":"Point","coordinates":[99.98839,14.107409999999998]}},{"type":"feature","properties":{"country_en":"Thailand","name":"Ban Talat Nua","name_adm0":"Thailand","name_adm1":"Phuket","name_adm2":"Mueang Phuket","name_en":"Ban Talat Nua"},"geometry":{"type":"Point","coordinates":[98.38557,7.8848899999999995]}},{"type":"feature","properties":{"country_en":"Thailand","name":"Ban Tha Daeng (1)","name_adm0":"Thailand","name_adm1":"Phetchabun","name_adm2":"Nong Phai","name_en":"Ban Tha Daeng (1)"},"geometry":{"type":"Point","coordinates":[101.13301,15.99059]}},{"type":"feature","properties":{"country_en":"Thailand","name":"Ban Tha Din Daeng (2)","name_adm0":"Thailand","name_adm1":"Phra Nakhon Si Ayutthaya","name_adm2":"Phak Hai","name_en":"Ban Tha Din Daeng (2)"},"geometry":{"type":"Point","coordinates":[100.38333,14.41667]}},{"type":"feature","properties":{"country_en":"Thailand","name":"Ban Tha Mun Ram","name_adm0":"Thailand","name_adm1":"Phitsanulok","name_adm2":"Wang Thong","name_en":"Ban Tha Mun Ram"},"geometry":{"type":"Point","coordinates":[100.5,16.66667]}},{"type":"feature","properties":{"country_en":"Thailand","name":"Ban Tha Nam Oi","name_adm0":"Thailand","name_adm1":"Nakhon Sawan","name_adm2":"Phayuha Khiri","name_en":"Ban Tha Nam Oi"},"geometry":{"type":"Point","coordinates":[100.13431,15.43806]}},{"type":"feature","properties":{"country_en":"Thailand","name":"Ban Tha Nang","name_adm0":"Thailand","name_adm1":"Phichit","name_adm2":"Pho Thale","name_en":"Ban Tha Nang"},"geometry":{"type":"Point","coordinates":[100.26056,15.965249999999997]}},{"type":"feature","properties":{"country_en":"Thailand","name":"Ban Tha Nao","name_adm0":"Thailand","name_adm1":"Nan","name_adm2":"Phu Phiang","name_en":"Ban Tha Nao"},"geometry":{"type":"Point","coordinates":[100.76993999999999,18.73653]}},{"type":"feature","properties":{"country_en":"Thailand","name":"Ban Tha Nat (4)","name_adm0":"Thailand","name_adm1":"Ratchaburi","name_adm2":"Damnoen Saduak","name_en":"Ban Tha Nat (4)"},"geometry":{"type":"Point","coordinates":[99.95278,13.534079999999998]}},{"type":"feature","properties":{"country_en":"Thailand","name":"Ban Tha Sida","name_adm0":"Thailand","name_adm1":"Roi Et","name_adm2":"Nong Phok","name_en":"Ban Tha Sida"},"geometry":{"type":"Point","coordinates":[104.21667,16.2]}},{"type":"feature","properties":{"country_en":"Thailand","name":"Ban Tha Ta Che","name_adm0":"Thailand","name_adm1":"Suphan Buri","name_adm2":"Sam Chuk","name_en":"Ban Tha Ta Che"},"geometry":{"type":"Point","coordinates":[99.88333,15.366669999999997]}},{"type":"feature","properties":{"country_en":"Thailand","name":"Ban Tha Yiam","name_adm0":"Thailand","name_adm1":"Nakhon Ratchasima","name_adm2":"Chok Chai","name_en":"Ban Tha Yiam"},"geometry":{"type":"Point","coordinates":[102.21667,14.699999999999998]}},{"type":"feature","properties":{"country_en":"Thailand","name":"Ban Thaen","name_adm0":"Thailand","name_adm1":"Khon Kaen","name_adm2":"Chonnabot","name_en":"Ban Thaen"},"geometry":{"type":"Point","coordinates":[102.6,15.98333]}},{"type":"feature","properties":{"country_en":"Thailand","name":"Ban Thaeo","name_adm0":"Thailand","name_adm1":"Phra Nakhon Si Ayutthaya","name_adm2":"Sena","name_en":"Ban Thaeo"},"geometry":{"type":"Point","coordinates":[100.36666999999998,14.3]}},{"type":"feature","properties":{"country_en":"Thailand","name":"Ban Thiang Thae","name_adm0":"Thailand","name_adm1":"Chai Nat","name_adm2":"Sankhaburi","name_en":"Ban Thiang Thae"},"geometry":{"type":"Point","coordinates":[100.15,15.083329999999998]}},{"type":"feature","properties":{"country_en":"Thailand","name":"Ban Tho Thae (4)","name_adm0":"Thailand","name_adm1":"Phitsanulok","name_adm2":"Wat Bot","name_en":"Ban Tho Thae (4)"},"geometry":{"type":"Point","coordinates":[100.3,16.98333]}},{"type":"feature","properties":{"country_en":"Thailand","name":"Ban Thung Khwai Kin","name_adm0":"Thailand","name_adm1":"Rayong","name_adm2":"Klaeng","name_en":"Ban Thung Khwai Kin"},"geometry":{"type":"Point","coordinates":[101.69721,12.75133]}},{"type":"feature","properties":{"country_en":"Thailand","name":"Ban Thung Kwang","name_adm0":"Thailand","name_adm1":"Chiang Mai","name_adm2":"Saraphi","name_en":"Ban Thung Kwang"},"geometry":{"type":"Point","coordinates":[99.28014,18.32531]}},{"type":"feature","properties":{"country_en":"Thailand","name":"Ban Thung Wang","name_adm0":"Thailand","name_adm1":"Songkhla","name_adm2":"Mueang Songkhla","name_en":"Ban Thung Wang"},"geometry":{"type":"Point","coordinates":[100.63608,7.07719]}},{"type":"feature","properties":{"country_en":"Thailand","name":"Ban Ton Klua","name_adm0":"Thailand","name_adm1":"Uttaradit","name_adm2":"Laplae","name_en":"Ban Ton Klua"},"geometry":{"type":"Point","coordinates":[99.99017,17.70994]}},{"type":"feature","properties":{"country_en":"Thailand","name":"Ban Ton Tan","name_adm0":"Thailand","name_adm1":"Suphan Buri","name_adm2":"Song Phi Nong","name_en":"Ban Ton Tan"},"geometry":{"type":"Point","coordinates":[100.08332999999999,14.2]}},{"type":"feature","properties":{"country_en":"Thailand","name":"Ban Ton Tan","name_adm0":"Thailand","name_adm1":"Chachoengsao","name_adm2":"Ratchasan","name_en":"Ban Ton Tan"},"geometry":{"type":"Point","coordinates":[101.33738999999998,13.796939999999998]}},{"type":"feature","properties":{"country_en":"Thailand","name":"Ban Trakan","name_adm0":"Thailand","name_adm1":"Ubon Ratchathani","name_adm2":"Trakan Phuet Phon","name_en":"Ban Trakan"},"geometry":{"type":"Point","coordinates":[105.02797,15.47622]}},{"type":"feature","properties":{"country_en":"Thailand","name":"Ban Trom Phrai","name_adm0":"Thailand","name_adm1":"Surin","name_adm2":"Sikhoraphum","name_en":"Ban Trom Phrai"},"geometry":{"type":"Point","coordinates":[103.78333,14.849999999999998]}},{"type":"feature","properties":{"country_en":"Thailand","name":"Ban Wan Yao Lang","name_adm0":"Thailand","name_adm1":"Chanthaburi","name_adm2":"Khlung","name_en":"Ban Wan Yao Lang"},"geometry":{"type":"Point","coordinates":[102.23867,12.44572]}},{"type":"feature","properties":{"country_en":"Thailand","name":"Ban Wang Daeng (1)","name_adm0":"Thailand","name_adm1":"Uttaradit","name_adm2":"Tron","name_en":"Ban Wang Daeng (1)"},"geometry":{"type":"Point","coordinates":[100.12226,17.49886]}},{"type":"feature","properties":{"country_en":"Thailand","name":"Ban Wang Daeng (1)","name_adm0":"Thailand","name_adm1":"Phra Nakhon Si Ayutthaya","name_adm2":"Tha Ruea","name_en":"Ban Wang Daeng (1)"},"geometry":{"type":"Point","coordinates":[100.68333,14.533329999999998]}},{"type":"feature","properties":{"country_en":"Thailand","name":"Phuket","name_adm0":"Thailand","name_adm1":"Phuket","name_en":"Phuket"},"geometry":{"type":"Point","coordinates":[98.25,8]}},{"type":"feature","properties":{"country_en":"Thailand","name":"Bo Suphan","name_adm0":"Thailand","name_adm1":"Suphan Buri","name_adm2":"Song Phi Nong","name_en":"Bo Suphan"},"geometry":{"type":"Point","coordinates":[98.9502,14.16192]}},{"type":"feature","properties":{"country_en":"Thailand","name":"Sanam Chai","name_adm0":"Thailand","name_adm1":"Chanthaburi","name_adm2":"Na Yai Am","name_en":"Sanam Chai"},"geometry":{"type":"Point","coordinates":[101.87483,12.65047]}},{"type":"feature","properties":{"country_en":"Thailand","name":"Fai Kaeo","name_adm0":"Thailand","name_adm1":"Nan","name_adm2":"Phu Phiang","name_en":"Fai Kaeo"},"geometry":{"type":"Point","coordinates":[100.8025,18.76692]}},{"type":"feature","properties":{"country_en":"Thailand","name":"Hua Khwang","name_adm0":"Thailand","name_adm1":"Maha Sarakham","name_adm2":"Kosum Phisai","name_en":"Hua Khwang"},"geometry":{"type":"Point","coordinates":[103.91667,16.05]}},{"type":"feature","properties":{"country_en":"Thailand","name":"Khlong Preng","name_adm0":"Thailand","name_adm1":"Chachoengsao","name_adm2":"Mueang Chachoengsao","name_en":"Khlong Preng"},"geometry":{"type":"Point","coordinates":[100.95128,13.728669999999997]}},{"type":"feature","properties":{"country_en":"Thailand","name":"Tha Khanan","name_adm0":"Thailand","name_adm1":"Nakhon Si Thammarat","name_adm2":"Chian Yai","name_en":"Tha Khanan"},"geometry":{"type":"Point","coordinates":[100.15467,8.164809999999997]}},{"type":"feature","properties":{"country_en":"Thailand","name":"Daeng Mo","name_adm0":"Thailand","name_adm1":"Ubon Ratchathani","name_adm2":"Khueang Nai","name_en":"Daeng Mo"},"geometry":{"type":"Point","coordinates":[104.49794,15.296669999999999]}},{"type":"feature","properties":{"country_en":"Thailand","name":"Huai Mon Thong","name_adm0":"Thailand","name_adm1":"Nathon Pathon","name_adm2":"Kamphaeng Saen","name_en":"Huai Mon Thong"},"geometry":{"type":"Point","coordinates":[99.9222,13.98264]}},{"type":"feature","properties":{"country_en":"Thailand","name":"Phraek Nam Daeng","name_adm0":"Thailand","name_adm1":"Samut Songkhran","name_adm2":"Amphawa","name_en":"Phraek Nam Daeng"},"geometry":{"type":"Point","coordinates":[99.86888999999998,13.33094]}},{"type":"feature","properties":{"country_en":"Thailand","name":"Khlong Chet","name_adm0":"Thailand","name_adm1":"Pathum Thani","name_adm2":"Khlong Luang","name_en":"Khlong Chet"},"geometry":{"type":"Point","coordinates":[100.75594,14.06392]}},{"type":"feature","properties":{"country_en":"Thailand","name":"Don Hua Lo","name_adm0":"Thailand","name_adm1":"Chon Buri","name_adm2":"Mueang Chon Buri","name_en":"Don Hua Lo"},"geometry":{"type":"Point","coordinates":[101.03167,13.39842]}},{"type":"feature","properties":{"country_en":"Thailand","name":"Nai Mueang","name_adm0":"Thailand","name_adm1":"Kamphaeng Phet","name_adm2":"Mueang Kamphaeng Phet","name_en":"Nai Mueang"},"geometry":{"type":"Point","coordinates":[99.53642,16.49169]}},{"type":"feature","properties":{"country_en":"Thailand","name":"Wang Chan","name_adm0":"Thailand","name_adm1":"Phetchaburi","name_adm2":"Kaeng Krachan","name_en":"Wang Chan"},"geometry":{"type":"Point","coordinates":[99.75594,12.93347]}},{"type":"feature","properties":{"country_en":"Thailand","name":"Kradangnga","name_adm0":"Thailand","name_adm1":"Samut Songkhran","name_adm2":"Bang Khonthi","name_en":"Kradangnga"},"geometry":{"type":"Point","coordinates":[99.95163999999998,13.47983]}},{"type":"feature","properties":{"country_en":"Thailand","name":"Kranuan","name_adm0":"Thailand","name_adm1":"Khon Kaen","name_adm2":"Kranuan","name_en":"Kranuan"},"geometry":{"type":"Point","coordinates":[103.07877999999998,16.70672]}},{"type":"feature","properties":{"country_en":"Thailand","name":"Ban Chon Phrai","name_adm0":"Thailand","name_adm1":"Phetchabun","name_adm2":"Mueang Phetchabun","name_en":"Ban Chon Phrai"},"geometry":{"type":"Point","coordinates":[101.15,16.36667]}},{"type":"feature","properties":{"country_en":"Thailand","name":"Ban Khlong Hok","name_adm0":"Thailand","name_adm1":"Pathum Thani","name_adm2":"Khlong Luang","name_en":"Ban Khlong Hok"},"geometry":{"type":"Point","coordinates":[100.73244,14.078079999999998]}},{"type":"feature","properties":{"country_en":"Thailand","name":"Ban Khlong Sip","name_adm0":"Thailand","name_adm1":"Bangkok","name_adm2":"Nong Chok","name_en":"Ban Khlong Sip"},"geometry":{"type":"Point","coordinates":[100.81306,13.90894]}},{"type":"feature","properties":{"country_en":"Thailand","name":"Ban Nong Yong","name_adm0":"Thailand","name_adm1":"Nong Khai","name_adm2":"Pak Khat","name_en":"Ban Nong Yong"},"geometry":{"type":"Point","coordinates":[103.3513,18.19633]}},{"type":"feature","properties":{"country_en":"Thailand","name":"Ban Pa Kho","name_adm0":"Thailand","name_adm1":"Udon Thani","name_adm2":"Kumphawapi","name_en":"Ban Pa Kho"},"geometry":{"type":"Point","coordinates":[102.94258,17.1047]}},{"type":"feature","properties":{"country_en":"Thailand","name":"Ban Pa Tum","name_adm0":"Thailand","name_adm1":"Chiang Mai","name_adm2":"Phrao","name_en":"Ban Pa Tum"},"geometry":{"type":"Point","coordinates":[99.84427999999998,19.30953]}},{"type":"feature","properties":{"country_en":"Thailand","name":"Ban Phang Kan Nua","name_adm0":"Thailand","name_adm1":"Surat Thani","name_adm2":"Phanom","name_en":"Ban Phang Kan Nua"},"geometry":{"type":"Point","coordinates":[98.82264,8.87828]}},{"type":"feature","properties":{"country_en":"Thailand","name":"Ban Phang Tru (1)","name_adm0":"Thailand","name_adm1":"Kanchanaburi","name_adm2":"Phanom Thuan","name_en":"Ban Phang Tru (1)"},"geometry":{"type":"Point","coordinates":[99.7488,14.14797]}},{"type":"feature","properties":{"country_en":"Thailand","name":"Ban Pho Ka Ton","name_adm0":"Thailand","name_adm1":"Lop Buri","name_adm2":"Mueang Lop Buri","name_en":"Ban Pho Ka Ton"},"geometry":{"type":"Point","coordinates":[100.61667,14.78333]}},{"type":"feature","properties":{"country_en":"Thailand","name":"Ban Phra Kaeo","name_adm0":"Thailand","name_adm1":"Surin","name_adm2":"Sangkha","name_en":"Ban Phra Kaeo"},"geometry":{"type":"Point","coordinates":[103.95,14.616669999999997]}},{"type":"feature","properties":{"country_en":"Thailand","name":"Ban Sop Poeng","name_adm0":"Thailand","name_adm1":"Chiang Mai","name_adm2":"Mae Taeng","name_en":"Ban Sop Poeng"},"geometry":{"type":"Point","coordinates":[98.83455999999998,19.10706]}},{"type":"feature","properties":{"country_en":"Thailand","name":"Ban Tam Malang","name_adm0":"Thailand","name_adm1":"Satun","name_adm2":"Mueang Satun","name_en":"Ban Tam Malang"},"geometry":{"type":"Point","coordinates":[100.06365,6.546519999999999]}},{"type":"feature","properties":{"country_en":"Thailand","name":"Ban Tha Thong (3)","name_adm0":"Thailand","name_adm1":"Phitsanulok","name_adm2":"Mueang Phitsanulok","name_en":"Ban Tha Thong (3)"},"geometry":{"type":"Point","coordinates":[100.21893999999999,16.78978]}},{"type":"feature","properties":{"country_en":"Thailand","name":"Ban Tha Tum","name_adm0":"Thailand","name_adm1":"Maha Sarakham","name_adm2":"Mueang Maha Sarakham","name_en":"Ban Tha Tum"},"geometry":{"type":"Point","coordinates":[103.4,16.08333]}},{"type":"feature","properties":{"country_en":"Thailand","name":"Ko Si Chang","name_adm0":"Thailand","name_adm1":"Chon Buri","name_adm2":"Ko Sichang","name_en":"Ko Si Chang"},"geometry":{"type":"Point","coordinates":[100.10265,13.79751]}},{"type":"feature","properties":{"country_en":"Thailand","name":"Yan Nawa Khwaeng","name_adm0":"Thailand","name_adm1":"Bangkok","name_adm2":"Yan Nawa","name_en":"Yan Nawa Khwaeng"},"geometry":{"type":"Point","coordinates":[100.12255,13.4837]}},{"type":"feature","properties":{"country_en":"Thailand","name":"Nong Bua Daeng","name_adm0":"Thailand","name_adm1":"Chaiyaphum","name_adm2":"Nong Bua Daeng","name_en":"Nong Bua Daeng"},"geometry":{"type":"Point","coordinates":[101.18528,15.612780000000003]}},{"type":"feature","properties":{"country_en":"Thailand","name":"Ban Phai","name_adm0":"Thailand","name_adm1":"Khon Kaen","name_adm2":"Ban Phai","name_en":"Ban Phai"},"geometry":{"type":"Point","coordinates":[103.18333,16.43333]}},{"type":"feature","properties":{"country_en":"Thailand","name":"Paoy Pet","name_adm0":"Thailand","name_adm1":"Sa Kaeo","name_adm2":"Aranyaprathet","name_en":"Paoy Pet"},"geometry":{"type":"Point","coordinates":[102.5625,13.65611]}},{"type":"feature","properties":{"country_en":"Thailand","name":"Ban Bang Wan","name_adm0":"Thailand","name_adm1":"Phangnga","name_adm2":"Khura Buri","name_en":"Ban Bang Wan"},"geometry":{"type":"Point","coordinates":[98.40414,8.97011]}},{"type":"feature","properties":{"country_en":"Thailand","name":"Thap Lamu","name_adm0":"Thailand","name_adm1":"Phangnga","name_adm2":"Thai Mueang","name_en":"Thap Lamu"},"geometry":{"type":"Point","coordinates":[98.22757999999999,8.57]}},{"type":"feature","properties":{"country_en":"Thailand","name":"Na Haeo","name_adm0":"Thailand","name_adm1":"Loei","name_adm2":"Na Haeo","name_en":"Na Haeo"},"geometry":{"type":"Point","coordinates":[101.06667,17.48333]}},{"type":"feature","properties":{"country_en":"Thailand","name":"Watthana Nakhon","name_adm0":"Thailand","name_adm1":"Sa Kaeo","name_adm2":"Watthana Nakhon","name_en":"Watthana Nakhon"},"geometry":{"type":"Point","coordinates":[102.33167,13.74778]}},{"type":"feature","properties":{"country_en":"Thailand","name":"Bang Nam Prieo","name_adm0":"Thailand","name_adm1":"Chachoengsao","name_adm2":"Bang Nam Priao","name_en":"Bang Nam Prieo"},"geometry":{"type":"Point","coordinates":[101.05306,13.847389999999999]}},{"type":"feature","properties":{"country_en":"Thailand","name":"Mueang Suang","name_adm0":"Thailand","name_adm1":"Roi Et","name_adm2":"Mueang Suang","name_en":"Mueang Suang"},"geometry":{"type":"Point","coordinates":[103.72884,15.82192]}},{"type":"feature","properties":{"country_en":"Thailand","name":"Pho Si Suwan","name_adm0":"Thailand","name_adm1":"Sisaket","name_adm2":"Pho Si Suwan","name_en":"Pho Si Suwan"},"geometry":{"type":"Point","coordinates":[104.685974,14.402593]}},{"type":"feature","properties":{"country_en":"Thailand","name":"Sida","name_adm0":"Thailand","name_adm1":"Nakhon Ratchasima","name_adm2":"Sida","name_en":"Sida"},"geometry":{"type":"Point","coordinates":[101.451187,14.623745999999999]}},{"type":"feature","properties":{"country_en":"Thailand","name":"Mueang Ranong","name_adm0":"Thailand","name_adm1":"Ranong","name_adm2":"Mueang Ranong","name_en":"Mueang Ranong"},"geometry":{"type":"Point","coordinates":[98.4449975,9.772734]}},{"type":"feature","properties":{"country_en":"Thailand","name":"Mueang Phuket","name_adm0":"Thailand","name_adm1":"Phuket","name_adm2":"Mueang Phuket","name_en":"Mueang Phuket"},"geometry":{"type":"Point","coordinates":[98.359222,7.767464]}},{"type":"feature","properties":{"country_en":"Thailand","name":"Phrasaeng","name_adm0":"Thailand","name_adm1":"Surat Thani","name_adm2":"Phrasaeng","name_en":"Phrasaeng"},"geometry":{"type":"Point","coordinates":[100.022964,9.654907]}},{"type":"feature","properties":{"country_en":"Thailand","name":"Phipun","name_adm0":"Thailand","name_adm1":"Nakhon Si Thammarat","name_adm2":"Phipun","name_en":"Phipun"},"geometry":{"type":"Point","coordinates":[99.60702999999998,8.560359999999998]}},{"type":"feature","properties":{"country_en":"Thailand","name":"Maha Sarakham","name_adm0":"Thailand","name_adm1":"Maha Sarakham","name_en":"Maha Sarakham"},"geometry":{"type":"Point","coordinates":[103.17233,16.00571]}},{"type":"feature","properties":{"country_en":"Thailand","name":"Buriram","name_adm0":"Thailand","name_adm1":"Buriram","name_en":"Buriram"},"geometry":{"type":"Point","coordinates":[102.99332,14.84823]}},{"type":"feature","properties":{"country_en":"Thailand","name":"Sisaket","name_adm0":"Thailand","name_adm1":"Sisaket","name_en":"Sisaket"},"geometry":{"type":"Point","coordinates":[104.33333,14.833329999999998]}},{"type":"feature","properties":{"country_en":"Thailand","name":"Chai Nat","name_adm0":"Thailand","name_adm1":"Chai Nat","name_en":"Chai Nat"},"geometry":{"type":"Point","coordinates":[100.1,15.116669999999997]}},{"type":"feature","properties":{"country_en":"Thailand","name":"San Maha Phon","name_adm0":"Thailand","name_adm1":"Chiang Mai","name_adm2":"Mae Taeng","name_en":"San Maha Phon"},"geometry":{"type":"Point","coordinates":[98.99052999999999,18.58672]}},{"type":"feature","properties":{"country_en":"Thailand","name":"Pak Nam Laem Sing","name_adm0":"Thailand","name_adm1":"Chanthaburi","name_adm2":"Laem Sing","name_en":"Pak Nam Laem Sing"},"geometry":{"type":"Point","coordinates":[102.0535,12.48547]}},{"type":"feature","properties":{"country_en":"Thailand","name":"Don Sak","name_adm0":"Thailand","name_adm1":"Surat Thani","name_adm2":"Don Sak","name_en":"Don Sak"},"geometry":{"type":"Point","coordinates":[99.69184,9.31676]}},{"type":"feature","properties":{"country_en":"Thailand","name":"Kui Buri","name_adm0":"Thailand","name_adm1":"Prachuap Khiri Khan","name_adm2":"Kui Buri","name_en":"Kui Buri"},"geometry":{"type":"Point","coordinates":[99.85431,12.082829999999998]}},{"type":"feature","properties":{"country_en":"Thailand","name":"Ban Ta Khun","name_adm0":"Thailand","name_adm1":"Surat Thani","name_adm2":"Ban Ta Khun","name_en":"Ban Ta Khun"},"geometry":{"type":"Point","coordinates":[98.8845,8.90364]}},{"type":"feature","properties":{"country_en":"Thailand","name":"Ban Wang Yen (1)","name_adm0":"Thailand","name_adm1":"Nathon Pathon","name_adm2":"Mueang Akhon Pathom","name_en":"Ban Wang Yen (1)"},"geometry":{"type":"Point","coordinates":[100.68333,14.533329999999998]}},{"type":"feature","properties":{"country_en":"Thailand","name":"Na Khaem","name_adm0":"Thailand","name_adm1":"Loei","name_adm2":"Mueang Loei","name_en":"Na Khaem"},"geometry":{"type":"Point","coordinates":[101.06667,17.48333]}},{"type":"feature","properties":{"country_en":"Thailand","name":"Nakorn Si Thammarat","name_adm0":"Thailand","name_adm1":"Nakhon Si Thammarat","name_adm2":"Mueang Nakhon Si Thammarat","name_en":"Nakorn Si Thammarat"},"geometry":{"type":"Point","coordinates":[99.968032,8.443676999999997]}},{"type":"feature","properties":{"country_en":"Thailand","name":"Nong Kung","name_adm0":"Thailand","name_adm1":"Khon Kaen","name_adm2":"Nam Phong","name_en":"Nong Kung"},"geometry":{"type":"Point","coordinates":[103.3,16.65]}},{"type":"feature","properties":{"country_en":"Thailand","name":"Salaya","name_adm0":"Thailand","name_adm1":"Nathon Pathon","name_adm2":"Phutthamonthon","name_en":"Salaya"},"geometry":{"type":"Point","coordinates":[100.2869895,13.805325]}},{"type":"feature","properties":{"country_en":"Thailand","name":"Chalong","name_adm0":"Thailand","name_adm1":"Phuket","name_adm2":"Mueang Phuket","name_en":"Chalong"},"geometry":{"type":"Point","coordinates":[98.338794,7.848140999999999]}},{"type":"feature","properties":{"country_en":"Thailand","name":"Kammala","name_adm0":"Thailand","name_adm1":"Phuket","name_adm2":"Kathu","name_en":"Kammala"},"geometry":{"type":"Point","coordinates":[98.281288,7.955928]}},{"type":"feature","properties":{"country_en":"Thailand","name":"Thanon Phaya Thai","name_adm0":"Thailand","name_adm1":"Bangkok","name_adm2":"Ratchathewi","name_en":"Thanon Phaya Thai"},"geometry":{"type":"Point","coordinates":[100.538563,13.764282999999999]}},{"type":"feature","properties":{"country_en":"Thailand","name":"Sirirat","name_adm0":"Thailand","name_adm1":"Bangkok","name_adm2":"Bangkok Noi","name_en":"Sirirat"},"geometry":{"type":"Point","coordinates":[100.485591,13.757289]}},{"type":"feature","properties":{"country_en":"Thailand","name":"Talat Yot","name_adm0":"Thailand","name_adm1":"Bangkok","name_adm2":"Phra Nakhon","name_en":"Talat Yot"},"geometry":{"type":"Point","coordinates":[100.497372,13.759185]}},{"type":"feature","properties":{"country_en":"Thailand","name":"Khlong Toei Nuae","name_adm0":"Thailand","name_adm1":"Bangkok","name_adm2":"Watthana","name_en":"Khlong Toei Nuae"},"geometry":{"type":"Point","coordinates":[100.561358,13.737415]}},{"type":"feature","properties":{"country_en":"Thailand","name":"Khao Chai Son","name_adm0":"Thailand","name_adm1":"Phatthalung","name_adm2":"Khao Chaison","name_en":"Khao Chai Son"},"geometry":{"type":"Point","coordinates":[100.13372,7.46125]}},{"type":"feature","properties":{"country_en":"Thailand","name":"Ban Fao Rai","name_adm0":"Thailand","name_adm1":"Nong Khai","name_adm2":"Fao Rai","name_en":"Ban Fao Rai"},"geometry":{"type":"Point","coordinates":[103.30387999999999,18.01792]}},{"type":"feature","properties":{"country_en":"Thailand","name":"Ban Muang Na Tai","name_adm0":"Thailand","name_adm1":"Chiang Mai","name_adm2":"Chiang Dao","name_en":"Ban Muang Na Tai"},"geometry":{"type":"Point","coordinates":[98.9017,19.73083]}},{"type":"feature","properties":{"country_en":"Thailand","name":"Doi Tao","name_adm0":"Thailand","name_adm1":"Chiang Mai","name_adm2":"Doi Tao","name_en":"Doi Tao"},"geometry":{"type":"Point","coordinates":[98.68457999999998,17.95286]}},{"type":"feature","properties":{"country_en":"Thailand","name":"Fak Tha","name_adm0":"Thailand","name_adm1":"Uttaradit","name_adm2":"Fak Tha","name_en":"Fak Tha"},"geometry":{"type":"Point","coordinates":[100.88014,17.99948]}},{"type":"feature","properties":{"country_en":"Thailand","name":"Prang Ku","name_adm0":"Thailand","name_adm1":"Sisaket","name_adm2":"Prang Ku","name_en":"Prang Ku"},"geometry":{"type":"Point","coordinates":[104.03981,14.85672]}},{"type":"feature","properties":{"country_en":"Thailand","name":"Sawang Arom","name_adm0":"Thailand","name_adm1":"Uthai Thani","name_adm2":"Sawang Arom","name_en":"Sawang Arom"},"geometry":{"type":"Point","coordinates":[99.86089,15.58394]}},{"type":"feature","properties":{"country_en":"Thailand","name":"Si Muang Mai","name_adm0":"Thailand","name_adm1":"Ubon Ratchathani","name_adm2":"Si Mueang Mai","name_en":"Si Muang Mai"},"geometry":{"type":"Point","coordinates":[105.27624,15.49315]}},{"type":"feature","properties":{"country_en":"Thailand","name":"Si That","name_adm0":"Thailand","name_adm1":"Udon Thani","name_adm2":"Si That","name_en":"Si That"},"geometry":{"type":"Point","coordinates":[103.21643999999999,16.973609999999997]}},{"type":"feature","properties":{"country_en":"Thailand","name":"Tha Chang","name_adm0":"Thailand","name_adm1":"Sing Buri","name_adm2":"Tha Chang","name_en":"Tha Chang"},"geometry":{"type":"Point","coordinates":[100.38989,14.761419999999998]}},{"type":"feature","properties":{"country_en":"Thailand","name":"Thung Saliam","name_adm0":"Thailand","name_adm1":"Sukhothai","name_adm2":"Thung Saliam","name_en":"Thung Saliam"},"geometry":{"type":"Point","coordinates":[99.56092,17.32106]}},{"type":"feature","properties":{"country_en":"Thailand","name":"Thung Wa","name_adm0":"Thailand","name_adm1":"Satun","name_adm2":"Thung Wa","name_en":"Thung Wa"},"geometry":{"type":"Point","coordinates":[99.75586,7.10957]}},{"type":"feature","properties":{"country_en":"Thailand","name":"Tha Maka","name_adm0":"Thailand","name_adm1":"Kanchanaburi","name_adm2":"Tha Maka","name_en":"Tha Maka"},"geometry":{"type":"Point","coordinates":[99.76667,13.9]}},{"type":"feature","properties":{"country_en":"Thailand","name":"Tha Rua","name_adm0":"Thailand","name_adm1":"Phra Nakhon Si Ayutthaya","name_adm2":"Tha Ruea","name_en":"Tha Rua"},"geometry":{"type":"Point","coordinates":[100.72598,14.567390000000001]}},{"type":"feature","properties":{"country_en":"Thailand","name":"Bacho","name_adm0":"Thailand","name_adm1":"Narathiwat","name_adm2":"Bacho","name_en":"Bacho"},"geometry":{"type":"Point","coordinates":[101.65,6.61667]}},{"type":"feature","properties":{"country_en":"Thailand","name":"Ban Na Wa","name_adm0":"Thailand","name_adm1":"Nakhon Phanom","name_adm2":"Na Wa","name_en":"Ban Na Wa"},"geometry":{"type":"Point","coordinates":[104.10056,17.4897]}},{"type":"feature","properties":{"country_en":"Thailand","name":"Kanthararom","name_adm0":"Thailand","name_adm1":"Sisaket","name_adm2":"Kanthararom","name_en":"Kanthararom"},"geometry":{"type":"Point","coordinates":[104.57343,15.10323]}},{"type":"feature","properties":{"country_en":"Thailand","name":"Mancha Khiri","name_adm0":"Thailand","name_adm1":"Khon Kaen","name_adm2":"Mancha Khiri","name_en":"Mancha Khiri"},"geometry":{"type":"Point","coordinates":[102.53712,16.13048]}},{"type":"feature","properties":{"country_en":"Thailand","name":"Kusuman","name_adm0":"Thailand","name_adm1":"Sakon Nakhon","name_adm2":"Kusuman","name_en":"Kusuman"},"geometry":{"type":"Point","coordinates":[104.33147,17.33259]}},{"type":"feature","properties":{"country_en":"Thailand","name":"Khon San","name_adm0":"Thailand","name_adm1":"Chaiyaphum","name_adm2":"Khon San","name_en":"Khon San"},"geometry":{"type":"Point","coordinates":[101.91944,16.61286]}},{"type":"feature","properties":{"country_en":"Thailand","name":"Bo Klua","name_adm0":"Thailand","name_adm1":"Nan","name_adm2":"Bo Kluea","name_en":"Bo Klua"},"geometry":{"type":"Point","coordinates":[101.15559999999999,19.15029]}},{"type":"feature","properties":{"country_en":"Thailand","name":"Thalang","name_adm0":"Thailand","name_adm1":"Phuket","name_adm2":"Thalang","name_en":"Thalang"},"geometry":{"type":"Point","coordinates":[98.33407999999999,8.0317]}},{"type":"feature","properties":{"country_en":"Thailand","name":"Kabin Buri","name_adm0":"Thailand","name_adm1":"Prachin Buri","name_adm2":"Kabin Buri","name_en":"Kabin Buri"},"geometry":{"type":"Point","coordinates":[101.750993,13.987626]}},{"type":"feature","properties":{"country_en":"Thailand","name":"Kamphaeng Phet","name_adm0":"Thailand","name_adm1":"Kamphaeng Phet","name_adm2":"Mueang Kamphaeng Phet","name_en":"Kamphaeng Phet"},"geometry":{"type":"Point","coordinates":[99.522614,16.420465]}},{"type":"feature","properties":{"country_en":"Thailand","name":"Phrao","name_adm0":"Thailand","name_adm1":"Chiang Mai","name_adm2":"Phrao","name_en":"Phrao"},"geometry":{"type":"Point","coordinates":[99.20186999999999,19.36586]}},{"type":"feature","properties":{"country_en":"Thailand","name":"Chiang Dao","name_adm0":"Thailand","name_adm1":"Chiang Mai","name_adm2":"Chiang Dao","name_en":"Chiang Dao"},"geometry":{"type":"Point","coordinates":[98.96452999999998,19.36542]}},{"type":"feature","properties":{"country_en":"Thailand","name":"Sai Yok","name_adm0":"Thailand","name_adm1":"Kanchanaburi","name_adm2":"Sai Yok","name_en":"Sai Yok"},"geometry":{"type":"Point","coordinates":[99.14199999999998,14.11899]}},{"type":"feature","properties":{"country_en":"Thailand","name":"Tha Maka","name_adm0":"Thailand","name_adm1":"Kanchanaburi","name_adm2":"Tha Maka","name_en":"Tha Maka"},"geometry":{"type":"Point","coordinates":[99.76553,13.92081]}},{"type":"feature","properties":{"country_en":"Thailand","name":"Chaloem Phra Kiat","name_adm0":"Thailand","name_adm1":"Sara Buri","name_adm2":"Chaloem Phra Kiat","name_en":"Chaloem Phra Kiat"},"geometry":{"type":"Point","coordinates":[100.86666,14.694924999999998]}},{"type":"feature","properties":{"country_en":"Thailand","name":"Sirindhorn","name_adm0":"Thailand","name_adm1":"Ubon Ratchathani","name_adm2":"Sirindhorn","name_en":"Sirindhorn"},"geometry":{"type":"Point","coordinates":[105.44275699999999,15.2090795]}},{"type":"feature","properties":{"country_en":"Thailand","name":"Mueang Songkhla","name_adm0":"Thailand","name_adm1":"Songkhla","name_adm2":"Mueang Songkhla","name_en":"Mueang Songkhla"},"geometry":{"type":"Point","coordinates":[100.568847,7.105162]}},{"type":"feature","properties":{"country_en":"Thailand","name":"Hat Yai","name_adm0":"Thailand","name_adm1":"Songkhla","name_adm2":"Hat Yai","name_en":"Hat Yai"},"geometry":{"type":"Point","coordinates":[100.453491,7.019119]}},{"type":"feature","properties":{"country_en":"Thailand","name":"Sala Thammasop","name_adm0":"Thailand","name_adm1":"Bangkok","name_adm2":"Thawi Watthana","name_en":"Sala Thammasop"},"geometry":{"type":"Point","coordinates":[100.37197,13.79881]}},{"type":"feature","properties":{"country_en":"Thailand","name":"Si Lom","name_adm0":"Thailand","name_adm1":"Bangkok","name_adm2":"Bang Rak","name_en":"Si Lom"},"geometry":{"type":"Point","coordinates":[100.536961,13.726857]}},{"type":"feature","properties":{"country_en":"Thailand","name":"Wiang Chai","name_adm0":"Thailand","name_adm1":"Chiang Rai","name_adm2":"Wiang Chai","name_en":"Wiang Chai"},"geometry":{"type":"Point","coordinates":[99.93314,19.88361]}},{"type":"feature","properties":{"country_en":"Thailand","name":"Mae Jam","name_adm0":"Thailand","name_adm1":"Chiang Mai","name_adm2":"Mae Chaem","name_en":"Mae Jam"},"geometry":{"type":"Point","coordinates":[98.90977999999998,18.92472]}},{"type":"feature","properties":{"country_en":"Thailand","name":"Khok Cha-Ngai","name_adm0":"Thailand","name_adm1":"Phatthalung","name_adm2":"Mueang Phatthalung","name_en":"Khok Cha-Ngai"},"geometry":{"type":"Point","coordinates":[100.01627999999998,7.6234399999999996]}},{"type":"feature","properties":{"country_en":"Thailand","name":"Din Daeng","name_adm0":"Thailand","name_adm1":"Sisaket","name_adm2":"Phrai Bueng","name_en":"Din Daeng"},"geometry":{"type":"Point","coordinates":[104.31694,14.808939999999998]}},{"type":"feature","properties":{"country_en":"Thailand","name":"Nong Krathum","name_adm0":"Thailand","name_adm1":"Uthai Thani","name_adm2":"Thap Than","name_en":"Nong Krathum"},"geometry":{"type":"Point","coordinates":[99.84269,15.46422]}},{"type":"feature","properties":{"country_en":"Thailand","name":"Tha Chang","name_adm0":"Thailand","name_adm1":"Chanthaburi","name_adm2":"Mueang Chanthaburi","name_en":"Tha Chang"},"geometry":{"type":"Point","coordinates":[102.10431,12.62586]}},{"type":"feature","properties":{"country_en":"Thailand","name":"Khun Khong","name_adm0":"Thailand","name_adm1":"Chiang Mai","name_adm2":"Hang Dong","name_en":"Khun Khong"},"geometry":{"type":"Point","coordinates":[98.90522,18.57494]}},{"type":"feature","properties":{"country_en":"Thailand","name":"Laem Tanot","name_adm0":"Thailand","name_adm1":"Phatthalung","name_adm2":"Khuan Khanun","name_en":"Laem Tanot"},"geometry":{"type":"Point","coordinates":[100.04939,7.813279999999999]}},{"type":"feature","properties":{"country_en":"Thailand","name":"Nong Kham","name_adm0":"Thailand","name_adm1":"Roi Et","name_adm2":"At Samat","name_en":"Nong Kham"},"geometry":{"type":"Point","coordinates":[103.98333,16.08333]}},{"type":"feature","properties":{"country_en":"Thailand","name":"Hua Ngua","name_adm0":"Thailand","name_adm1":"Kalasin","name_adm2":"Yang Talat","name_en":"Hua Ngua"},"geometry":{"type":"Point","coordinates":[104.39361,15.95361]}},{"type":"feature","properties":{"country_en":"Thailand","name":"Khuea Nam","name_adm0":"Thailand","name_adm1":"Udon Thani","name_adm2":"Ban Phue","name_en":"Khuea Nam"},"geometry":{"type":"Point","coordinates":[102.69894,17.59533]}},{"type":"feature","properties":{"country_en":"Thailand","name":"Kho Nuea","name_adm0":"Thailand","name_adm1":"Yasothon","name_adm2":"Mueang Yasothon","name_en":"Kho Nuea"},"geometry":{"type":"Point","coordinates":[104.90036,15.26103]}},{"type":"feature","properties":{"country_en":"Thailand","name":"Thung Kha Wat","name_adm0":"Thailand","name_adm1":"Chumphon","name_adm2":"Lamae","name_en":"Thung Kha Wat"},"geometry":{"type":"Point","coordinates":[99.01825,9.7385]}},{"type":"feature","properties":{"country_en":"Thailand","name":"Na Rung","name_adm0":"Thailand","name_adm1":"Surin","name_adm2":"Sikhoraphum","name_en":"Na Rung"},"geometry":{"type":"Point","coordinates":[104.47952999999998,14.910560000000002]}},{"type":"feature","properties":{"country_en":"Thailand","name":"Khok Takhian","name_adm0":"Thailand","name_adm1":"Surin","name_adm2":"Kap Choeng","name_en":"Khok Takhian"},"geometry":{"type":"Point","coordinates":[103.53427999999998,14.530129999999998]}},{"type":"feature","properties":{"country_en":"Thailand","name":"Rattana Wari","name_adm0":"Thailand","name_adm1":"Amnat Charoen","name_adm2":"Hua Taphan","name_en":"Rattana Wari"},"geometry":{"type":"Point","coordinates":[104.50539,15.69625]}},{"type":"feature","properties":{"country_en":"Thailand","name":"Na Khum","name_adm0":"Thailand","name_adm1":"Uttaradit","name_adm2":"Ban Khok","name_en":"Na Khum"},"geometry":{"type":"Point","coordinates":[100.03515999999999,17.6446]}},{"type":"feature","properties":{"country_en":"Thailand","name":"Nong Luang","name_adm0":"Thailand","name_adm1":"Uthai Thani","name_adm2":"Sawang Arom","name_en":"Nong Luang"},"geometry":{"type":"Point","coordinates":[99.87125,15.608309999999998]}},{"type":"feature","properties":{"country_en":"Thailand","name":"Lam Nong Saen","name_adm0":"Thailand","name_adm1":"Kalasin","name_adm2":"Nong Kung Si","name_en":"Lam Nong Saen"},"geometry":{"type":"Point","coordinates":[103.41667,16]}},{"type":"feature","properties":{"country_en":"Thailand","name":"Bang Rup","name_adm0":"Thailand","name_adm1":"Nakhon Si Thammarat","name_adm2":"Thung Yai","name_en":"Bang Rup"},"geometry":{"type":"Point","coordinates":[99.22894,8.43867]}},{"type":"feature","properties":{"country_en":"Thailand","name":"Nong Mai Sung","name_adm0":"Thailand","name_adm1":"Phra Nakhon Si Ayutthaya","name_adm2":"Uthai","name_en":"Nong Mai Sung"},"geometry":{"type":"Point","coordinates":[100.76499,14.35956]}},{"type":"feature","properties":{"country_en":"Thailand","name":"Makham Thao","name_adm0":"Thailand","name_adm1":"Chai Nat","name_adm2":"Watsingh","name_en":"Makham Thao"},"geometry":{"type":"Point","coordinates":[99.9925,15.53389]}},{"type":"feature","properties":{"country_en":"Thailand","name":"Kok Sathon","name_adm0":"Thailand","name_adm1":"Loei","name_adm2":"Dan Sai","name_en":"Kok Sathon"},"geometry":{"type":"Point","coordinates":[101.67210999999999,17.336]}},{"type":"feature","properties":{"country_en":"Thailand","name":"Wang Ngoen","name_adm0":"Thailand","name_adm1":"Lampang","name_adm2":"Mae Tha","name_en":"Wang Ngoen"},"geometry":{"type":"Point","coordinates":[99.53983,18.45219]}},{"type":"feature","properties":{"country_en":"Thailand","name":"Thung Khamin","name_adm0":"Thailand","name_adm1":"Songkhla","name_adm2":"Na Mom","name_en":"Thung Khamin"},"geometry":{"type":"Point","coordinates":[100.54732999999999,6.95603]}},{"type":"feature","properties":{"country_en":"Thailand","name":"Tat Khwan","name_adm0":"Thailand","name_adm1":"Chiang Rai","name_adm2":"Phaya Mengrai","name_en":"Tat Khwan"},"geometry":{"type":"Point","coordinates":[100.17899999999999,20.04683]}},{"type":"feature","properties":{"country_en":"Thailand","name":"Na Phaeng","name_adm0":"Thailand","name_adm1":"Khon Kaen","name_adm2":"Khok Pho Chai","name_en":"Na Phaeng"},"geometry":{"type":"Point","coordinates":[102.98333,16.266669999999998]}},{"type":"feature","properties":{"country_en":"Thailand","name":"Nong Thep","name_adm0":"Thailand","name_adm1":"Surin","name_adm2":"Non Narai","name_en":"Nong Thep"},"geometry":{"type":"Point","coordinates":[103.87944,15.15361]}},{"type":"feature","properties":{"country_en":"Thailand","name":"Ban Dan(king)","name_adm0":"Thailand","name_adm1":"Buriram","name_adm2":"Ban Dan","name_en":"Ban Dan(king)"},"geometry":{"type":"Point","coordinates":[102.13333,15.133329999999999]}},{"type":"feature","properties":{"country_en":"Thailand","name":"Non Nam Thaeng","name_adm0":"Thailand","name_adm1":"Amnat Charoen","name_adm2":"Mueang Amnat Charoen","name_en":"Non Nam Thaeng"},"geometry":{"type":"Point","coordinates":[104.62628,15.927939999999998]}},{"type":"feature","properties":{"country_en":"Thailand","name":"Samran","name_adm0":"Thailand","name_adm1":"Kalasin","name_adm2":"Sam Chai","name_en":"Samran"},"geometry":{"type":"Point","coordinates":[103.54106,16.86322]}},{"type":"feature","properties":{"country_en":"Thailand","name":"Ban Khuan","name_adm0":"Thailand","name_adm1":"Chumphon","name_adm2":"Lang Suan","name_en":"Ban Khuan"},"geometry":{"type":"Point","coordinates":[98.79391999999999,9.79269]}},{"type":"feature","properties":{"country_en":"Thailand","name":"Na Wang Hin","name_adm0":"Thailand","name_adm1":"Chon Buri","name_adm2":"Phanat Nikhom","name_en":"Na Wang Hin"},"geometry":{"type":"Point","coordinates":[101.52619999999999,13.45086]}},{"type":"feature","properties":{"country_en":"Thailand","name":"Thong Lamchiak","name_adm0":"Thailand","name_adm1":"Nakhon Si Thammarat","name_adm2":"Chian Yai","name_en":"Thong Lamchiak"},"geometry":{"type":"Point","coordinates":[100.14017,8.16847]}},{"type":"feature","properties":{"country_en":"Thailand","name":"Sok Pladuk","name_adm0":"Thailand","name_adm1":"Chaiyaphum","name_adm2":"Nong Bua Rawe","name_en":"Sok Pladuk"},"geometry":{"type":"Point","coordinates":[101.73933,15.70947]}},{"type":"feature","properties":{"country_en":"Thailand","name":"Na Klang","name_adm0":"Thailand","name_adm1":"Nakhon Sawan","name_adm2":"Krok Phra","name_en":"Na Klang"},"geometry":{"type":"Point","coordinates":[99.56196999999999,15.75394]}},{"type":"feature","properties":{"country_en":"Thailand","name":"Pong Phrae","name_adm0":"Thailand","name_adm1":"Chiang Rai","name_adm2":"Mae Lao","name_en":"Pong Phrae"},"geometry":{"type":"Point","coordinates":[99.68092,19.80189]}},{"type":"feature","properties":{"country_en":"Thailand","name":"Nong Chabk","name_adm0":"Thailand","name_adm1":"Nakhon Ratchasima","name_adm2":"Mueang Nakhon Ratchasima","name_en":"Nong Chabk"},"geometry":{"type":"Point","coordinates":[102.08333,14.983329999999999]}},{"type":"feature","properties":{"country_en":"Thailand","name":"Ban Sing","name_adm0":"Thailand","name_adm1":"Buriram","name_adm2":"Nang Rong","name_en":"Ban Sing"},"geometry":{"type":"Point","coordinates":[102.26667,14.96667]}},{"type":"feature","properties":{"country_en":"Thailand","name":"Khlong Noi","name_adm0":"Thailand","name_adm1":"Surat Thani","name_adm2":"Chai Buri","name_en":"Khlong Noi"},"geometry":{"type":"Point","coordinates":[99.25122,9.15592]}},{"type":"feature","properties":{"country_en":"Thailand","name":"Khlong Khwang","name_adm0":"Thailand","name_adm1":"Nonthaburi","name_adm2":"Sai Noi","name_en":"Khlong Khwang"},"geometry":{"type":"Point","coordinates":[100.45397,13.898219999999998]}},{"type":"feature","properties":{"country_en":"Thailand","name":"Samakkhi","name_adm0":"Thailand","name_adm1":"Kalasin","name_adm2":"Rong Kham","name_en":"Samakkhi"},"geometry":{"type":"Point","coordinates":[104.16497,16.97158]}},{"type":"feature","properties":{"country_en":"Thailand","name":"Non Udom","name_adm0":"Thailand","name_adm1":"Khon Kaen","name_adm2":"Chum Phae","name_en":"Non Udom"},"geometry":{"type":"Point","coordinates":[102.35903,17.29353]}},{"type":"feature","properties":{"country_en":"Thailand","name":"Bang Kraso","name_adm0":"Thailand","name_adm1":"Nonthaburi","name_adm2":"Mueang Nonthaburi","name_en":"Bang Kraso"},"geometry":{"type":"Point","coordinates":[100.53333,14.583329999999998]}},{"type":"feature","properties":{"country_en":"Thailand","name":"Ban Mai","name_adm0":"Thailand","name_adm1":"Songkhla","name_adm2":"Ranot","name_en":"Ban Mai"},"geometry":{"type":"Point","coordinates":[100.28786,7.80086]}},{"type":"feature","properties":{"country_en":"Thailand","name":"Thung Luk Nok","name_adm0":"Thailand","name_adm1":"Nathon Pathon","name_adm2":"Kamphaeng Saen","name_en":"Thung Luk Nok"},"geometry":{"type":"Point","coordinates":[99.88539,14.03792]}},{"type":"feature","properties":{"country_en":"Thailand","name":"Luang Tai","name_adm0":"Thailand","name_adm1":"Lampang","name_adm2":"Ngao","name_en":"Luang Tai"},"geometry":{"type":"Point","coordinates":[99.12436,18.86233]}},{"type":"feature","properties":{"country_en":"Thailand","name":"Don Si Chum","name_adm0":"Thailand","name_adm1":"Phayao","name_adm2":"Dok Khamtai","name_en":"Don Si Chum"},"geometry":{"type":"Point","coordinates":[100.30133,19.56983]}},{"type":"feature","properties":{"country_en":"Thailand","name":"Song Hong","name_adm0":"Thailand","name_adm1":"Buriram","name_adm2":"Mueang Buri Ram","name_en":"Song Hong"},"geometry":{"type":"Point","coordinates":[103.18333,15.116669999999997]}},{"type":"feature","properties":{"country_en":"Thailand","name":"Takhian Luean","name_adm0":"Thailand","name_adm1":"Nakhon Sawan","name_adm2":"Mueang Nakhon Sawan","name_en":"Takhian Luean"},"geometry":{"type":"Point","coordinates":[100.099,15.63711]}},{"type":"feature","properties":{"country_en":"Thailand","name":"Ban Yai","name_adm0":"Thailand","name_adm1":"Nakhon Nayok","name_adm2":"Mueang Nakhon Nayok","name_en":"Ban Yai"},"geometry":{"type":"Point","coordinates":[102.01667,14.533329999999998]}},{"type":"feature","properties":{"country_en":"Thailand","name":"Nong Khu","name_adm0":"Thailand","name_adm1":"Maha Sarakham","name_adm2":"Na Dun","name_en":"Nong Khu"},"geometry":{"type":"Point","coordinates":[103.62972,15.26139]}},{"type":"feature","properties":{"country_en":"Thailand","name":"Chot Nong Kae","name_adm0":"Thailand","name_adm1":"Khon Kaen","name_adm2":"Phon","name_en":"Chot Nong Kae"},"geometry":{"type":"Point","coordinates":[102.65,15.88333]}},{"type":"feature","properties":{"country_en":"Thailand","name":"Fang Kham","name_adm0":"Thailand","name_adm1":"Ubon Ratchathani","name_adm2":"Sirindhorn","name_en":"Fang Kham"},"geometry":{"type":"Point","coordinates":[105.85,14.833329999999998]}},{"type":"feature","properties":{"country_en":"Thailand","name":"Saen Suk","name_adm0":"Thailand","name_adm1":"Roi Et","name_adm2":"Phanom Phrai","name_en":"Saen Suk"},"geometry":{"type":"Point","coordinates":[104.51567,15.692670000000001]}},{"type":"feature","properties":{"country_en":"Thailand","name":"Nong Phrao Ngai","name_adm0":"Thailand","name_adm1":"Nonthaburi","name_adm2":"Sai Noi","name_en":"Nong Phrao Ngai"},"geometry":{"type":"Point","coordinates":[100.33547,13.88761]}},{"type":"feature","properties":{"country_en":"Thailand","name":"Sap Som Bun","name_adm0":"Thailand","name_adm1":"Khon Kaen","name_adm2":"Khok Pho Chai","name_en":"Sap Som Bun"},"geometry":{"type":"Point","coordinates":[101.97722,16.03686]}},{"type":"feature","properties":{"country_en":"Thailand","name":"Ban Noi Sum Khi Lek","name_adm0":"Thailand","name_adm1":"Phitsanulok","name_adm2":"Noen Maprang","name_en":"Ban Noi Sum Khi Lek"},"geometry":{"type":"Point","coordinates":[100.60536,16.55036]}},{"type":"feature","properties":{"country_en":"Thailand","name":"Na Loeng","name_adm0":"Thailand","name_adm1":"Ubon Ratchathani","name_adm2":"Muang Sam Sip","name_en":"Na Loeng"},"geometry":{"type":"Point","coordinates":[104.60181,15.54547]}},{"type":"feature","properties":{"country_en":"Thailand","name":"Bang Nang Ra","name_adm0":"Thailand","name_adm1":"Phra Nakhon Si Ayutthaya","name_adm2":"Bang Pahan","name_en":"Bang Nang Ra"},"geometry":{"type":"Point","coordinates":[99.61428,14.13189]}},{"type":"feature","properties":{"country_en":"Thailand","name":"Sap Som Bun","name_adm0":"Thailand","name_adm1":"Lop Buri","name_adm2":"Lam Sonthi","name_en":"Sap Som Bun"},"geometry":{"type":"Point","coordinates":[101.43544,15.481809999999998]}},{"type":"feature","properties":{"country_en":"Thailand","name":"Ban Phue","name_adm0":"Thailand","name_adm1":"Khon Kaen","name_adm2":"Nong Rhuea","name_en":"Ban Phue"},"geometry":{"type":"Point","coordinates":[102.09506,15.816579999999998]}},{"type":"feature","properties":{"country_en":"Thailand","name":"Wang Lum","name_adm0":"Thailand","name_adm1":"Phichit","name_adm2":"Taphan Hin","name_en":"Wang Lum"},"geometry":{"type":"Point","coordinates":[100.51821999999999,16.18864]}},{"type":"feature","properties":{"country_en":"Thailand","name":"Na Dok Kham","name_adm0":"Thailand","name_adm1":"Loei","name_adm2":"Na Duang","name_en":"Na Dok Kham"},"geometry":{"type":"Point","coordinates":[101.98092,17.53593]}},{"type":"feature","properties":{"country_en":"Thailand","name":"Phu Kham","name_adm0":"Thailand","name_adm1":"Phetchabun","name_adm2":"Wichian Buri","name_en":"Phu Kham"},"geometry":{"type":"Point","coordinates":[101.05028,15.54806]}},