{"type":"FeatureCollection","features":[{"type":"feature","properties":{"country_en":"Turkey","name":"Örnek","name_adm0":"Turkey","name_adm1":"İstanbul","name_adm2":"Büyükçekmece","name_en":"Örnek"},"geometry":{"type":"Point","coordinates":[28.664959999999997,41.067542]}},{"type":"feature","properties":{"country_en":"Turkey","name":"Balıkesir","name_adm0":"Turkey","name_adm1":"Balıkesir","name_adm2":"Merkez","name_en":"Balıkesir"},"geometry":{"type":"Point","coordinates":[27.88611,39.64917]}},{"type":"feature","properties":{"country_en":"Turkey","name":"Bandırma","name_adm0":"Turkey","name_adm1":"Balıkesir","name_adm2":"Bandırma","name_en":"Bandirma"},"geometry":{"type":"Point","coordinates":[27.976669999999995,40.352219999999996]}},{"type":"feature","properties":{"country_en":"Turkey","name":"Tire","name_adm0":"Turkey","name_adm1":"İzmir","name_adm2":"Tire","name_en":"Tire"},"geometry":{"type":"Point","coordinates":[27.73508,38.08877]}},{"type":"feature","properties":{"country_en":"Turkey","name":"Konya","name_adm0":"Turkey","name_adm1":"Konya","name_adm2":"Selçuklu","name_en":"Konya"},"geometry":{"type":"Point","coordinates":[32.48464,37.87134999999999]}},{"type":"feature","properties":{"country_en":"Turkey","name":"Türktepe","name_adm0":"Turkey","name_adm1":"Gaziantep","name_adm2":"Şahinbey","name_en":"Türktepe"},"geometry":{"type":"Point","coordinates":[37.95083,37.05897]}},{"type":"feature","properties":{"country_en":"Turkey","name":"Civar","name_adm0":"Turkey","name_adm1":"Konya","name_adm2":"Karatay","name_en":"Civar"},"geometry":{"type":"Point","coordinates":[32.507343,37.870246]}},{"type":"feature","properties":{"country_en":"Turkey","name":"Bey","name_adm0":"Turkey","name_adm1":"Gaziantep","name_adm2":"Şahinbey","name_en":"Bey"},"geometry":{"type":"Point","coordinates":[37.37771899999999,37.062985]}},{"type":"feature","properties":{"country_en":"Turkey","name":"Göynük","name_adm0":"Turkey","name_adm1":"Antalya","name_adm2":"Kemer","name_en":"Göynük"},"geometry":{"type":"Point","coordinates":[30.555380000000003,36.67585]}},{"type":"feature","properties":{"country_en":"Turkey","name":"Gümüşlük","name_adm0":"Turkey","name_adm1":"Muğla","name_adm2":"Bodrum","name_en":"Gümüşlük"},"geometry":{"type":"Point","coordinates":[27.23333,37.03333]}},{"type":"feature","properties":{"country_en":"Turkey","name":"Üçhisar","name_adm0":"Turkey","name_adm1":"Nevşehir","name_adm2":"Merkez","name_en":"Üçhisar"},"geometry":{"type":"Point","coordinates":[34.80125,38.62854]}},{"type":"feature","properties":{"country_en":"Turkey","name":"Kefce Dede","name_adm0":"Turkey","name_adm1":"İstanbul","name_adm2":"Üsküdar","name_en":"Kefce Dede"},"geometry":{"type":"Point","coordinates":[29.0148755,41.0190875]}},{"type":"feature","properties":{"country_en":"Turkey","name":"Adapazarı","name_adm0":"Turkey","name_adm1":"Sakarya","name_adm2":"Merkez","name_en":"Adapazarı"},"geometry":{"type":"Point","coordinates":[30.379943,40.773429]}},{"type":"feature","properties":{"country_en":"Turkey","name":"Aydıncık","name_adm0":"Turkey","name_adm1":"Yozgat","name_adm2":"Aydıncık","name_en":"Aydıncık"},"geometry":{"type":"Point","coordinates":[35.28765,40.12727]}},{"type":"feature","properties":{"country_en":"Turkey","name":"Aliağa","name_adm0":"Turkey","name_adm1":"İzmir","name_adm2":"Aliağa","name_en":"Aliağa"},"geometry":{"type":"Point","coordinates":[26.97203,38.79975]}},{"type":"feature","properties":{"country_en":"Turkey","name":"Lüleburgaz","name_adm0":"Turkey","name_adm1":"Kırklareli","name_adm2":"Lüleburgaz","name_en":"Arcadiopolis"},"geometry":{"type":"Point","coordinates":[27.35918,41.40385]}},{"type":"feature","properties":{"country_en":"Turkey","name":"Karabük","name_adm0":"Turkey","name_adm1":"Karabük","name_adm2":"Merkez","name_en":"Karabük"},"geometry":{"type":"Point","coordinates":[32.62768,41.204879999999996]}},{"type":"feature","properties":{"country_en":"Turkey","name":"Kumkapı","name_adm0":"Turkey","name_adm1":"İstanbul","name_adm2":"Eminönü","name_en":"Kumkapı"},"geometry":{"type":"Point","coordinates":[28.966669999999997,41]}},{"type":"feature","properties":{"country_en":"Turkey","name":"Taraklı","name_adm0":"Turkey","name_adm1":"Sakarya","name_adm2":"Taraklı","name_en":"Taraklı"},"geometry":{"type":"Point","coordinates":[30.49278,40.39694]}},{"type":"feature","properties":{"country_en":"Turkey","name":"Selim","name_adm0":"Turkey","name_adm1":"Kars","name_adm2":"Selim","name_en":"Selim"},"geometry":{"type":"Point","coordinates":[42.78395,40.46326]}},{"type":"feature","properties":{"country_en":"Turkey","name":"Seben","name_adm0":"Turkey","name_adm1":"Bolu","name_adm2":"Seben","name_en":"Seben"},"geometry":{"type":"Point","coordinates":[31.573589999999996,40.41134]}},{"type":"feature","properties":{"country_en":"Turkey","name":"Marmaraereğlisi","name_adm0":"Turkey","name_adm1":"Tekirdağ","name_adm2":"Marmaraereğlisi","name_en":"Marmaraereğlisi"},"geometry":{"type":"Point","coordinates":[27.95528,40.97003]}},{"type":"feature","properties":{"country_en":"Turkey","name":"Gönen","name_adm0":"Turkey","name_adm1":"Balıkesir","name_adm2":"Gönen","name_en":"Gönen"},"geometry":{"type":"Point","coordinates":[27.791975999999995,40.309901]}},{"type":"feature","properties":{"country_en":"Turkey","name":"Karsantı","name_adm0":"Turkey","name_adm1":"Adana","name_adm2":"Aladağ","name_en":"Karsantı"},"geometry":{"type":"Point","coordinates":[35.39603,37.54849999999999]}},{"type":"feature","properties":{"country_en":"Turkey","name":"Kemer","name_adm0":"Turkey","name_adm1":"Burdur","name_adm2":"Kemer","name_en":"Kemer"},"geometry":{"type":"Point","coordinates":[30.06306,37.35222]}},{"type":"feature","properties":{"country_en":"Turkey","name":"Boztepe","name_adm0":"Turkey","name_adm1":"Kırşehir","name_adm2":"Boztepe","name_en":"Boztepe"},"geometry":{"type":"Point","coordinates":[34.26111,39.26972]}},{"type":"feature","properties":{"country_en":"Turkey","name":"Çamalan","name_adm0":"Turkey","name_adm1":"Mersin","name_adm2":"Tarsus","name_en":"Çamalan"},"geometry":{"type":"Point","coordinates":[34.8,37.199999999999996]}},{"type":"feature","properties":{"country_en":"Turkey","name":"Çat","name_adm0":"Turkey","name_adm1":"Erzurum","name_adm2":"Çat","name_en":"Oyuklu"},"geometry":{"type":"Point","coordinates":[40.98024,39.60954]}},{"type":"feature","properties":{"country_en":"Turkey","name":"Doğanyol","name_adm0":"Turkey","name_adm1":"Malatya","name_adm2":"Doğanyol","name_en":"Doganyol"},"geometry":{"type":"Point","coordinates":[39.03819,38.31184]}},{"type":"feature","properties":{"country_en":"Turkey","name":"Gürbulak","name_adm0":"Turkey","name_adm1":"Ağrı","name_adm2":"Doğubeyazıt","name_en":"Gürbulak"},"geometry":{"type":"Point","coordinates":[44.35419,39.4167]}},{"type":"feature","properties":{"country_en":"Turkey","name":"Maçka","name_adm0":"Turkey","name_adm1":"Trabzon","name_adm2":"Maçka","name_en":"Cevizlik"},"geometry":{"type":"Point","coordinates":[39.5435,40.89368]}},{"type":"feature","properties":{"country_en":"Turkey","name":"Kılıçlı","name_adm0":"Turkey","name_adm1":"İstanbul","name_adm2":"Beykoz","name_en":"Kılıçlı"},"geometry":{"type":"Point","coordinates":[29.30105,41.1523]}},{"type":"feature","properties":{"country_en":"Turkey","name":"Tayakadın","name_adm0":"Turkey","name_adm1":"İstanbul","name_adm2":"Gaziosmanpaşa","name_en":"Tayakadın"},"geometry":{"type":"Point","coordinates":[28.69192,41.27023]}},{"type":"feature","properties":{"country_en":"Turkey","name":"Dolmabahçe","name_adm0":"Turkey","name_adm1":"İstanbul","name_adm2":"Beyoğlu","name_en":"Dolmabache"},"geometry":{"type":"Point","coordinates":[28.9991,41.0389]}},{"type":"feature","properties":{"country_en":"Turkey","name":"Akseki","name_adm0":"Turkey","name_adm1":"Antalya","name_adm2":"Akseki","name_en":"Akseki"},"geometry":{"type":"Point","coordinates":[32.15445,36.4396]}},{"type":"feature","properties":{"country_en":"Turkey","name":"Alaçam","name_adm0":"Turkey","name_adm1":"Samsun","name_adm2":"Alacam","name_en":"Alacham"},"geometry":{"type":"Point","coordinates":[35.91331,41.09079]}},{"type":"feature","properties":{"country_en":"Turkey","name":"Derik","name_adm0":"Turkey","name_adm1":"Mardin","name_adm2":"Derik","name_en":"Derik"},"geometry":{"type":"Point","coordinates":[41.35361,37.8325]}},{"type":"feature","properties":{"country_en":"Turkey","name":"Emirdağ","name_adm0":"Turkey","name_adm1":"Afyonkarahisar","name_adm2":"Emirdağ","name_en":"Aziziye"},"geometry":{"type":"Point","coordinates":[30.946259999999995,39.6602]}},{"type":"feature","properties":{"country_en":"Turkey","name":"Ocaklı","name_adm0":"Turkey","name_adm1":"Kars","name_adm2":"Merkez","name_en":"Ocaklı"},"geometry":{"type":"Point","coordinates":[43.56667,40.53333]}},{"type":"feature","properties":{"country_en":"Turkey","name":"Meretet","name_adm0":"Turkey","name_adm1":"Artvin","name_adm2":"Yusufeli","name_en":"Meretet"},"geometry":{"type":"Point","coordinates":[41.23333,40.86667]}},{"type":"feature","properties":{"country_en":"Turkey","name":"Taşağıl","name_adm0":"Turkey","name_adm1":"Antalya","name_adm2":"Manavgat","name_en":"Taşağıl"},"geometry":{"type":"Point","coordinates":[31.236079999999998,36.9224]}},{"type":"feature","properties":{"country_en":"Turkey","name":"Sandıklı","name_adm0":"Turkey","name_adm1":"Afyonkarahisar","name_adm2":"Sandıklı","name_en":"Sandykly"},"geometry":{"type":"Point","coordinates":[29.416670000000003,38.93333]}},{"type":"feature","properties":{"country_en":"Turkey","name":"Dodurga","name_adm0":"Turkey","name_adm1":"Çorum","name_adm2":"Dodurga","name_en":"Dodurga"},"geometry":{"type":"Point","coordinates":[34.80703,40.85489]}},{"type":"feature","properties":{"country_en":"Turkey","name":"Yaylas","name_adm0":"Turkey","name_adm1":"Kastamonu","name_adm2":"Arac","name_en":"Yaylas"},"geometry":{"type":"Point","coordinates":[33.83333,41.04999999999999]}},{"type":"feature","properties":{"country_en":"Turkey","name":"Barbaros","name_adm0":"Turkey","name_adm1":"Ankara","name_adm2":"Çankaya","name_en":"Barbaros"},"geometry":{"type":"Point","coordinates":[32.860498,39.901626]}},{"type":"feature","properties":{"country_en":"Turkey","name":"Yeni Bayındır","name_adm0":"Turkey","name_adm1":"Ankara","name_adm2":"Mamak","name_en":"Yeni Bayındır"},"geometry":{"type":"Point","coordinates":[32.99586999999999,39.915216]}},{"type":"feature","properties":{"country_en":"Turkey","name":"Merdivenköy","name_adm0":"Turkey","name_adm1":"İstanbul","name_adm2":"Kadıköy","name_en":"Merdivenköy"},"geometry":{"type":"Point","coordinates":[29.070403000000002,40.98236]}},{"type":"feature","properties":{"country_en":"Turkey","name":"Baklan","name_adm0":"Turkey","name_adm1":"Denizli","name_adm2":"Baklan","name_en":"Baklan"},"geometry":{"type":"Point","coordinates":[29.119261999999996,36.760341]}},{"type":"feature","properties":{"country_en":"Turkey","name":"Balya","name_adm0":"Turkey","name_adm1":"Balıkesir","name_adm2":"Balya","name_en":"Balya"},"geometry":{"type":"Point","coordinates":[27.791975999999995,40.309901]}},{"type":"feature","properties":{"country_en":"Turkey","name":"Banaz","name_adm0":"Turkey","name_adm1":"Uşak","name_adm2":"Banaz","name_en":"Banaz"},"geometry":{"type":"Point","coordinates":[28.95996,38.36750099999999]}},{"type":"feature","properties":{"country_en":"Turkey","name":"Merkez","name_adm0":"Turkey","name_adm1":"Zonguldak","name_adm2":"Merkez","name_en":"Merkez"},"geometry":{"type":"Point","coordinates":[31.863098,41.44169599999999]}},{"type":"feature","properties":{"country_en":"Turkey","name":"Tortum","name_adm0":"Turkey","name_adm1":"Erzurum","name_adm2":"Tortum","name_en":"Tortum"},"geometry":{"type":"Point","coordinates":[41.412769,39.97711999999999]}},{"type":"feature","properties":{"country_en":"Turkey","name":"Tufanbeyli","name_adm0":"Turkey","name_adm1":"Adana","name_adm2":"Tufanbeyli","name_en":"Tufanbeyli"},"geometry":{"type":"Point","coordinates":[35.200195,37.23032799999999]}},{"type":"feature","properties":{"country_en":"Turkey","name":"Tut","name_adm0":"Turkey","name_adm1":"Adıyaman","name_adm2":"Tut","name_en":"Tut"},"geometry":{"type":"Point","coordinates":[37.9161,37.79529]}},{"type":"feature","properties":{"country_en":"Turkey","name":"Gümüşköy","name_adm0":"Turkey","name_adm1":"İstanbul","name_adm2":"Sarıyer","name_en":"Gümüşköy"},"geometry":{"type":"Point","coordinates":[28.973244499999996,41.2235035]}},{"type":"feature","properties":{"country_en":"Turkey","name":"Kahta","name_adm0":"Turkey","name_adm1":"Adıyaman","name_adm2":"Kahta","name_en":"Kahta"},"geometry":{"type":"Point","coordinates":[38.6237,37.78552]}},{"type":"feature","properties":{"country_en":"Turkey","name":"Kandıra","name_adm0":"Turkey","name_adm1":"Kocaeli","name_adm2":"Kandıra","name_en":"Kandıra"},"geometry":{"type":"Point","coordinates":[30.15262,41.07]}},{"type":"feature","properties":{"country_en":"Turkey","name":"Akyazı","name_adm0":"Turkey","name_adm1":"Sakarya","name_adm2":"Akyazı","name_en":"Akyaz"},"geometry":{"type":"Point","coordinates":[31.19817,40.89554999999999]}},{"type":"feature","properties":{"country_en":"Turkey","name":"19 Mayıs","name_adm0":"Turkey","name_adm1":"İstanbul","name_adm2":"Şişli","name_en":"19 Mayıs"},"geometry":{"type":"Point","coordinates":[28.991833,41.062833]}},{"type":"feature","properties":{"country_en":"Turkey","name":"Akat","name_adm0":"Turkey","name_adm1":"İstanbul","name_adm2":"Beşiktaş","name_en":"Akat"},"geometry":{"type":"Point","coordinates":[29.0238505,41.087182]}},{"type":"feature","properties":{"country_en":"Turkey","name":"Ferah","name_adm0":"Turkey","name_adm1":"İstanbul","name_adm2":"Üsküdar","name_en":"Ferah"},"geometry":{"type":"Point","coordinates":[29.068686,41.027798]}},{"type":"feature","properties":{"country_en":"Turkey","name":"Gündogdu","name_adm0":"Turkey","name_adm1":"Tekirdağ","name_adm2":"Merkez","name_en":"Gündogdu"},"geometry":{"type":"Point","coordinates":[27.59794,40.58083]}},{"type":"feature","properties":{"country_en":"Turkey","name":"Ataköy 7-8-9-10.","name_adm0":"Turkey","name_adm1":"İstanbul","name_adm2":"Bakırköy","name_en":"Ataköy 7-8-9-10."},"geometry":{"type":"Point","coordinates":[28.846149,40.986167]}},{"type":"feature","properties":{"country_en":"Turkey","name":"Gümüssuyu","name_adm0":"Turkey","name_adm1":"İstanbul","name_adm2":"Beykoz","name_en":"Gümüssuyu"},"geometry":{"type":"Point","coordinates":[29.078333,41.1219005]}},{"type":"feature","properties":{"country_en":"Turkey","name":"Emniyettepe","name_adm0":"Turkey","name_adm1":"İstanbul","name_adm2":"Eyüp","name_en":"Emniyettepe"},"geometry":{"type":"Point","coordinates":[28.94612,41.066523]}},{"type":"feature","properties":{"country_en":"Turkey","name":"Kabataş","name_adm0":"Turkey","name_adm1":"İstanbul","name_adm2":"Beyoğlu","name_en":"Kabataş"},"geometry":{"type":"Point","coordinates":[28.99292,41.03456]}},{"type":"feature","properties":{"country_en":"Turkey","name":"Babadağ","name_adm0":"Turkey","name_adm1":"Denizli","name_adm2":"Babadağ","name_en":"Babadağ"},"geometry":{"type":"Point","coordinates":[28.87877,37.80885]}},{"type":"feature","properties":{"country_en":"Turkey","name":"Ağaçlı","name_adm0":"Turkey","name_adm1":"İstanbul","name_adm2":"Gaziosmanpaşa","name_en":"Ağaçlı"},"geometry":{"type":"Point","coordinates":[28.87594,41.2665]}},{"type":"feature","properties":{"country_en":"Turkey","name":"Bağlum","name_adm0":"Turkey","name_adm1":"Ankara","name_adm2":"Keçiören","name_en":"Bağlum"},"geometry":{"type":"Point","coordinates":[32.84421,40.05092]}},{"type":"feature","properties":{"country_en":"Turkey","name":"Beşiri","name_adm0":"Turkey","name_adm1":"Batman","name_adm2":"Beşiri","name_en":"Kabin"},"geometry":{"type":"Point","coordinates":[41.292399999999994,37.91838]}},{"type":"feature","properties":{"country_en":"Turkey","name":"Çelebiçiftliği","name_adm0":"Turkey","name_adm1":"Mersin","name_adm2":"Tarsus","name_en":"Camili"},"geometry":{"type":"Point","coordinates":[34.98333,36.98333]}},{"type":"feature","properties":{"country_en":"Turkey","name":"Erkenek","name_adm0":"Turkey","name_adm1":"Malatya","name_adm2":"Doğanşehir","name_en":"Erkenek"},"geometry":{"type":"Point","coordinates":[37.89370999999999,37.92626]}},{"type":"feature","properties":{"country_en":"Turkey","name":"Kale","name_adm0":"Turkey","name_adm1":"Denizli","name_adm2":"Kale","name_en":"Kale"},"geometry":{"type":"Point","coordinates":[28.84528,37.43917]}},{"type":"feature","properties":{"country_en":"Turkey","name":"Hozat","name_adm0":"Turkey","name_adm1":"Tunceli","name_adm2":"Hozat","name_en":"Hozat"},"geometry":{"type":"Point","coordinates":[39.22127,39.10829]}},{"type":"feature","properties":{"country_en":"Turkey","name":"Karakoçan","name_adm0":"Turkey","name_adm1":"Elazığ","name_adm2":"Karakoçan","name_en":"Karakoçan"},"geometry":{"type":"Point","coordinates":[39.22321,38.67431]}},{"type":"feature","properties":{"country_en":"Turkey","name":"Koçarlı","name_adm0":"Turkey","name_adm1":"Aydın","name_adm2":"Koçarlı","name_en":"Koçarlı"},"geometry":{"type":"Point","coordinates":[27.70582,37.76113]}},{"type":"feature","properties":{"country_en":"Turkey","name":"Kiraz","name_adm0":"Turkey","name_adm1":"İzmir","name_adm2":"Kiraz","name_en":"Kiraz"},"geometry":{"type":"Point","coordinates":[28.20444,38.23056]}},{"type":"feature","properties":{"country_en":"Turkey","name":"Kıbrıs","name_adm0":"Turkey","name_adm1":"Ankara","name_adm2":"Mamak","name_en":"Kıbrıs"},"geometry":{"type":"Point","coordinates":[32.99317,39.87717]}},{"type":"feature","properties":{"country_en":"Turkey","name":"Konaklar","name_adm0":"Turkey","name_adm1":"Kayseri","name_adm2":"Melikgazi","name_en":"Konaklar"},"geometry":{"type":"Point","coordinates":[35.56621,38.73685]}},{"type":"feature","properties":{"country_en":"Turkey","name":"Sarıgöl","name_adm0":"Turkey","name_adm1":"Manisa","name_adm2":"Sarıgöl","name_en":"Sarıgöl"},"geometry":{"type":"Point","coordinates":[28.696629999999995,38.23953]}},{"type":"feature","properties":{"country_en":"Turkey","name":"Meriç","name_adm0":"Turkey","name_adm1":"Edirne","name_adm2":"Meriç","name_en":"Meriç"},"geometry":{"type":"Point","coordinates":[26.42097,41.19183]}},{"type":"feature","properties":{"country_en":"Turkey","name":"Sütçüler","name_adm0":"Turkey","name_adm1":"Antalya","name_adm2":"Merkez","name_en":"Sütçüler"},"geometry":{"type":"Point","coordinates":[30.720699999999997,36.93318]}},{"type":"feature","properties":{"country_en":"Turkey","name":"Türközü","name_adm0":"Turkey","name_adm1":"Balıkesir","name_adm2":"Ayvalık","name_en":"Osmaniye"},"geometry":{"type":"Point","coordinates":[26.834449999999997,39.290949999999995]}},{"type":"feature","properties":{"country_en":"Turkey","name":"Sivaslı","name_adm0":"Turkey","name_adm1":"Uşak","name_adm2":"Sivaslı","name_en":"Sivaslı"},"geometry":{"type":"Point","coordinates":[29.683610000000005,38.49944]}},{"type":"feature","properties":{"country_en":"Turkey","name":"Bakanlıklar","name_adm0":"Turkey","name_adm1":"Ankara","name_adm2":"Çankaya","name_en":"Bakanlıklar"},"geometry":{"type":"Point","coordinates":[32.85399,39.91752]}},{"type":"feature","properties":{"country_en":"Turkey","name":"Yenice","name_adm0":"Turkey","name_adm1":"Çanakkale","name_adm2":"Yenice","name_en":"Yenice"},"geometry":{"type":"Point","coordinates":[27.25484,40.22588999999999]}},{"type":"feature","properties":{"country_en":"Turkey","name":"Yeniçiftlik","name_adm0":"Turkey","name_adm1":"Tekirdağ","name_adm2":"Marmaraereğlisi","name_en":"Yeniçiftlik"},"geometry":{"type":"Point","coordinates":[27.852219999999996,41.01139]}},{"type":"feature","properties":{"country_en":"Turkey","name":"Davutpaşa","name_adm0":"Turkey","name_adm1":"İstanbul","name_adm2":"Fatih","name_en":"Davutpaşa"},"geometry":{"type":"Point","coordinates":[28.933329999999998,41]}},{"type":"feature","properties":{"country_en":"Turkey","name":"Dikimevi","name_adm0":"Turkey","name_adm1":"Ankara","name_adm2":"Mamak","name_en":"Dikimevi"},"geometry":{"type":"Point","coordinates":[32.87838,39.932449999999996]}},{"type":"feature","properties":{"country_en":"Turkey","name":"İncesu","name_adm0":"Turkey","name_adm1":"Ankara","name_adm2":"Çankaya","name_en":"İncesu"},"geometry":{"type":"Point","coordinates":[32.8647,39.92159]}},{"type":"feature","properties":{"country_en":"Turkey","name":"Kasımpaşa","name_adm0":"Turkey","name_adm1":"İstanbul","name_adm2":"Beyoğlu","name_en":"Kasim Pass"},"geometry":{"type":"Point","coordinates":[28.96842,41.03178]}},{"type":"feature","properties":{"country_en":"Turkey","name":"Yenimahalle","name_adm0":"Turkey","name_adm1":"İstanbul","name_adm2":"Sarıyer","name_en":"Yenimahalle"},"geometry":{"type":"Point","coordinates":[29.211079999999995,40.60811]}},{"type":"feature","properties":{"country_en":"Turkey","name":"Ahmetbey","name_adm0":"Turkey","name_adm1":"Kırklareli","name_adm2":"Lüleburgaz","name_en":"Ahmetbey"},"geometry":{"type":"Point","coordinates":[27.58566,41.43871]}},{"type":"feature","properties":{"country_en":"Turkey","name":"Babaeski","name_adm0":"Turkey","name_adm1":"Kırklareli","name_adm2":"Babaeski","name_en":"Babaeski"},"geometry":{"type":"Point","coordinates":[27.09306,41.4325]}},{"type":"feature","properties":{"country_en":"Turkey","name":"Çivril","name_adm0":"Turkey","name_adm1":"Denizli","name_adm2":"Çivril","name_en":"Çivril"},"geometry":{"type":"Point","coordinates":[29.73861,38.30138999999999]}},{"type":"feature","properties":{"country_en":"Turkey","name":"Bigadiç","name_adm0":"Turkey","name_adm1":"Balıkesir","name_adm2":"Bigadiç","name_en":"Bigadiç"},"geometry":{"type":"Point","coordinates":[28.13111,39.3925]}},{"type":"feature","properties":{"country_en":"Turkey","name":"Güney","name_adm0":"Turkey","name_adm1":"Denizli","name_adm2":"Güney","name_en":"Güney"},"geometry":{"type":"Point","coordinates":[29.06778,38.15444]}},{"type":"feature","properties":{"country_en":"Turkey","name":"Eşme","name_adm0":"Turkey","name_adm1":"Uşak","name_adm2":"Eşme","name_en":"Eşme"},"geometry":{"type":"Point","coordinates":[28.96905,38.39976]}},{"type":"feature","properties":{"country_en":"Turkey","name":"Eruh","name_adm0":"Turkey","name_adm1":"Siirt","name_adm2":"Eruh","name_en":"Eruh"},"geometry":{"type":"Point","coordinates":[42.18110999999999,37.75167]}},{"type":"feature","properties":{"country_en":"Turkey","name":"Dursunbey","name_adm0":"Turkey","name_adm1":"Balıkesir","name_adm2":"Dursunbey","name_en":"Dursunbey"},"geometry":{"type":"Point","coordinates":[28.62568,39.58596]}},{"type":"feature","properties":{"country_en":"Turkey","name":"İdil","name_adm0":"Turkey","name_adm1":"Şırnak","name_adm2":"İdil","name_en":"Hazak"},"geometry":{"type":"Point","coordinates":[41.8895,37.34114]}},{"type":"feature","properties":{"country_en":"Turkey","name":"Karacaköy","name_adm0":"Turkey","name_adm1":"İstanbul","name_adm2":"Çatalca","name_en":"Karacaköy"},"geometry":{"type":"Point","coordinates":[28.38338,41.40286]}},{"type":"feature","properties":{"country_en":"Turkey","name":"Havsa","name_adm0":"Turkey","name_adm1":"Edirne","name_adm2":"Havşa","name_en":"Havsa"},"geometry":{"type":"Point","coordinates":[26.82207,41.54898]}},{"type":"feature","properties":{"country_en":"Turkey","name":"Korgun","name_adm0":"Turkey","name_adm1":"Çankırı","name_adm2":"Korgun","name_en":"Korgun"},"geometry":{"type":"Point","coordinates":[33.51844,40.7348]}},{"type":"feature","properties":{"country_en":"Turkey","name":"Sarıköy","name_adm0":"Turkey","name_adm1":"Balıkesir","name_adm2":"Gönen","name_en":"Sarıköy"},"geometry":{"type":"Point","coordinates":[27.596109999999996,40.2075]}},{"type":"feature","properties":{"country_en":"Turkey","name":"Salihler","name_adm0":"Turkey","name_adm1":"Ordu","name_adm2":"Fatsa","name_en":"Salihler"},"geometry":{"type":"Point","coordinates":[37.58185999999999,40.8834]}},{"type":"feature","properties":{"country_en":"Turkey","name":"Tutak","name_adm0":"Turkey","name_adm1":"Ağrı","name_adm2":"Tutak","name_en":"Tutak"},"geometry":{"type":"Point","coordinates":[43.77255,39.72236]}},{"type":"feature","properties":{"country_en":"Turkey","name":"Sivrice","name_adm0":"Turkey","name_adm1":"Elazığ","name_adm2":"Sivrice","name_en":"Sivrice"},"geometry":{"type":"Point","coordinates":[39.30845,38.44816]}},{"type":"feature","properties":{"country_en":"Turkey","name":"Yenipazar","name_adm0":"Turkey","name_adm1":"Aydın","name_adm2":"Yenipazar","name_en":"Yenipazar"},"geometry":{"type":"Point","coordinates":[28.19717,37.82419]}},{"type":"feature","properties":{"country_en":"Turkey","name":"Yatağan","name_adm0":"Turkey","name_adm1":"Muğla","name_adm2":"Yatağan","name_en":"Yatağan"},"geometry":{"type":"Point","coordinates":[28.14279,37.34026]}},{"type":"feature","properties":{"country_en":"Turkey","name":"Cihannüma","name_adm0":"Turkey","name_adm1":"İstanbul","name_adm2":"Beşiktaş","name_en":"Cihannüma"},"geometry":{"type":"Point","coordinates":[29.009206,41.04654]}},{"type":"feature","properties":{"country_en":"Turkey","name":"Devlet","name_adm0":"Turkey","name_adm1":"Ankara","name_adm2":"Çankaya","name_en":"Devlet"},"geometry":{"type":"Point","coordinates":[32.846,39.91213]}},{"type":"feature","properties":{"country_en":"Turkey","name":"Mecidiye","name_adm0":"Turkey","name_adm1":"İzmir","name_adm2":"Konak","name_en":"Mecidiye"},"geometry":{"type":"Point","coordinates":[27.699999999999996,38.88333]}},{"type":"feature","properties":{"country_en":"Turkey","name":"Kavakli","name_adm0":"Turkey","name_adm1":"Bursa","name_adm2":"Osmangazi","name_en":"Kavakli"},"geometry":{"type":"Point","coordinates":[29.51475,40.31998999999999]}},{"type":"feature","properties":{"country_en":"Turkey","name":"Binbirdirek","name_adm0":"Turkey","name_adm1":"İstanbul","name_adm2":"Eminönü","name_en":"Binbirdirek"},"geometry":{"type":"Point","coordinates":[28.976547,41.005625]}},{"type":"feature","properties":{"country_en":"Turkey","name":"Kesap","name_adm0":"Turkey","name_adm1":"Giresun","name_adm2":"Kesap","name_en":"Kesap"},"geometry":{"type":"Point","coordinates":[38.51444,40.91638999999999]}},{"type":"feature","properties":{"country_en":"Turkey","name":"Arpaçay","name_adm0":"Turkey","name_adm1":"Kars","name_adm2":"Arpaçay","name_en":"Arpaçay"},"geometry":{"type":"Point","coordinates":[43.32910999999999,40.8487]}},{"type":"feature","properties":{"country_en":"Turkey","name":"Suhut","name_adm0":"Turkey","name_adm1":"Afyonkarahisar","name_adm2":"Suhut","name_en":"Suhut"},"geometry":{"type":"Point","coordinates":[30.54583,38.53111]}},{"type":"feature","properties":{"country_en":"Turkey","name":"Ergani","name_adm0":"Turkey","name_adm1":"Diyarbakır","name_adm2":"Ergani","name_en":"Ergani"},"geometry":{"type":"Point","coordinates":[39.76212,38.26533]}},{"type":"feature","properties":{"country_en":"Turkey","name":"Zerdalilik","name_adm0":"Turkey","name_adm1":"Antalya","name_adm2":"Merkez","name_en":"Zerdalilik"},"geometry":{"type":"Point","coordinates":[30.711839999999995,36.88214]}},{"type":"feature","properties":{"country_en":"Turkey","name":"Feridun Çelik","name_adm0":"Turkey","name_adm1":"Ankara","name_adm2":"Altındağ","name_en":"Feridun Çelik"},"geometry":{"type":"Point","coordinates":[32.93365,39.97502]}},{"type":"feature","properties":{"country_en":"Turkey","name":"Yeşiltepe","name_adm0":"Turkey","name_adm1":"Ankara","name_adm2":"Keçiören","name_en":"Yeşiltepe"},"geometry":{"type":"Point","coordinates":[32.89286,39.99787]}},{"type":"feature","properties":{"country_en":"Turkey","name":"Çaliskanlar","name_adm0":"Turkey","name_adm1":"Ankara","name_adm2":"Altındağ","name_en":"Çaliskanlar"},"geometry":{"type":"Point","coordinates":[32.888,39.95551]}},{"type":"feature","properties":{"country_en":"Turkey","name":"Bahçelerüstü","name_adm0":"Turkey","name_adm1":"Ankara","name_adm2":"Mamak","name_en":"Bahçelerüstü"},"geometry":{"type":"Point","coordinates":[32.89732,39.94025]}},{"type":"feature","properties":{"country_en":"Turkey","name":"Boztepe","name_adm0":"Turkey","name_adm1":"Ankara","name_adm2":"Çankaya","name_en":"Boztepe"},"geometry":{"type":"Point","coordinates":[32.88956,39.90914]}},{"type":"feature","properties":{"country_en":"Turkey","name":"Derbent","name_adm0":"Turkey","name_adm1":"Ankara","name_adm2":"Mamak","name_en":"Derbent"},"geometry":{"type":"Point","coordinates":[32.93333,39.93333]}},{"type":"feature","properties":{"country_en":"Turkey","name":"Server Somuncuoğlu","name_adm0":"Turkey","name_adm1":"Ankara","name_adm2":"Altındağ","name_en":"Server Somuncuoğlu"},"geometry":{"type":"Point","coordinates":[32.88285,39.95047]}},{"type":"feature","properties":{"country_en":"Turkey","name":"Gülseren","name_adm0":"Turkey","name_adm1":"Ankara","name_adm2":"Mamak","name_en":"Gülseren"},"geometry":{"type":"Point","coordinates":[32.89833,39.94626]}},{"type":"feature","properties":{"country_en":"Turkey","name":"Karapınar","name_adm0":"Turkey","name_adm1":"Ankara","name_adm2":"Çankaya","name_en":"Karapınar"},"geometry":{"type":"Point","coordinates":[32.81787,39.87104]}},{"type":"feature","properties":{"country_en":"Turkey","name":"Harman","name_adm0":"Turkey","name_adm1":"Ankara","name_adm2":"Mamak","name_en":"Harman"},"geometry":{"type":"Point","coordinates":[32.9028,39.93732]}},{"type":"feature","properties":{"country_en":"Turkey","name":"Yükselis","name_adm0":"Turkey","name_adm1":"Antalya","name_adm2":"Merkez","name_en":"Yükselis"},"geometry":{"type":"Point","coordinates":[30.692299999999996,36.91283]}},{"type":"feature","properties":{"country_en":"Turkey","name":"Yeni Emek","name_adm0":"Turkey","name_adm1":"Antalya","name_adm2":"Merkez","name_en":"Yeni Emek"},"geometry":{"type":"Point","coordinates":[30.69929,36.92634]}},{"type":"feature","properties":{"country_en":"Turkey","name":"Vezirköprü","name_adm0":"Turkey","name_adm1":"Samsun","name_adm2":"Vezirköprü","name_en":"Vezirköprü"},"geometry":{"type":"Point","coordinates":[35.45472,41.14361]}},{"type":"feature","properties":{"country_en":"Turkey","name":"Mutlu","name_adm0":"Turkey","name_adm1":"Manisa","name_adm2":"Merkez","name_en":"Mutlu"},"geometry":{"type":"Point","coordinates":[26.77444,39.30194]}},{"type":"feature","properties":{"country_en":"Turkey","name":"Karsiyaka","name_adm0":"Turkey","name_adm1":"Samsun","name_adm2":"Merkez","name_en":"Karsiyaka"},"geometry":{"type":"Point","coordinates":[36.59018,40.74402]}},{"type":"feature","properties":{"country_en":"Turkey","name":"Yeni","name_adm0":"Turkey","name_adm1":"Manisa","name_adm2":"Merkez","name_en":"Yeni"},"geometry":{"type":"Point","coordinates":[27.42891,38.48709]}},{"type":"feature","properties":{"country_en":"Turkey","name":"Isiklar","name_adm0":"Turkey","name_adm1":"Konya","name_adm2":"Selçuklu","name_en":"Isiklar"},"geometry":{"type":"Point","coordinates":[32.38434,37.16856]}},{"type":"feature","properties":{"country_en":"Turkey","name":"Alanya","name_adm0":"Turkey","name_adm1":"Antalya","name_adm2":"Alanya","name_en":"Alanya"},"geometry":{"type":"Point","coordinates":[32.20745,36.56993]}},{"type":"feature","properties":{"country_en":"Turkey","name":"Altındağ","name_adm0":"Turkey","name_adm1":"Ankara","name_adm2":"Altındağ","name_en":"Altındağ"},"geometry":{"type":"Point","coordinates":[32.97021999999999,40.0011]}},{"type":"feature","properties":{"country_en":"Turkey","name":"Araklı","name_adm0":"Turkey","name_adm1":"Trabzon","name_adm2":"Araklı","name_en":"Araklı"},"geometry":{"type":"Point","coordinates":[39.96,40.74]}},{"type":"feature","properties":{"country_en":"Turkey","name":"Çiğli","name_adm0":"Turkey","name_adm1":"İzmir","name_adm2":"Çiğli","name_en":"Çiğli"},"geometry":{"type":"Point","coordinates":[26.965959999999995,38.48802]}},{"type":"feature","properties":{"country_en":"Turkey","name":"Çorlu","name_adm0":"Turkey","name_adm1":"Tekirdağ","name_adm2":"Çorlu","name_en":"Çorlu"},"geometry":{"type":"Point","coordinates":[27.791089999999997,41.196999999999996]}},{"type":"feature","properties":{"country_en":"Turkey","name":"Ayancık","name_adm0":"Turkey","name_adm1":"Sinop","name_adm2":"Ayancık","name_en":"Ayancık"},"geometry":{"type":"Point","coordinates":[34.6,41.83]}},{"type":"feature","properties":{"country_en":"Turkey","name":"Aydınlar","name_adm0":"Turkey","name_adm1":"Siirt","name_adm2":"Aydınlar","name_en":"Aydınlar"},"geometry":{"type":"Point","coordinates":[42.05028,37.96056]}},{"type":"feature","properties":{"country_en":"Turkey","name":"Gaziosmanpaşa","name_adm0":"Turkey","name_adm1":"İstanbul","name_adm2":"Gaziosmanpaşa","name_en":"Gaziosmanpaşa"},"geometry":{"type":"Point","coordinates":[28.77826,41.16749]}},{"type":"feature","properties":{"country_en":"Turkey","name":"Gaziemir","name_adm0":"Turkey","name_adm1":"İzmir","name_adm2":"Gaziemir","name_en":"Gaziemir"},"geometry":{"type":"Point","coordinates":[27.15178,38.31098]}},{"type":"feature","properties":{"country_en":"Turkey","name":"Edremit","name_adm0":"Turkey","name_adm1":"Van","name_adm2":"Edremit","name_en":"Edremit"},"geometry":{"type":"Point","coordinates":[43.29717,38.37889]}},{"type":"feature","properties":{"country_en":"Turkey","name":"Kemer","name_adm0":"Turkey","name_adm1":"Burdur","name_adm2":"Kemer","name_en":"Kemer"},"geometry":{"type":"Point","coordinates":[30.06306,37.35222]}},{"type":"feature","properties":{"country_en":"Turkey","name":"Karlıova","name_adm0":"Turkey","name_adm1":"Bingöl","name_adm2":"Karlıova","name_en":"Karlıova"},"geometry":{"type":"Point","coordinates":[41.01416999999999,39.29833]}},{"type":"feature","properties":{"country_en":"Turkey","name":"Hizan","name_adm0":"Turkey","name_adm1":"Bitlis","name_adm2":"Hizan","name_en":"Hizan"},"geometry":{"type":"Point","coordinates":[42.42776,38.22572]}},{"type":"feature","properties":{"country_en":"Turkey","name":"Hanönü","name_adm0":"Turkey","name_adm1":"Kastamonu","name_adm2":"Hanönü","name_en":"Hanönü"},"geometry":{"type":"Point","coordinates":[34.46667,41.62705]}},{"type":"feature","properties":{"country_en":"Turkey","name":"Karatay","name_adm0":"Turkey","name_adm1":"Konya","name_adm2":"Karatay","name_en":"Karatay"},"geometry":{"type":"Point","coordinates":[32.99828,37.94001]}},{"type":"feature","properties":{"country_en":"Turkey","name":"Kale","name_adm0":"Turkey","name_adm1":"Malatya","name_adm2":"Kale","name_en":"Kale"},"geometry":{"type":"Point","coordinates":[38.76667,38.416669999999996]}},{"type":"feature","properties":{"country_en":"Turkey","name":"Keçiören","name_adm0":"Turkey","name_adm1":"Ankara","name_adm2":"Keçiören","name_en":"Keçiören"},"geometry":{"type":"Point","coordinates":[32.831019999999995,40.02106]}},{"type":"feature","properties":{"country_en":"Turkey","name":"Kurtalan","name_adm0":"Turkey","name_adm1":"Siirt","name_adm2":"Kurtalan","name_en":"Kurtalan"},"geometry":{"type":"Point","coordinates":[41.66778,37.94278]}},{"type":"feature","properties":{"country_en":"Turkey","name":"Musabeyli","name_adm0":"Turkey","name_adm1":"Kilis","name_adm2":"Musabeyli","name_en":"Musabeyli"},"geometry":{"type":"Point","coordinates":[36.96278,36.90472]}},{"type":"feature","properties":{"country_en":"Turkey","name":"Ömerli","name_adm0":"Turkey","name_adm1":"Mardin","name_adm2":"Ömerli","name_en":"Ömerli"},"geometry":{"type":"Point","coordinates":[40.994719999999994,37.37944]}},{"type":"feature","properties":{"country_en":"Turkey","name":"Osmancık","name_adm0":"Turkey","name_adm1":"Çorum","name_adm2":"Osmancık","name_en":"Osmancık"},"geometry":{"type":"Point","coordinates":[34.78242999999999,41.0024]}},{"type":"feature","properties":{"country_en":"Turkey","name":"Melikgazi","name_adm0":"Turkey","name_adm1":"Kayseri","name_adm2":"Melikgazi","name_en":"Melikgazi"},"geometry":{"type":"Point","coordinates":[35.66076,38.77932]}},{"type":"feature","properties":{"country_en":"Turkey","name":"Menderes","name_adm0":"Turkey","name_adm1":"İzmir","name_adm2":"Menderes","name_en":"Menderes"},"geometry":{"type":"Point","coordinates":[27.11896,38.15525]}},{"type":"feature","properties":{"country_en":"Turkey","name":"Midyat","name_adm0":"Turkey","name_adm1":"Mardin","name_adm2":"Midyat","name_en":"Midyat"},"geometry":{"type":"Point","coordinates":[41.375,37.40056]}},{"type":"feature","properties":{"country_en":"Turkey","name":"Mudanya","name_adm0":"Turkey","name_adm1":"Bursa","name_adm2":"Mudanya","name_en":"Mudanya"},"geometry":{"type":"Point","coordinates":[28.77218,40.33341999999999]}},{"type":"feature","properties":{"country_en":"Turkey","name":"Piraziz","name_adm0":"Turkey","name_adm1":"Giresun","name_adm2":"Piraziz","name_en":"Piraziz"},"geometry":{"type":"Point","coordinates":[38.11784,40.95314]}},{"type":"feature","properties":{"country_en":"Turkey","name":"Serik","name_adm0":"Turkey","name_adm1":"Antalya","name_adm2":"Serik","name_en":"Serik"},"geometry":{"type":"Point","coordinates":[31.00677,37.07743]}},{"type":"feature","properties":{"country_en":"Turkey","name":"Saruhanlı","name_adm0":"Turkey","name_adm1":"Manisa","name_adm2":"Saruhanlı","name_en":"Saruhanlı"},"geometry":{"type":"Point","coordinates":[27.64714,38.76778]}},{"type":"feature","properties":{"country_en":"Turkey","name":"Sarıkaya","name_adm0":"Turkey","name_adm1":"Yozgat","name_adm2":"Sarıkaya","name_en":"Sarıkaya"},"geometry":{"type":"Point","coordinates":[35.39262,39.4985]}},{"type":"feature","properties":{"country_en":"Turkey","name":"Tuzla","name_adm0":"Turkey","name_adm1":"İstanbul","name_adm2":"Tuzla","name_en":"Tuzla"},"geometry":{"type":"Point","coordinates":[29.32658,40.85291]}},{"type":"feature","properties":{"country_en":"Turkey","name":"Vakfıkebir","name_adm0":"Turkey","name_adm1":"Trabzon","name_adm2":"Vakfıkebir","name_en":"Vakfıkebir"},"geometry":{"type":"Point","coordinates":[39.32627,40.99562]}},{"type":"feature","properties":{"country_en":"Turkey","name":"Meşrutiyet","name_adm0":"Turkey","name_adm1":"İstanbul","name_adm2":"Şişli","name_en":"Meşrutiyet"},"geometry":{"type":"Point","coordinates":[29.562149999999995,41.1588]}},{"type":"feature","properties":{"country_en":"Turkey","name":"Hasanpaşa","name_adm0":"Turkey","name_adm1":"İstanbul","name_adm2":"Kadıköy","name_en":"Hasanpaşa"},"geometry":{"type":"Point","coordinates":[28.79361,40.170559999999995]}},{"type":"feature","properties":{"country_en":"Turkey","name":"Kartallar","name_adm0":"Turkey","name_adm1":"Ankara","name_adm2":"Altındağ","name_en":"Kartallar"},"geometry":{"type":"Point","coordinates":[32.60327,40.19711]}},{"type":"feature","properties":{"country_en":"Turkey","name":"Emniyet","name_adm0":"Turkey","name_adm1":"Ankara","name_adm2":"Yenimahalle","name_en":"Emniyet"},"geometry":{"type":"Point","coordinates":[32.81179,39.93465]}},{"type":"feature","properties":{"country_en":"Turkey","name":"Kiliçarslan","name_adm0":"Turkey","name_adm1":"Antalya","name_adm2":"Merkez","name_en":"Kiliçarslan"},"geometry":{"type":"Point","coordinates":[30.70404,36.88206]}},{"type":"feature","properties":{"country_en":"Turkey","name":"Kizilsaray","name_adm0":"Turkey","name_adm1":"Antalya","name_adm2":"Merkez","name_en":"Kizilsaray"},"geometry":{"type":"Point","coordinates":[30.696979999999996,36.89043]}},{"type":"feature","properties":{"country_en":"Turkey","name":"Güzelbag","name_adm0":"Turkey","name_adm1":"Antalya","name_adm2":"Merkez","name_en":"Güzelbag"},"geometry":{"type":"Point","coordinates":[30.79171,36.8654]}},{"type":"feature","properties":{"country_en":"Turkey","name":"Bayindir","name_adm0":"Turkey","name_adm1":"Antalya","name_adm2":"Merkez","name_en":"Bayindir"},"geometry":{"type":"Point","coordinates":[29.955779999999997,36.78351]}},{"type":"feature","properties":{"country_en":"Turkey","name":"Hamzabey","name_adm0":"Turkey","name_adm1":"Bursa","name_adm2":"Osmangazi","name_en":"Hamzabey"},"geometry":{"type":"Point","coordinates":[29.52639,40.13583]}},{"type":"feature","properties":{"country_en":"Turkey","name":"Eskişehir","name_adm0":"Turkey","name_adm1":"Eskişehir","name_adm2":"Merkez","name_en":"Eskişehir"},"geometry":{"type":"Point","coordinates":[30.520559999999996,39.77667]}},{"type":"feature","properties":{"country_en":"Turkey","name":"Ula","name_adm0":"Turkey","name_adm1":"Muğla","name_adm2":"Ula","name_en":"Ula"},"geometry":{"type":"Point","coordinates":[28.416669999999996,37.10491]}},{"type":"feature","properties":{"country_en":"Turkey","name":"Savsat","name_adm0":"Turkey","name_adm1":"Artvin","name_adm2":"Savsat","name_en":"Savsat"},"geometry":{"type":"Point","coordinates":[42.36109,41.24027]}},{"type":"feature","properties":{"country_en":"Turkey","name":"Yenihisar","name_adm0":"Turkey","name_adm1":"Aydın","name_adm2":"Yenihisar","name_en":"Yenihisar"},"geometry":{"type":"Point","coordinates":[27.26778,37.37556]}},{"type":"feature","properties":{"country_en":"Turkey","name":"Nevşehir","name_adm0":"Turkey","name_adm1":"Nevşehir","name_en":"Nevşehir"},"geometry":{"type":"Point","coordinates":[34.82563,38.653343]}},{"type":"feature","properties":{"country_en":"Turkey","name":"Kemaliye","name_adm0":"Turkey","name_adm1":"Erzincan","name_adm2":"Kemaliye","name_en":"Kemaliye"},"geometry":{"type":"Point","coordinates":[38.49674,39.262879999999996]}},{"type":"feature","properties":{"country_en":"Turkey","name":"Nallıhan","name_adm0":"Turkey","name_adm1":"Ankara","name_adm2":"Nallıhan","name_en":"Nallıhan"},"geometry":{"type":"Point","coordinates":[31.351789999999998,40.18593]}},{"type":"feature","properties":{"country_en":"Turkey","name":"Ünalan","name_adm0":"Turkey","name_adm1":"İstanbul","name_adm2":"Üsküdar","name_en":"Ünalan"},"geometry":{"type":"Point","coordinates":[29.061155,41.005844]}},{"type":"feature","properties":{"country_en":"Turkey","name":"Akören","name_adm0":"Turkey","name_adm1":"Konya","name_adm2":"Akören","name_en":"Akören"},"geometry":{"type":"Point","coordinates":[32.37069999999999,37.45344999999999]}},{"type":"feature","properties":{"country_en":"Turkey","name":"Alpu","name_adm0":"Turkey","name_adm1":"Eskişehir","name_adm2":"Alpu","name_en":"Alpu"},"geometry":{"type":"Point","coordinates":[30.9606,39.76903]}},{"type":"feature","properties":{"country_en":"Turkey","name":"Andırın","name_adm0":"Turkey","name_adm1":"Kahramanmaraş","name_adm2":"Andırın","name_en":"Andırın"},"geometry":{"type":"Point","coordinates":[36.35491999999999,37.577569999999994]}},{"type":"feature","properties":{"country_en":"Turkey","name":"Asarcık","name_adm0":"Turkey","name_adm1":"Samsun","name_adm2":"Asarcık","name_en":"Asarcık"},"geometry":{"type":"Point","coordinates":[36.23555999999999,41.03556]}},{"type":"feature","properties":{"country_en":"Turkey","name":"Artova","name_adm0":"Turkey","name_adm1":"Tokat","name_adm2":"Artova","name_en":"Artova"},"geometry":{"type":"Point","coordinates":[36.3001,40.11578]}},{"type":"feature","properties":{"country_en":"Turkey","name":"Çağlayancerit","name_adm0":"Turkey","name_adm1":"Kahramanmaraş","name_adm2":"Çağlayancerit","name_en":"Çağlayancerit"},"geometry":{"type":"Point","coordinates":[37.29622,37.74959]}},{"type":"feature","properties":{"country_en":"Turkey","name":"Besni","name_adm0":"Turkey","name_adm1":"Adıyaman","name_adm2":"Besni","name_en":"Besni"},"geometry":{"type":"Point","coordinates":[37.86111,37.69278]}},{"type":"feature","properties":{"country_en":"Turkey","name":"Derbent","name_adm0":"Turkey","name_adm1":"Konya","name_adm2":"Derbent","name_en":"Derbent"},"geometry":{"type":"Point","coordinates":[32.01639,38.01422]}},{"type":"feature","properties":{"country_en":"Turkey","name":"Cumayeri","name_adm0":"Turkey","name_adm1":"Düzce","name_adm2":"Cumayeri","name_en":"Cumayeri"},"geometry":{"type":"Point","coordinates":[30.95091,40.87389]}},{"type":"feature","properties":{"country_en":"Turkey","name":"Doğanhisar","name_adm0":"Turkey","name_adm1":"Konya","name_adm2":"Doğanhisar","name_en":"Doğanhisar"},"geometry":{"type":"Point","coordinates":[31.67648,38.1463]}},{"type":"feature","properties":{"country_en":"Turkey","name":"Gölköy","name_adm0":"Turkey","name_adm1":"Ordu","name_adm2":"Gölköy","name_en":"Gölköy"},"geometry":{"type":"Point","coordinates":[37.61778,40.6875]}},{"type":"feature","properties":{"country_en":"Turkey","name":"Eynesil","name_adm0":"Turkey","name_adm1":"Giresun","name_adm2":"Eynesil","name_en":"Eynesil"},"geometry":{"type":"Point","coordinates":[39.1438,41.06453]}},{"type":"feature","properties":{"country_en":"Turkey","name":"Espiye","name_adm0":"Turkey","name_adm1":"Giresun","name_adm2":"Espiye","name_en":"Espiye"},"geometry":{"type":"Point","coordinates":[38.71148,40.94794]}},{"type":"feature","properties":{"country_en":"Turkey","name":"Gülyalı","name_adm0":"Turkey","name_adm1":"Ordu","name_adm2":"Gülyalı","name_en":"Gülyalı"},"geometry":{"type":"Point","coordinates":[38.06101,40.96648]}},{"type":"feature","properties":{"country_en":"Turkey","name":"Gürün","name_adm0":"Turkey","name_adm1":"Sivas","name_adm2":"Gürün","name_en":"Gürün"},"geometry":{"type":"Point","coordinates":[37.27097,38.72225]}},{"type":"feature","properties":{"country_en":"Turkey","name":"Güneysu","name_adm0":"Turkey","name_adm1":"Rize","name_adm2":"Güneysu","name_en":"Güneysu"},"geometry":{"type":"Point","coordinates":[40.61359,40.97762]}},{"type":"feature","properties":{"country_en":"Turkey","name":"Kadınhanı","name_adm0":"Turkey","name_adm1":"Konya","name_adm2":"Kadınhanı","name_en":"Kadınhanı"},"geometry":{"type":"Point","coordinates":[32.21139,38.23972]}},{"type":"feature","properties":{"country_en":"Turkey","name":"Keskin","name_adm0":"Turkey","name_adm1":"Kırıkkale","name_adm2":"Keskin","name_en":"Keskin"},"geometry":{"type":"Point","coordinates":[33.61361,39.67306]}},{"type":"feature","properties":{"country_en":"Turkey","name":"Merkez","name_adm0":"Turkey","name_adm1":"Gümüşhane","name_adm2":"Merkez","name_en":"Merkez"},"geometry":{"type":"Point","coordinates":[39.67441,40.46843]}},{"type":"feature","properties":{"country_en":"Turkey","name":"Malazgirt","name_adm0":"Turkey","name_adm1":"Muş","name_adm2":"Malazgirt","name_en":"Malazgirt"},"geometry":{"type":"Point","coordinates":[42.54008,39.14265]}},{"type":"feature","properties":{"country_en":"Turkey","name":"Ladik","name_adm0":"Turkey","name_adm1":"Samsun","name_adm2":"Ladik","name_en":"Ladik"},"geometry":{"type":"Point","coordinates":[35.89194,40.91056]}},{"type":"feature","properties":{"country_en":"Turkey","name":"Mesudiye","name_adm0":"Turkey","name_adm1":"Ordu","name_adm2":"Mesudiye","name_en":"Mesudiye"},"geometry":{"type":"Point","coordinates":[37.7725,40.4625]}},{"type":"feature","properties":{"country_en":"Turkey","name":"Merkez","name_adm0":"Turkey","name_adm1":"Bingöl","name_adm2":"Merkez","name_en":"Merkez"},"geometry":{"type":"Point","coordinates":[40.52802,38.95025]}},{"type":"feature","properties":{"country_en":"Turkey","name":"Mihalgazi","name_adm0":"Turkey","name_adm1":"Eskişehir","name_adm2":"Mihalgazi","name_en":"Mihalgazi"},"geometry":{"type":"Point","coordinates":[30.577069999999996,40.02620999999999]}},{"type":"feature","properties":{"country_en":"Turkey","name":"Ovacık","name_adm0":"Turkey","name_adm1":"Karabük","name_adm2":"Ovacık","name_en":"Ovacık"},"geometry":{"type":"Point","coordinates":[32.91994,41.07661]}},{"type":"feature","properties":{"country_en":"Turkey","name":"Özvatan","name_adm0":"Turkey","name_adm1":"Kayseri","name_adm2":"Özvatan","name_en":"Özvatan"},"geometry":{"type":"Point","coordinates":[35.69994,39.1069]}},{"type":"feature","properties":{"country_en":"Turkey","name":"Samsat","name_adm0":"Turkey","name_adm1":"Adıyaman","name_adm2":"Samsat","name_en":"Samsat"},"geometry":{"type":"Point","coordinates":[38.47417,37.58194]}},{"type":"feature","properties":{"country_en":"Turkey","name":"Seydiler","name_adm0":"Turkey","name_adm1":"Kastamonu","name_adm2":"Seydiler","name_en":"Seydiler"},"geometry":{"type":"Point","coordinates":[33.71815,41.62005]}},{"type":"feature","properties":{"country_en":"Turkey","name":"Termal","name_adm0":"Turkey","name_adm1":"Yalova","name_adm2":"Termal","name_en":"Termal"},"geometry":{"type":"Point","coordinates":[29.173600000000004,40.607789999999994]}},{"type":"feature","properties":{"country_en":"Turkey","name":"Yeşilyurt","name_adm0":"Turkey","name_adm1":"Malatya","name_adm2":"Yeşilyurt","name_en":"Yeşilyurt"},"geometry":{"type":"Point","coordinates":[38.24972,38.29722]}},{"type":"feature","properties":{"country_en":"Turkey","name":"Yeşilyurt","name_adm0":"Turkey","name_adm1":"Tokat","name_adm2":"Yeşilyurt","name_en":"Yeşilyurt"},"geometry":{"type":"Point","coordinates":[36.22069,40.0064]}},{"type":"feature","properties":{"country_en":"Turkey","name":"Piyalepaşa","name_adm0":"Turkey","name_adm1":"İstanbul","name_adm2":"Beyoğlu","name_en":"Piyalepaşa"},"geometry":{"type":"Point","coordinates":[28.96275,41.04884]}},{"type":"feature","properties":{"country_en":"Turkey","name":"Bogaziçi","name_adm0":"Turkey","name_adm1":"Ankara","name_adm2":"Mamak","name_en":"Bogaziçi"},"geometry":{"type":"Point","coordinates":[32.9338,39.91633]}},{"type":"feature","properties":{"country_en":"Turkey","name":"Yakacık","name_adm0":"Turkey","name_adm1":"Ankara","name_adm2":"Keçiören","name_en":"Yakacık"},"geometry":{"type":"Point","coordinates":[32.86587,39.99046]}},{"type":"feature","properties":{"country_en":"Turkey","name":"Şenyuva","name_adm0":"Turkey","name_adm1":"Ankara","name_adm2":"Keçiören","name_en":"Şenyuva"},"geometry":{"type":"Point","coordinates":[32.894099999999995,40.0087]}},{"type":"feature","properties":{"country_en":"Turkey","name":"Yeşilevler","name_adm0":"Turkey","name_adm1":"Ankara","name_adm2":"Yenimahalle","name_en":"Yeşilevler"},"geometry":{"type":"Point","coordinates":[32.78262,39.97431]}},{"type":"feature","properties":{"country_en":"Turkey","name":"Ayazaga","name_adm0":"Turkey","name_adm1":"İstanbul","name_adm2":"Şişli","name_en":"Ayazaga"},"geometry":{"type":"Point","coordinates":[28.99667,41.11444]}},{"type":"feature","properties":{"country_en":"Turkey","name":"Sancaktepe","name_adm0":"Turkey","name_adm1":"İstanbul","name_adm2":"Bağcılar","name_en":"Sancaktepe"},"geometry":{"type":"Point","coordinates":[29.231870000000004,41.00244]}},{"type":"feature","properties":{"country_en":"Turkey","name":"Yildirim","name_adm0":"Turkey","name_adm1":"İstanbul","name_adm2":"Bayrampaşa","name_en":"Yildirim"},"geometry":{"type":"Point","coordinates":[29.56667,40.33333]}},{"type":"feature","properties":{"country_en":"Turkey","name":"Sultanbeyli","name_adm0":"Turkey","name_adm1":"İstanbul","name_adm2":"Sultanbeyli","name_en":"Sultanbeyli"},"geometry":{"type":"Point","coordinates":[29.27067,40.96072]}},{"type":"feature","properties":{"country_en":"Turkey","name":"Plevne","name_adm0":"Turkey","name_adm1":"Ankara","name_adm2":"Sincan","name_en":"Plevne"},"geometry":{"type":"Point","coordinates":[32.87176,39.95109]}},{"type":"feature","properties":{"country_en":"Turkey","name":"Gazi","name_adm0":"Turkey","name_adm1":"Antalya","name_adm2":"Merkez","name_en":"Gazi"},"geometry":{"type":"Point","coordinates":[30.715899999999998,36.93729]}},{"type":"feature","properties":{"country_en":"Turkey","name":"Kütükçü","name_adm0":"Turkey","name_adm1":"Antalya","name_adm2":"Merkez","name_en":"Kütükçü"},"geometry":{"type":"Point","coordinates":[30.69486,36.93294]}},{"type":"feature","properties":{"country_en":"Turkey","name":"Yesilova","name_adm0":"Turkey","name_adm1":"Bursa","name_adm2":"Osmangazi","name_en":"Yesilova"},"geometry":{"type":"Point","coordinates":[28.43583,40.13265]}},{"type":"feature","properties":{"country_en":"Turkey","name":"Beylikdüzü","name_adm0":"Turkey","name_adm1":"İstanbul","name_adm2":"Büyükçekmece","name_en":"Beylikdüzü"},"geometry":{"type":"Point","coordinates":[28.6399,40.982]}},{"type":"feature","properties":{"country_en":"Turkey","name":"Yesilyurt","name_adm0":"Turkey","name_adm1":"Antalya","name_adm2":"Merkez","name_en":"Yesilyurt"},"geometry":{"type":"Point","coordinates":[30.63675,36.9076]}},{"type":"feature","properties":{"country_en":"Turkey","name":"Balçova","name_adm0":"Turkey","name_adm1":"İzmir","name_adm2":"Balçova","name_en":"Balçova"},"geometry":{"type":"Point","coordinates":[27.0562,38.38858]}},{"type":"feature","properties":{"country_en":"Turkey","name":"Ölüdeniz","name_adm0":"Turkey","name_adm1":"Muğla","name_adm2":"Fethiye","name_en":"Ölüdeniz"},"geometry":{"type":"Point","coordinates":[29.144669999999998,36.56674]}},{"type":"feature","properties":{"country_en":"Turkey","name":"Şile","name_adm0":"Turkey","name_adm1":"İstanbul","name_adm2":"Şile","name_en":"Artane"},"geometry":{"type":"Point","coordinates":[29.61333,41.1754]}},{"type":"feature","properties":{"country_en":"Turkey","name":"Piri Reis","name_adm0":"Turkey","name_adm1":"Mersin","name_adm2":"Merkez","name_en":"Piri Reis"},"geometry":{"type":"Point","coordinates":[34.614186,36.783648]}},{"type":"feature","properties":{"country_en":"Turkey","name":"Kasap İlyas","name_adm0":"Turkey","name_adm1":"İstanbul","name_adm2":"Fatih","name_en":"Kasap İlyas"},"geometry":{"type":"Point","coordinates":[28.938372,41.001536]}},{"type":"feature","properties":{"country_en":"Turkey","name":"Çerkezköy","name_adm0":"Turkey","name_adm1":"Tekirdağ","name_adm2":"Çerkezköy","name_en":"Çerkezköy"},"geometry":{"type":"Point","coordinates":[28.000279999999997,41.285]}},{"type":"feature","properties":{"country_en":"Turkey","name":"İstanbul","name_adm0":"Turkey","name_adm1":"İstanbul","name_en":"Istanbul"},"geometry":{"type":"Point","coordinates":[28.98331,41.03508]}},{"type":"feature","properties":{"country_en":"Turkey","name":"Akabat","name_adm0":"Turkey","name_adm1":"İstanbul","name_adm2":"Şile","name_en":"Akabat"},"geometry":{"type":"Point","coordinates":[29.1,41.15]}},{"type":"feature","properties":{"country_en":"Turkey","name":"Güvem","name_adm0":"Turkey","name_adm1":"Ankara","name_adm2":"Kızılcahamam","name_en":"Güvem"},"geometry":{"type":"Point","coordinates":[32.66111,40.59069]}},{"type":"feature","properties":{"country_en":"Turkey","name":"Şefaatli","name_adm0":"Turkey","name_adm1":"Yozgat","name_adm2":"Sefaatli","name_en":"Şefaatli"},"geometry":{"type":"Point","coordinates":[34.756299999999996,39.5043]}},{"type":"feature","properties":{"country_en":"Turkey","name":"Aslanapa","name_adm0":"Turkey","name_adm1":"Kütahya","name_adm2":"Aslanapa","name_en":"Aslanapa"},"geometry":{"type":"Point","coordinates":[29.869899999999998,39.21581]}},{"type":"feature","properties":{"country_en":"Turkey","name":"Büyük Lâçin","name_adm0":"Turkey","name_adm1":"Çorum","name_adm2":"Laçin","name_en":"Büyük Lâçin"},"geometry":{"type":"Point","coordinates":[34.89838,40.77018]}},{"type":"feature","properties":{"country_en":"Turkey","name":"Güroymak","name_adm0":"Turkey","name_adm1":"Bitlis","name_adm2":"Güroymak","name_en":"Güroymak"},"geometry":{"type":"Point","coordinates":[42.02811,38.57739]}},{"type":"feature","properties":{"country_en":"Turkey","name":"Hacılar","name_adm0":"Turkey","name_adm1":"Bingöl","name_adm2":"Karlıova","name_en":"Hacılar"},"geometry":{"type":"Point","coordinates":[40.8,39.1]}},{"type":"feature","properties":{"country_en":"Turkey","name":"Karayazı","name_adm0":"Turkey","name_adm1":"Erzurum","name_adm2":"Karayazı","name_en":"Bayrakdar"},"geometry":{"type":"Point","coordinates":[42.14561,39.7028]}},{"type":"feature","properties":{"country_en":"Turkey","name":"Karaçoban","name_adm0":"Turkey","name_adm1":"Muş","name_adm2":"Bulanık","name_en":"Karaçoban"},"geometry":{"type":"Point","coordinates":[42.547889999999995,39.53578]}},{"type":"feature","properties":{"country_en":"Turkey","name":"Musabeyli","name_adm0":"Turkey","name_adm1":"Kilis","name_adm2":"Musabeyli","name_en":"Musabeyli"},"geometry":{"type":"Point","coordinates":[36.918609999999994,36.88639]}},{"type":"feature","properties":{"country_en":"Turkey","name":"Mehmetler","name_adm0":"Turkey","name_adm1":"Kastamonu","name_adm2":"Bozkurt","name_en":"Mehmetler"},"geometry":{"type":"Point","coordinates":[34.08633,41.81510999999999]}},{"type":"feature","properties":{"country_en":"Turkey","name":"Pazarlar","name_adm0":"Turkey","name_adm1":"Kütahya","name_adm2":"Pazarlar","name_en":"Pazarlar"},"geometry":{"type":"Point","coordinates":[29.12583,38.995]}},{"type":"feature","properties":{"country_en":"Turkey","name":"Olur","name_adm0":"Turkey","name_adm1":"Erzurum","name_adm2":"Olur","name_en":"Olur"},"geometry":{"type":"Point","coordinates":[42.12846,40.821639999999995]}},{"type":"feature","properties":{"country_en":"Turkey","name":"Sason","name_adm0":"Turkey","name_adm1":"Batman","name_adm2":"Sason","name_en":"Sason"},"geometry":{"type":"Point","coordinates":[41.41302,38.33644]}},{"type":"feature","properties":{"country_en":"Turkey","name":"Sakçagöze","name_adm0":"Turkey","name_adm1":"Gaziantep","name_adm2":"Nurdağı","name_en":"Sakçagöze"},"geometry":{"type":"Point","coordinates":[36.92483,37.17235]}},{"type":"feature","properties":{"country_en":"Turkey","name":"Hani","name_adm0":"Turkey","name_adm1":"Diyarbakır","name_adm2":"Hani","name_en":"Hani"},"geometry":{"type":"Point","coordinates":[40.4,38.416669999999996]}},{"type":"feature","properties":{"country_en":"Turkey","name":"Güzeloluk","name_adm0":"Turkey","name_adm1":"Mersin","name_adm2":"Erdemli","name_en":"Güzeloluk"},"geometry":{"type":"Point","coordinates":[34.082739999999994,36.794439999999994]}},{"type":"feature","properties":{"country_en":"Turkey","name":"Yeniapardı","name_adm0":"Turkey","name_adm1":"Sivas","name_adm2":"Merkez","name_en":"Yeniapardı"},"geometry":{"type":"Point","coordinates":[36.785039999999995,39.54751]}},{"type":"feature","properties":{"country_en":"Turkey","name":"Yazıbelen","name_adm0":"Turkey","name_adm1":"Konya","name_adm2":"Selçuklu","name_en":"Tutup"},"geometry":{"type":"Point","coordinates":[32.74196,38.16315]}},{"type":"feature","properties":{"country_en":"Turkey","name":"Yürük","name_adm0":"Turkey","name_adm1":"Tekirdağ","name_adm2":"Malkara","name_en":"Yürük"},"geometry":{"type":"Point","coordinates":[27.06631,40.93553]}},{"type":"feature","properties":{"country_en":"Turkey","name":"Yenisu","name_adm0":"Turkey","name_adm1":"Tokat","name_adm2":"Turhal","name_en":"Yenisu"},"geometry":{"type":"Point","coordinates":[36.37055999999999,40.4825]}},{"type":"feature","properties":{"country_en":"Turkey","name":"Yeniköy","name_adm0":"Turkey","name_adm1":"Kars","name_adm2":"Sarıkamış","name_en":"Yeniköy"},"geometry":{"type":"Point","coordinates":[42.29823,40.31199]}},{"type":"feature","properties":{"country_en":"Turkey","name":"Aydınlar","name_adm0":"Turkey","name_adm1":"Siirt","name_adm2":"Aydınlar","name_en":"Tillo"},"geometry":{"type":"Point","coordinates":[42.03028,37.409169999999996]}},{"type":"feature","properties":{"country_en":"Turkey","name":"Ertuğrul","name_adm0":"Turkey","name_adm1":"Bursa","name_adm2":"Nilüfer","name_en":"Ertuğrul"},"geometry":{"type":"Point","coordinates":[28.92449,40.21396]}},{"type":"feature","properties":{"country_en":"Turkey","name":"Kemalpaşa","name_adm0":"Turkey","name_adm1":"İzmir","name_adm2":"Kemalpaşa","name_en":"Kemalpaşa"},"geometry":{"type":"Point","coordinates":[27.491,38.408829999999995]}},{"type":"feature","properties":{"country_en":"Turkey","name":"Tonya","name_adm0":"Turkey","name_adm1":"Trabzon","name_adm2":"Tonya","name_en":"Tonya"},"geometry":{"type":"Point","coordinates":[39.292379999999994,40.88625]}},{"type":"feature","properties":{"country_en":"Turkey","name":"Avanos","name_adm0":"Turkey","name_adm1":"Nevşehir","name_adm2":"Avanos","name_en":"Avanos"},"geometry":{"type":"Point","coordinates":[34.84667,38.714999999999996]}},{"type":"feature","properties":{"country_en":"Turkey","name":"Kızılcahamam","name_adm0":"Turkey","name_adm1":"Ankara","name_adm2":"Kızılcahamam","name_en":"Kızılcahamam"},"geometry":{"type":"Point","coordinates":[32.65056,40.46972]}},{"type":"feature","properties":{"country_en":"Turkey","name":"Hakkâri","name_adm0":"Turkey","name_adm1":"Hakkâri","name_en":"Hakkâri"},"geometry":{"type":"Point","coordinates":[44.16667,37.58333]}},{"type":"feature","properties":{"country_en":"Turkey","name":"Bayat","name_adm0":"Turkey","name_adm1":"Afyonkarahisar","name_adm2":"Bayat","name_en":"Bayat"},"geometry":{"type":"Point","coordinates":[30.92472,38.98306]}},{"type":"feature","properties":{"country_en":"Turkey","name":"Suluova","name_adm0":"Turkey","name_adm1":"Amasya","name_adm2":"Suluova","name_en":"Suluova"},"geometry":{"type":"Point","coordinates":[35.64788,40.83128]}},{"type":"feature","properties":{"country_en":"Turkey","name":"Konak","name_adm0":"Turkey","name_adm1":"İzmir","name_adm2":"Konak","name_en":"Konak"},"geometry":{"type":"Point","coordinates":[27.14412,38.41448]}},{"type":"feature","properties":{"country_en":"Turkey","name":"Şincik","name_adm0":"Turkey","name_adm1":"Adıyaman","name_adm2":"Şincik","name_en":"Şincik"},"geometry":{"type":"Point","coordinates":[38.61487,38.03675]}},{"type":"feature","properties":{"country_en":"Turkey","name":"Bahçelievler","name_adm0":"Turkey","name_adm1":"Antalya","name_adm2":"Merkez","name_en":"Bahçelievler"},"geometry":{"type":"Point","coordinates":[30.68663,36.88672]}},{"type":"feature","properties":{"country_en":"Turkey","name":"Sirinyali","name_adm0":"Turkey","name_adm1":"Antalya","name_adm2":"Merkez","name_en":"Sirinyali"},"geometry":{"type":"Point","coordinates":[30.73577,36.86271]}},{"type":"feature","properties":{"country_en":"Turkey","name":"Karasu","name_adm0":"Turkey","name_adm1":"Sakarya","name_adm2":"Karasu","name_en":"Karasu"},"geometry":{"type":"Point","coordinates":[30.696640000000002,41.10441999999999]}},{"type":"feature","properties":{"country_en":"Turkey","name":"Altinkum","name_adm0":"Turkey","name_adm1":"İzmir","name_adm2":"Çeşme","name_en":"Altinkum"},"geometry":{"type":"Point","coordinates":[26.27792,38.27363]}},{"type":"feature","properties":{"country_en":"Turkey","name":"Bahçecik","name_adm0":"Turkey","name_adm1":"Trabzon","name_adm2":"Merkez","name_en":"Bahçecik"},"geometry":{"type":"Point","coordinates":[40.00477,40.5804]}},{"type":"feature","properties":{"country_en":"Turkey","name":"Çamlik","name_adm0":"Turkey","name_adm1":"Ankara","name_adm2":"Altındağ","name_en":"Çamlik"},"geometry":{"type":"Point","coordinates":[32.940239999999996,39.96693]}},{"type":"feature","properties":{"country_en":"Turkey","name":"Mimar Sinan","name_adm0":"Turkey","name_adm1":"Ankara","name_adm2":"Çankaya","name_en":"Mimar Sinan"},"geometry":{"type":"Point","coordinates":[32.87609,39.91148]}},{"type":"feature","properties":{"country_en":"Turkey","name":"Yeni","name_adm0":"Turkey","name_adm1":"Denizli","name_adm2":"Merkez","name_en":"Yeni"},"geometry":{"type":"Point","coordinates":[29.899999999999995,38.29999999999999]}},{"type":"feature","properties":{"country_en":"Turkey","name":"Altınyaka","name_adm0":"Turkey","name_adm1":"Antalya","name_adm2":"Kumluca","name_en":"Altınyaka"},"geometry":{"type":"Point","coordinates":[30.34833,36.55861]}},{"type":"feature","properties":{"country_en":"Turkey","name":"Lâlapaşa","name_adm0":"Turkey","name_adm1":"Edirne","name_adm2":"Lalapaşa","name_en":"Lâlapaşa"},"geometry":{"type":"Point","coordinates":[26.73561,41.83951]}},{"type":"feature","properties":{"country_en":"Turkey","name":"Boyalıca","name_adm0":"Turkey","name_adm1":"Bursa","name_adm2":"İznik","name_en":"Boyalıca"},"geometry":{"type":"Point","coordinates":[29.56083,40.48194]}},{"type":"feature","properties":{"country_en":"Turkey","name":"Sarıkaya","name_adm0":"Turkey","name_adm1":"Yozgat","name_adm2":"Sarıkaya","name_en":"Hamam"},"geometry":{"type":"Point","coordinates":[35.37694,39.49361]}},{"type":"feature","properties":{"country_en":"Turkey","name":"Acıpayam","name_adm0":"Turkey","name_adm1":"Denizli","name_adm2":"Acıpayam","name_en":"Acıpayam"},"geometry":{"type":"Point","coordinates":[29.349410000000002,37.42385]}},{"type":"feature","properties":{"country_en":"Turkey","name":"Balıklıova","name_adm0":"Turkey","name_adm1":"İzmir","name_adm2":"Urla","name_en":"Balıklıova"},"geometry":{"type":"Point","coordinates":[26.56884,38.42132]}},{"type":"feature","properties":{"country_en":"Turkey","name":"Bekbele","name_adm0":"Turkey","name_adm1":"Hatay","name_adm2":"İskenderun","name_en":"Bekbele"},"geometry":{"type":"Point","coordinates":[36.23464,36.6172]}},{"type":"feature","properties":{"country_en":"Turkey","name":"Çilimli","name_adm0":"Turkey","name_adm1":"Düzce","name_adm2":"Çilimli","name_en":"Çilimli"},"geometry":{"type":"Point","coordinates":[31.04917,40.89361]}},{"type":"feature","properties":{"country_en":"Turkey","name":"Hilvan","name_adm0":"Turkey","name_adm1":"Şanlıurfa","name_adm2":"Hilvan","name_en":"Hilvan"},"geometry":{"type":"Point","coordinates":[38.95505,37.58686]}},{"type":"feature","properties":{"country_en":"Turkey","name":"Bozyazı","name_adm0":"Turkey","name_en":"Bozyazı"},"geometry":{"type":"Point","coordinates":[32.96113,36.1082]}},{"type":"feature","properties":{"country_en":"Turkey","name":"İmamoğlu","name_adm0":"Turkey","name_adm1":"Adana","name_adm2":"İmamoğlu","name_en":"İmamoğlu"},"geometry":{"type":"Point","coordinates":[35.65717,37.26506]}},{"type":"feature","properties":{"country_en":"Turkey","name":"Sögüt","name_adm0":"Turkey","name_adm1":"Bilecik","name_adm2":"Sögüt","name_en":"Sögüt"},"geometry":{"type":"Point","coordinates":[30.184859999999997,40.0143]}},{"type":"feature","properties":{"country_en":"Turkey","name":"Sorgun","name_adm0":"Turkey","name_adm1":"Yozgat","name_adm2":"Sorgun","name_en":"Sorgun"},"geometry":{"type":"Point","coordinates":[35.18596,39.81012]}},{"type":"feature","properties":{"country_en":"Turkey","name":"Mengen","name_adm0":"Turkey","name_adm1":"Bolu","name_adm2":"Mengen","name_en":"Mengen"},"geometry":{"type":"Point","coordinates":[32.07642,40.93877]}},{"type":"feature","properties":{"country_en":"Turkey","name":"Sarkıkaraağaç","name_adm0":"Turkey","name_adm1":"Isparta","name_adm2":"Sarkıkaraağaç","name_en":"Sarkıkaraağaç"},"geometry":{"type":"Point","coordinates":[31.36639,38.07943999999999]}},{"type":"feature","properties":{"country_en":"Turkey","name":"İnkılap","name_adm0":"Turkey","name_adm1":"İstanbul","name_adm2":"Üsküdar","name_en":"İnkılap"},"geometry":{"type":"Point","coordinates":[29.016523,41.022132]}},{"type":"feature","properties":{"country_en":"Turkey","name":"Orhangazi","name_adm0":"Turkey","name_adm1":"Bursa","name_adm2":"Orhangazi","name_en":"Orhangazi"},"geometry":{"type":"Point","coordinates":[29.30889,40.489169999999994]}},{"type":"feature","properties":{"country_en":"Turkey","name":"Kırkağaç","name_adm0":"Turkey","name_adm1":"Manisa","name_adm2":"Kırkağaç","name_en":"Nacrasa"},"geometry":{"type":"Point","coordinates":[27.66925,39.10638]}},{"type":"feature","properties":{"country_en":"Turkey","name":"İpsala","name_adm0":"Turkey","name_adm1":"Edirne","name_adm2":"İpsala","name_en":"İpsala"},"geometry":{"type":"Point","coordinates":[26.382729999999995,40.92115]}},{"type":"feature","properties":{"country_en":"Turkey","name":"Hocalar","name_adm0":"Turkey","name_adm1":"Afyonkarahisar","name_adm2":"Hocalar","name_en":"Hocalar"},"geometry":{"type":"Point","coordinates":[29.967679999999998,38.57824]}},{"type":"feature","properties":{"country_en":"Turkey","name":"Yozgat","name_adm0":"Turkey","name_adm1":"Yozgat","name_adm2":"Merkez","name_en":"Yozgat"},"geometry":{"type":"Point","coordinates":[34.810867,39.820254]}},{"type":"feature","properties":{"country_en":"Turkey","name":"Merkez","name_adm0":"Turkey","name_adm1":"Bartın","name_adm2":"Merkez","name_en":"Merkez"},"geometry":{"type":"Point","coordinates":[32.225646,41.668487]}},{"type":"feature","properties":{"country_en":"Turkey","name":"Merkez","name_adm0":"Turkey","name_adm1":"Muğla","name_adm2":"Merkez","name_en":"Merkez"},"geometry":{"type":"Point","coordinates":[28.323436,37.05319]}},{"type":"feature","properties":{"country_en":"Turkey","name":"Merkez","name_adm0":"Turkey","name_adm1":"Bolu","name_adm2":"Merkez","name_en":"Merkez"},"geometry":{"type":"Point","coordinates":[31.648864,40.701854]}},{"type":"feature","properties":{"country_en":"Turkey","name":"Yuva","name_adm0":"Turkey","name_adm1":"Ankara","name_adm2":"Yenimahalle","name_en":"Yuva"},"geometry":{"type":"Point","coordinates":[32.72579,40.01587]}},{"type":"feature","properties":{"country_en":"Turkey","name":"Devrek","name_adm0":"Turkey","name_adm1":"Zonguldak","name_adm2":"Devrek","name_en":"Devrek"},"geometry":{"type":"Point","coordinates":[31.955829999999995,41.21917]}},{"type":"feature","properties":{"country_en":"Turkey","name":"Ezine","name_adm0":"Turkey","name_adm1":"Çanakkale","name_adm2":"Ezine","name_en":"Ezine"},"geometry":{"type":"Point","coordinates":[26.34083,39.78561]}},{"type":"feature","properties":{"country_en":"Turkey","name":"Elmalı","name_adm0":"Turkey","name_adm1":"Antalya","name_adm2":"Elmalı","name_en":"Elmalı"},"geometry":{"type":"Point","coordinates":[29.917749999999998,36.73583]}},{"type":"feature","properties":{"country_en":"Turkey","name":"Bağcılar","name_adm0":"Turkey","name_adm1":"İstanbul","name_adm2":"Bağcılar","name_en":"Bağcılar"},"geometry":{"type":"Point","coordinates":[28.83625,41.04275]}},{"type":"feature","properties":{"country_en":"Turkey","name":"Turgut Özal","name_adm0":"Turkey","name_adm1":"Manisa","name_adm2":"Merkez","name_en":"Turgut Özal"},"geometry":{"type":"Point","coordinates":[27.37898,38.57457]}},{"type":"feature","properties":{"country_en":"Turkey","name":"Gaziemir","name_adm0":"Turkey","name_adm1":"İzmir","name_adm2":"Gaziemir","name_en":"Gaziemir"},"geometry":{"type":"Point","coordinates":[27.129179999999998,38.32392]}},{"type":"feature","properties":{"country_en":"Turkey","name":"Sakarya","name_adm0":"Turkey","name_adm1":"Sakarya","name_en":"Sakarya"},"geometry":{"type":"Point","coordinates":[30.421142,40.742839]}},{"type":"feature","properties":{"country_en":"Turkey","name":"Yukari Hisar","name_adm0":"Turkey","name_adm1":"Antalya","name_adm2":"Manavgat","name_en":"Yukari Hisar"},"geometry":{"type":"Point","coordinates":[31.451176999999998,36.792309]}},{"type":"feature","properties":{"country_en":"Turkey","name":"Akseki","name_adm0":"Turkey","name_adm1":"Antalya","name_adm2":"Akseki","name_en":"Akseki"},"geometry":{"type":"Point","coordinates":[31.79,37.04861]}},{"type":"feature","properties":{"country_en":"Turkey","name":"Merkez","name_adm0":"Turkey","name_adm1":"Mersin","name_adm2":"Merkez","name_en":"Merkez"},"geometry":{"type":"Point","coordinates":[34.540156999999994,36.824676]}},{"type":"feature","properties":{"country_en":"Turkey","name":"Merkez","name_adm0":"Turkey","name_adm1":"Karaman","name_adm2":"Merkez","name_en":"Merkez"},"geometry":{"type":"Point","coordinates":[33.148498,37.254516]}},{"type":"feature","properties":{"country_en":"Turkey","name":"Birecik","name_adm0":"Turkey","name_adm1":"Şanlıurfa","name_adm2":"Birecik","name_en":"Birecik"},"geometry":{"type":"Point","coordinates":[37.99027999999999,37.02944]}},{"type":"feature","properties":{"country_en":"Turkey","name":"Bornova","name_adm0":"Turkey","name_adm1":"İzmir","name_adm2":"Bornova","name_en":"Bornova"},"geometry":{"type":"Point","coordinates":[27.22111,38.46972]}},{"type":"feature","properties":{"country_en":"Turkey","name":"Burhaniye","name_adm0":"Turkey","name_adm1":"Balıkesir","name_adm2":"Burhaniye","name_en":"Burhaniye"},"geometry":{"type":"Point","coordinates":[26.97269,39.50041]}},{"type":"feature","properties":{"country_en":"Turkey","name":"Kozyatagi","name_adm0":"Turkey","name_adm1":"İstanbul","name_adm2":"Kadıköy","name_en":"Kozyatagi"},"geometry":{"type":"Point","coordinates":[29.083498999999996,40.961115]}},{"type":"feature","properties":{"country_en":"Turkey","name":"Silivri","name_adm0":"Turkey","name_adm1":"İstanbul","name_adm2":"Silivri","name_en":"Silivri"},"geometry":{"type":"Point","coordinates":[28.22605,41.08022]}},{"type":"feature","properties":{"country_en":"Turkey","name":"Cumhuriyet","name_adm0":"Turkey","name_adm1":"Muğla","name_adm2":"Marmaris","name_en":"Cumhuriyet"},"geometry":{"type":"Point","coordinates":[28.233446999999998,36.803164]}},{"type":"feature","properties":{"country_en":"Turkey","name":"Kırklareli","name_adm0":"Turkey","name_adm1":"Kırklareli","name_en":"Kırklareli"},"geometry":{"type":"Point","coordinates":[27.5,41.66667]}},{"type":"feature","properties":{"country_en":"Turkey","name":"Manisa","name_adm0":"Turkey","name_adm1":"Manisa","name_en":"Manisa"},"geometry":{"type":"Point","coordinates":[28.16667,38.83333]}},{"type":"feature","properties":{"country_en":"Turkey","name":"Kahramanmaraş","name_adm0":"Turkey","name_adm1":"Kahramanmaraş","name_en":"Kahramanmaraş"},"geometry":{"type":"Point","coordinates":[37,38]}},{"type":"feature","properties":{"country_en":"Turkey","name":"Tekirdağ","name_adm0":"Turkey","name_adm1":"Tekirdağ","name_en":"Tekirdağ"},"geometry":{"type":"Point","coordinates":[27.5,41]}},{"type":"feature","properties":{"country_en":"Turkey","name":"Çakirlar Yali","name_adm0":"Turkey","name_adm1":"Samsun","name_adm2":"Merkez","name_en":"Çakirlar Yali"},"geometry":{"type":"Point","coordinates":[36.160125,41.432302]}},{"type":"feature","properties":{"country_en":"Turkey","name":"Pürçüklü","name_adm0":"Turkey","name_adm1":"Konya","name_adm2":"Karatay","name_en":"Pürçüklü"},"geometry":{"type":"Point","coordinates":[32.503979,37.870457]}},{"type":"feature","properties":{"country_en":"Turkey","name":"Akköy","name_adm0":"Turkey","name_adm1":"Denizli","name_adm2":"Akköy","name_en":"Akköy"},"geometry":{"type":"Point","coordinates":[29.07814,37.95694]}},{"type":"feature","properties":{"country_en":"Turkey","name":"Marmara","name_adm0":"Turkey","name_adm1":"Balıkesir","name_adm2":"Marmara","name_en":"Marmara"},"geometry":{"type":"Point","coordinates":[27.55541,40.58633]}},{"type":"feature","properties":{"country_en":"Turkey","name":"Ortahisar","name_adm0":"Turkey","name_adm1":"Nevşehir","name_adm2":"Ürgüp","name_en":"Ortahisar"},"geometry":{"type":"Point","coordinates":[34.85722,38.63111]}},{"type":"feature","properties":{"country_en":"Turkey","name":"Maltepe","name_adm0":"Turkey","name_adm1":"Ankara","name_adm2":"Çankaya","name_en":"Maltepe"},"geometry":{"type":"Point","coordinates":[32.84573,39.92474]}},{"type":"feature","properties":{"country_en":"Turkey","name":"Bayındır","name_adm0":"Turkey","name_adm1":"İzmir","name_adm2":"Bayındır","name_en":"Baindir"},"geometry":{"type":"Point","coordinates":[27.64744,38.21741]}},{"type":"feature","properties":{"country_en":"Turkey","name":"Aydıncık","name_adm0":"Turkey","name_adm1":"Mersin","name_adm2":"Aydıncık","name_en":"Aydıncık"},"geometry":{"type":"Point","coordinates":[33.32016,36.1437]}},{"type":"feature","properties":{"country_en":"Turkey","name":"Serik","name_adm0":"Turkey","name_adm1":"Antalya","name_adm2":"Serik","name_en":"Serik"},"geometry":{"type":"Point","coordinates":[31.098889999999997,36.91694]}},{"type":"feature","properties":{"country_en":"Turkey","name":"Savur","name_adm0":"Turkey","name_adm1":"Mardin","name_adm2":"Savur","name_en":"Savur"},"geometry":{"type":"Point","coordinates":[40.88768,37.53883999999999]}},{"type":"feature","properties":{"country_en":"Turkey","name":"Nişanca/eyup","name_adm0":"Turkey","name_adm1":"İstanbul","name_adm2":"Eyüp","name_en":"Nişanca/eyup"},"geometry":{"type":"Point","coordinates":[28.937128999999995,41.046111]}},{"type":"feature","properties":{"country_en":"Turkey","name":"Mercan","name_adm0":"Turkey","name_adm1":"İstanbul","name_adm2":"Eminönü","name_en":"Mercan"},"geometry":{"type":"Point","coordinates":[28.968287,41.013729]}},{"type":"feature","properties":{"country_en":"Turkey","name":"Hobyar","name_adm0":"Turkey","name_adm1":"İstanbul","name_adm2":"Eminönü","name_en":"Hobyar"},"geometry":{"type":"Point","coordinates":[28.97279,41.0164605]}},{"type":"feature","properties":{"country_en":"Turkey","name":"Manavgat","name_adm0":"Turkey","name_adm1":"Antalya","name_adm2":"Manavgat","name_en":"Manavgat"},"geometry":{"type":"Point","coordinates":[31.443059999999996,36.78667]}},{"type":"feature","properties":{"country_en":"Turkey","name":"Gelibolu","name_adm0":"Turkey","name_adm1":"Çanakkale","name_adm2":"Gelibolu","name_en":"Gelibolu"},"geometry":{"type":"Point","coordinates":[26.67083,40.41028]}},{"type":"feature","properties":{"country_en":"Turkey","name":"Çarsi","name_adm0":"Turkey","name_adm1":"Antalya","name_adm2":"Alanya","name_en":"Çarsi"},"geometry":{"type":"Point","coordinates":[31.99365,36.54033]}},{"type":"feature","properties":{"country_en":"Turkey","name":"Taşucu","name_adm0":"Turkey","name_adm1":"Mersin","name_adm2":"Silifke","name_en":"Taşucu"},"geometry":{"type":"Point","coordinates":[33.86023,36.32488]}},{"type":"feature","properties":{"country_en":"Turkey","name":"Bağlarbaşı","name_adm0":"Turkey","name_adm1":"Ankara","name_adm2":"Keçiören","name_en":"Bağlarbaşı"},"geometry":{"type":"Point","coordinates":[32.87971,39.99369]}},{"type":"feature","properties":{"country_en":"Turkey","name":"Caferağa","name_adm0":"Turkey","name_adm1":"İstanbul","name_adm2":"Kadıköy","name_en":"Caferağa"},"geometry":{"type":"Point","coordinates":[29.02356,40.98871]}},{"type":"feature","properties":{"country_en":"Turkey","name":"Kiris","name_adm0":"Turkey","name_adm1":"Antalya","name_adm2":"Kemer","name_en":"Kiris"},"geometry":{"type":"Point","coordinates":[30.570489999999996,36.57887]}},{"type":"feature","properties":{"country_en":"Turkey","name":"Özbaşı","name_adm0":"Turkey","name_adm1":"Aydın","name_adm2":"Söke","name_en":"Özbaşı"},"geometry":{"type":"Point","coordinates":[27.42778,37.62833]}},{"type":"feature","properties":{"country_en":"Turkey","name":"Reisdere","name_adm0":"Turkey","name_adm1":"İzmir","name_adm2":"Çeşme","name_en":"Reisdere"},"geometry":{"type":"Point","coordinates":[26.41679,38.31579]}},{"type":"feature","properties":{"country_en":"Turkey","name":"Samanlı","name_adm0":"Turkey","name_adm1":"Bursa","name_adm2":"Yıldırım","name_en":"Samanlı"},"geometry":{"type":"Point","coordinates":[29.125909999999998,40.23043]}},{"type":"feature","properties":{"country_en":"Turkey","name":"Özalp","name_adm0":"Turkey","name_adm1":"Van","name_adm2":"Özalp","name_en":"Özalp"},"geometry":{"type":"Point","coordinates":[43.99300999999999,38.65477]}},{"type":"feature","properties":{"country_en":"Turkey","name":"Muğla","name_adm0":"Turkey","name_adm1":"Muğla","name_en":"Muğla"},"geometry":{"type":"Point","coordinates":[28.355709999999995,37.23033]}},{"type":"feature","properties":{"country_en":"Turkey","name":"Samsun","name_adm0":"Turkey","name_adm1":"Samsun","name_en":"Samsun"},"geometry":{"type":"Point","coordinates":[36.33333,41.25]}},{"type":"feature","properties":{"country_en":"Turkey","name":"Sultanhisar","name_adm0":"Turkey","name_adm1":"Aydın","name_adm2":"Sultanhisar","name_en":"Sultanhisar"},"geometry":{"type":"Point","coordinates":[28.1575,37.88972]}},{"type":"feature","properties":{"country_en":"Turkey","name":"Derinkuyu","name_adm0":"Turkey","name_adm1":"Nevşehir","name_adm2":"Derinkuyu","name_en":"Derinkuyu"},"geometry":{"type":"Point","coordinates":[34.73419,38.3751]}},{"type":"feature","properties":{"country_en":"Turkey","name":"Çumra","name_adm0":"Turkey","name_adm1":"Konya","name_adm2":"Çumra","name_en":"Çumra"},"geometry":{"type":"Point","coordinates":[32.77446,37.5732]}},{"type":"feature","properties":{"country_en":"Turkey","name":"Çubuk","name_adm0":"Turkey","name_adm1":"Ankara","name_adm2":"Çubuk","name_en":"Çubuk"},"geometry":{"type":"Point","coordinates":[33.03222,40.23861]}},{"type":"feature","properties":{"country_en":"Turkey","name":"Merkez","name_adm0":"Turkey","name_adm1":"Nevşehir","name_adm2":"Merkez","name_en":"Merkez"},"geometry":{"type":"Point","coordinates":[34.68537,38.60039]}},{"type":"feature","properties":{"country_en":"Turkey","name":"Ilıca","name_adm0":"Turkey","name_adm1":"İzmir","name_adm2":"Çeşme","name_en":"Ilıca"},"geometry":{"type":"Point","coordinates":[26.369169999999997,38.30528]}},{"type":"feature","properties":{"country_en":"Turkey","name":"İncirliova","name_adm0":"Turkey","name_adm1":"Aydın","name_adm2":"İncirliova","name_en":"İncirliova"},"geometry":{"type":"Point","coordinates":[27.723609999999997,37.85222]}},{"type":"feature","properties":{"country_en":"Turkey","name":"Gölhisar","name_adm0":"Turkey","name_adm1":"Burdur","name_adm2":"Gölhisar","name_en":"Horzom"},"geometry":{"type":"Point","coordinates":[29.508759999999995,37.1459]}},{"type":"feature","properties":{"country_en":"Turkey","name":"Kovancılar","name_adm0":"Turkey","name_adm1":"Elazığ","name_adm2":"Kovancılar","name_en":"Kovancılar"},"geometry":{"type":"Point","coordinates":[39.86806,38.72139]}},{"type":"feature","properties":{"country_en":"Turkey","name":"Köseköy","name_adm0":"Turkey","name_adm1":"Kocaeli","name_adm2":"Merkez","name_en":"Köseköy"},"geometry":{"type":"Point","coordinates":[29.98839,40.72453]}},{"type":"feature","properties":{"country_en":"Turkey","name":"Söğüt","name_adm0":"Turkey","name_adm1":"Muğla","name_adm2":"Marmaris","name_en":"Söğüt"},"geometry":{"type":"Point","coordinates":[28.091109999999997,36.66416999999999]}},{"type":"feature","properties":{"country_en":"Turkey","name":"Çildir","name_adm0":"Turkey","name_adm1":"Muğla","name_adm2":"Marmaris","name_en":"Çildir"},"geometry":{"type":"Point","coordinates":[28.257864999999995,36.84734499999999]}},{"type":"feature","properties":{"country_en":"Turkey","name":"Karagözler","name_adm0":"Turkey","name_adm1":"Muğla","name_adm2":"Fethiye","name_en":"Karagözler"},"geometry":{"type":"Point","coordinates":[29.091938999999996,36.621443]}},{"type":"feature","properties":{"country_en":"Turkey","name":"Çifteler","name_adm0":"Turkey","name_adm1":"Eskişehir","name_adm2":"Çifteler","name_en":"Çifteler"},"geometry":{"type":"Point","coordinates":[31.039169999999995,39.38305999999999]}},{"type":"feature","properties":{"country_en":"Turkey","name":"Demirtaş","name_adm0":"Turkey","name_adm1":"Ankara","name_adm2":"Altındağ","name_en":"Demirtaş"},"geometry":{"type":"Point","coordinates":[33.37373,40.37663]}},{"type":"feature","properties":{"country_en":"Turkey","name":"Erciş","name_adm0":"Turkey","name_adm1":"Van","name_adm2":"Erciş","name_en":"Erciş"},"geometry":{"type":"Point","coordinates":[43.33705,39.15124]}},{"type":"feature","properties":{"country_en":"Turkey","name":"Sakarya","name_adm0":"Turkey","name_adm1":"Adana","name_adm2":"Seyhan","name_en":"Sakarya"},"geometry":{"type":"Point","coordinates":[35.68843,37.17852]}},{"type":"feature","properties":{"country_en":"Turkey","name":"Merkez","name_adm0":"Turkey","name_adm1":"Hakkâri","name_adm2":"Merkez","name_en":"Merkez"},"geometry":{"type":"Point","coordinates":[43.747558,37.575059]}},{"type":"feature","properties":{"country_en":"Turkey","name":"Muratlı","name_adm0":"Turkey","name_adm1":"Tekirdağ","name_adm2":"Muratlı","name_en":"Muratlı"},"geometry":{"type":"Point","coordinates":[27.551479,41.240641]}},{"type":"feature","properties":{"country_en":"Turkey","name":"Tutak","name_adm0":"Turkey","name_adm1":"Ağrı","name_adm2":"Tutak","name_en":"Tutak"},"geometry":{"type":"Point","coordinates":[44.068908,39.551706]}},{"type":"feature","properties":{"country_en":"Turkey","name":"Çukur","name_adm0":"Turkey","name_adm1":"İstanbul","name_adm2":"Beyoğlu","name_en":"Çukur"},"geometry":{"type":"Point","coordinates":[29.4099,40.60458]}},{"type":"feature","properties":{"country_en":"Turkey","name":"Kültür","name_adm0":"Turkey","name_adm1":"Antalya","name_adm2":"Merkez","name_en":"Kültür"},"geometry":{"type":"Point","coordinates":[30.65638,36.90413]}},{"type":"feature","properties":{"country_en":"Turkey","name":"Mimar Sinan","name_adm0":"Turkey","name_adm1":"İstanbul","name_adm2":"Sultanbeyli","name_en":"Mimar Sinan"},"geometry":{"type":"Point","coordinates":[28.986179000000003,41.035037]}},{"type":"feature","properties":{"country_en":"Turkey","name":"Zara","name_adm0":"Turkey","name_adm1":"Sivas","name_adm2":"Zara","name_en":"Zara"},"geometry":{"type":"Point","coordinates":[37.77499,39.82406]}},{"type":"feature","properties":{"country_en":"Turkey","name":"Koca Dede","name_adm0":"Turkey","name_adm1":"İstanbul","name_adm2":"Fatih","name_en":"Koca Dede"},"geometry":{"type":"Point","coordinates":[29.03,40.63]}},{"type":"feature","properties":{"country_en":"Turkey","name":"İnebey","name_adm0":"Turkey","name_adm1":"İstanbul","name_adm2":"Fatih","name_en":"İnebey"},"geometry":{"type":"Point","coordinates":[29.54883,40.6443]}},{"type":"feature","properties":{"country_en":"Turkey","name":"Arakiyeci Hacı Mehmet","name_adm0":"Turkey","name_adm1":"İstanbul","name_adm2":"Üsküdar","name_en":"Arakiyeci Hacı Mehmet"},"geometry":{"type":"Point","coordinates":[29.025428,41.01295]}},{"type":"feature","properties":{"country_en":"Turkey","name":"Ziya Gökalp","name_adm0":"Turkey","name_adm1":"İstanbul","name_adm2":"Küçükçekmece","name_en":"Ziya Gökalp"},"geometry":{"type":"Point","coordinates":[28.765468,41.074471]}},{"type":"feature","properties":{"country_en":"Turkey","name":"Çerikli","name_adm0":"Turkey","name_adm1":"Kırıkkale","name_adm2":"Delice","name_en":"Çerikli"},"geometry":{"type":"Point","coordinates":[34.00278,39.89694]}},{"type":"feature","properties":{"country_en":"Turkey","name":"Gesi","name_adm0":"Turkey","name_adm1":"Kayseri","name_adm2":"Melikgazi","name_en":"Gesi"},"geometry":{"type":"Point","coordinates":[35.65923,38.7918]}},{"type":"feature","properties":{"country_en":"Turkey","name":"Gemlik","name_adm0":"Turkey","name_adm1":"Bursa","name_adm2":"Gemlik","name_en":"Gemlik"},"geometry":{"type":"Point","coordinates":[29.149429999999995,40.43509999999999]}},{"type":"feature","properties":{"country_en":"Turkey","name":"OLU DENIZ","name_adm0":"Turkey","name_adm1":"Muğla","name_adm2":"Fethiye","name_en":"OLU DENIZ"},"geometry":{"type":"Point","coordinates":[29.120635,36.551155]}},{"type":"feature","properties":{"country_en":"Turkey","name":"Tepecik","name_adm0":"Turkey","name_adm1":"Kocaeli","name_adm2":"Merkez","name_en":"Tepecik"},"geometry":{"type":"Point","coordinates":[29.988219999999995,40.632569999999994]}},{"type":"feature","properties":{"country_en":"Turkey","name":"Tekman","name_adm0":"Turkey","name_adm1":"Erzurum","name_adm2":"Tekman","name_en":"Tekman"},"geometry":{"type":"Point","coordinates":[41.50778,39.643609999999995]}},{"type":"feature","properties":{"country_en":"Turkey","name":"Çigdemtepe","name_adm0":"Turkey","name_adm1":"Ankara","name_adm2":"Yenimahalle","name_en":"Çigdemtepe"},"geometry":{"type":"Point","coordinates":[32.79189,39.99358]}},{"type":"feature","properties":{"country_en":"Turkey","name":"Barış","name_adm0":"Turkey","name_adm1":"Ankara","name_adm2":"Yenimahalle","name_en":"Barış"},"geometry":{"type":"Point","coordinates":[32.788259999999994,39.97103]}},{"type":"feature","properties":{"country_en":"Turkey","name":"Çigiltepe","name_adm0":"Turkey","name_adm1":"Ankara","name_adm2":"Mamak","name_en":"Çigiltepe"},"geometry":{"type":"Point","coordinates":[32.9161,39.95311]}},{"type":"feature","properties":{"country_en":"Turkey","name":"Murat","name_adm0":"Turkey","name_adm1":"Ankara","name_adm2":"Çankaya","name_en":"Murat"},"geometry":{"type":"Point","coordinates":[32.87427,39.90238999999999]}},{"type":"feature","properties":{"country_en":"Turkey","name":"Üreğil","name_adm0":"Turkey","name_adm1":"Ankara","name_adm2":"Mamak","name_en":"Üreğil"},"geometry":{"type":"Point","coordinates":[32.94077,39.90771]}},{"type":"feature","properties":{"country_en":"Turkey","name":"Ragip Tüzün","name_adm0":"Turkey","name_adm1":"Ankara","name_adm2":"Yenimahalle","name_en":"Ragip Tüzün"},"geometry":{"type":"Point","coordinates":[32.80843,39.9631]}},{"type":"feature","properties":{"country_en":"Turkey","name":"Yeni Turan","name_adm0":"Turkey","name_adm1":"Ankara","name_adm2":"Altındağ","name_en":"Yeni Turan"},"geometry":{"type":"Point","coordinates":[32.85053,39.952209999999994]}},{"type":"feature","properties":{"country_en":"Turkey","name":"General Zeki Doğan","name_adm0":"Turkey","name_adm1":"Ankara","name_adm2":"Mamak","name_en":"General Zeki Doğan"},"geometry":{"type":"Point","coordinates":[32.90899,39.91202]}},{"type":"feature","properties":{"country_en":"Turkey","name":"Karakusunlar","name_adm0":"Turkey","name_adm1":"Ankara","name_adm2":"Çankaya","name_en":"Karakusunlar"},"geometry":{"type":"Point","coordinates":[32.80228,39.88241]}},{"type":"feature","properties":{"country_en":"Turkey","name":"Önder","name_adm0":"Turkey","name_adm1":"Ankara","name_adm2":"Altındağ","name_en":"Önder"},"geometry":{"type":"Point","coordinates":[32.90881,39.95738]}},{"type":"feature","properties":{"country_en":"Turkey","name":"Orta Imrahor","name_adm0":"Turkey","name_adm1":"Ankara","name_adm2":"Çankaya","name_en":"Orta Imrahor"},"geometry":{"type":"Point","coordinates":[32.90143,39.893]}},{"type":"feature","properties":{"country_en":"Turkey","name":"Yatık Musluk","name_adm0":"Turkey","name_adm1":"Ankara","name_adm2":"Mamak","name_en":"Yatık Musluk"},"geometry":{"type":"Point","coordinates":[32.89304,39.94733]}},{"type":"feature","properties":{"country_en":"Turkey","name":"Aşagı İmrahor","name_adm0":"Turkey","name_adm1":"Ankara","name_adm2":"Çankaya","name_en":"Aşagı İmrahor"},"geometry":{"type":"Point","coordinates":[32.90128,39.898619999999994]}},{"type":"feature","properties":{"country_en":"Turkey","name":"Sancaktepe","name_adm0":"Turkey","name_adm1":"Ankara","name_adm2":"Keçiören","name_en":"Sancaktepe"},"geometry":{"type":"Point","coordinates":[32.81585,39.99414999999999]}},{"type":"feature","properties":{"country_en":"Turkey","name":"Çerçi Deresi","name_adm0":"Turkey","name_adm1":"Ankara","name_adm2":"Yenimahalle","name_en":"Çerçi Deresi"},"geometry":{"type":"Point","coordinates":[32.8138,39.97036]}},{"type":"feature","properties":{"country_en":"Turkey","name":"Kösk","name_adm0":"Turkey","name_adm1":"Ankara","name_adm2":"Keçiören","name_en":"Kösk"},"geometry":{"type":"Point","coordinates":[32.87473,40.002159999999996]}},{"type":"feature","properties":{"country_en":"Turkey","name":"Esentepe","name_adm0":"Turkey","name_adm1":"Ankara","name_adm2":"Yenimahalle","name_en":"Esentepe"},"geometry":{"type":"Point","coordinates":[33.779599999999995,39.77938]}},{"type":"feature","properties":{"country_en":"Turkey","name":"1.Kadriye","name_adm0":"Turkey","name_adm1":"İzmir","name_adm2":"Konak","name_en":"1.Kadriye"},"geometry":{"type":"Point","coordinates":[27.55,38.31667]}},{"type":"feature","properties":{"country_en":"Turkey","name":"Reis","name_adm0":"Turkey","name_adm1":"İzmir","name_adm2":"Konak","name_en":"Reis"},"geometry":{"type":"Point","coordinates":[27.6,37.83333]}},{"type":"feature","properties":{"country_en":"Turkey","name":"Tuzcu","name_adm0":"Turkey","name_adm1":"İzmir","name_adm2":"Konak","name_en":"Tuzcu"},"geometry":{"type":"Point","coordinates":[26.93921,38.5495]}},{"type":"feature","properties":{"country_en":"Turkey","name":"Karsiyaka","name_adm0":"Turkey","name_adm1":"Ankara","name_adm2":"Gölbaşı","name_en":"Karsiyaka"},"geometry":{"type":"Point","coordinates":[32.89249999999999,40.13969]}},{"type":"feature","properties":{"country_en":"Turkey","name":"Evren","name_adm0":"Turkey","name_adm1":"İstanbul","name_adm2":"Bağcılar","name_en":"Evren"},"geometry":{"type":"Point","coordinates":[29.761770000000002,41.10188]}},{"type":"feature","properties":{"country_en":"Turkey","name":"Baris","name_adm0":"Turkey","name_adm1":"Antalya","name_adm2":"Merkez","name_en":"Baris"},"geometry":{"type":"Point","coordinates":[30.68906,36.92579]}},{"type":"feature","properties":{"country_en":"Turkey","name":"Yeni","name_adm0":"Turkey","name_adm1":"Antalya","name_adm2":"Merkez","name_en":"Yeni"},"geometry":{"type":"Point","coordinates":[30.710929999999998,36.92232]}},{"type":"feature","properties":{"country_en":"Turkey","name":"Güzeloluk","name_adm0":"Turkey","name_adm1":"Antalya","name_adm2":"Merkez","name_en":"Güzeloluk"},"geometry":{"type":"Point","coordinates":[30.768899999999995,36.87646]}},{"type":"feature","properties":{"country_en":"Turkey","name":"Sükraniye","name_adm0":"Turkey","name_adm1":"Bursa","name_adm2":"Yıldırım","name_en":"Sükraniye"},"geometry":{"type":"Point","coordinates":[29.349999999999998,40.1525]}},{"type":"feature","properties":{"country_en":"Turkey","name":"Seker","name_adm0":"Turkey","name_adm1":"Ankara","name_adm2":"Etimesgut","name_en":"Seker"},"geometry":{"type":"Point","coordinates":[32.89921,40.59057]}},{"type":"feature","properties":{"country_en":"Turkey","name":"Akincilar","name_adm0":"Turkey","name_adm1":"Adana","name_adm2":"Yüreğir","name_en":"Akincilar"},"geometry":{"type":"Point","coordinates":[35.57509,37.67161]}},{"type":"feature","properties":{"country_en":"Turkey","name":"Güzeltepe","name_adm0":"Turkey","name_adm1":"İstanbul","name_adm2":"Eyüp","name_en":"Güzeltepe"},"geometry":{"type":"Point","coordinates":[29.399999999999995,40.83444]}},{"type":"feature","properties":{"country_en":"Turkey","name":"Yesildere","name_adm0":"Turkey","name_adm1":"Antalya","name_adm2":"Merkez","name_en":"Yesildere"},"geometry":{"type":"Point","coordinates":[30.733069999999998,36.90954]}},{"type":"feature","properties":{"country_en":"Turkey","name":"Çankaya","name_adm0":"Turkey","name_adm1":"Antalya","name_adm2":"Merkez","name_en":"Çankaya"},"geometry":{"type":"Point","coordinates":[30.676100000000005,36.93992]}},{"type":"feature","properties":{"country_en":"Turkey","name":"Yavuz Selim","name_adm0":"Turkey","name_adm1":"Antalya","name_adm2":"Merkez","name_en":"Yavuz Selim"},"geometry":{"type":"Point","coordinates":[30.68477,36.94067]}},{"type":"feature","properties":{"country_en":"Turkey","name":"Gökkusagi","name_adm0":"Turkey","name_adm1":"Ankara","name_adm2":"Çankaya","name_en":"Gökkusagi"},"geometry":{"type":"Point","coordinates":[32.81411,39.87498]}},{"type":"feature","properties":{"country_en":"Turkey","name":"Karacaoglan","name_adm0":"Turkey","name_adm1":"Adana","name_adm2":"Yüreğir","name_en":"Karacaoglan"},"geometry":{"type":"Point","coordinates":[36.2777,37.04970999999999]}},{"type":"feature","properties":{"country_en":"Turkey","name":"Esentepe","name_adm0":"Turkey","name_adm1":"Antalya","name_adm2":"Merkez","name_en":"Esentepe"},"geometry":{"type":"Point","coordinates":[30.682490000000005,36.948589999999996]}},{"type":"feature","properties":{"country_en":"Turkey","name":"Menderes","name_adm0":"Turkey","name_adm1":"Antalya","name_adm2":"Merkez","name_en":"Menderes"},"geometry":{"type":"Point","coordinates":[30.776339999999998,36.94208999999999]}},{"type":"feature","properties":{"country_en":"Turkey","name":"Doguyaka","name_adm0":"Turkey","name_adm1":"Antalya","name_adm2":"Merkez","name_en":"Doguyaka"},"geometry":{"type":"Point","coordinates":[30.74258,36.90189]}},{"type":"feature","properties":{"country_en":"Turkey","name":"Mehmet Akif Ersoy","name_adm0":"Turkey","name_adm1":"Antalya","name_adm2":"Merkez","name_en":"Mehmet Akif Ersoy"},"geometry":{"type":"Point","coordinates":[30.71855,36.92383]}},{"type":"feature","properties":{"country_en":"Turkey","name":"Hamidiye","name_adm0":"Turkey","name_adm1":"İstanbul","name_adm2":"Kağıthane","name_en":"Hamidiye"},"geometry":{"type":"Point","coordinates":[29.24932,40.359759999999994]}},{"type":"feature","properties":{"country_en":"Turkey","name":"Gebizli","name_adm0":"Turkey","name_adm1":"Antalya","name_adm2":"Merkez","name_en":"Gebizli"},"geometry":{"type":"Point","coordinates":[30.728,36.90035]}},{"type":"feature","properties":{"country_en":"Turkey","name":"Aydinlar","name_adm0":"Turkey","name_adm1":"Adana","name_adm2":"Seyhan","name_en":"Aydinlar"},"geometry":{"type":"Point","coordinates":[36.006,37.3515]}},{"type":"feature","properties":{"country_en":"Turkey","name":"Sedir","name_adm0":"Turkey","name_adm1":"Antalya","name_adm2":"Merkez","name_en":"Sedir"},"geometry":{"type":"Point","coordinates":[30.69057,36.90292]}},{"type":"feature","properties":{"country_en":"Turkey","name":"Ereğli","name_adm0":"Turkey","name_adm1":"Zonguldak","name_adm2":"Ereğli","name_en":"Ereğli"},"geometry":{"type":"Point","coordinates":[31.931709999999995,41.36691999999999]}},{"type":"feature","properties":{"country_en":"Turkey","name":"Mut","name_adm0":"Turkey","name_adm1":"Mersin","name_adm2":"Mut","name_en":"Mut"},"geometry":{"type":"Point","coordinates":[33.38718,36.71842]}},{"type":"feature","properties":{"country_en":"Turkey","name":"Sincan","name_adm0":"Turkey","name_adm1":"Ankara","name_adm2":"Sincan","name_en":"Sincan"},"geometry":{"type":"Point","coordinates":[32.49567,39.95943]}},{"type":"feature","properties":{"country_en":"Turkey","name":"İskenderun","name_adm0":"Turkey","name_adm1":"Hatay","name_adm2":"İskenderun","name_en":"İskenderun"},"geometry":{"type":"Point","coordinates":[36.08972,36.49472]}},{"type":"feature","properties":{"country_en":"Turkey","name":"Basak","name_adm0":"Turkey","name_adm1":"Ankara","name_adm2":"Mamak","name_en":"Basak"},"geometry":{"type":"Point","coordinates":[32.96678,39.95928]}},{"type":"feature","properties":{"country_en":"Turkey","name":"Efeler","name_adm0":"Turkey","name_adm1":"Aydın","name_adm2":"Yenihisar","name_en":"Efeler"},"geometry":{"type":"Point","coordinates":[27.96667,37.51667]}},{"type":"feature","properties":{"country_en":"Turkey","name":"Korutürk","name_adm0":"Turkey","name_adm1":"İzmir","name_adm2":"Balçova","name_en":"Korutürk"},"geometry":{"type":"Point","coordinates":[27.42444,38.244719999999994]}},{"type":"feature","properties":{"country_en":"Turkey","name":"Fulya","name_adm0":"Turkey","name_adm1":"İstanbul","name_adm2":"Şişli","name_en":"Fulya"},"geometry":{"type":"Point","coordinates":[28.998666,41.064258]}},{"type":"feature","properties":{"country_en":"Turkey","name":"Eminönü","name_adm0":"Turkey","name_adm1":"İstanbul","name_adm2":"Eminönü","name_en":"Eminönü"},"geometry":{"type":"Point","coordinates":[28.965519999999998,41.019282]}},{"type":"feature","properties":{"country_en":"Turkey","name":"Şereflikoçhisar","name_adm0":"Turkey","name_adm1":"Ankara","name_adm2":"Şereflikoçhisar","name_en":"Şereflikoçhisar"},"geometry":{"type":"Point","coordinates":[33.413715,38.956309]}},{"type":"feature","properties":{"country_en":"Turkey","name":"Yenihisar","name_adm0":"Turkey","name_adm1":"Aydın","name_adm2":"Yenihisar","name_en":"Yenihisar"},"geometry":{"type":"Point","coordinates":[27.278804999999995,37.523341]}},{"type":"feature","properties":{"country_en":"Turkey","name":"Bozkurt","name_adm0":"Turkey","name_adm1":"İstanbul","name_adm2":"Şişli","name_en":"Bozkurt"},"geometry":{"type":"Point","coordinates":[28.983305999999995,41.049582]}},{"type":"feature","properties":{"country_en":"Turkey","name":"Feriköy","name_adm0":"Turkey","name_adm1":"İstanbul","name_adm2":"Şişli","name_en":"Feriköy"},"geometry":{"type":"Point","coordinates":[28.982362,41.047445999999994]}},{"type":"feature","properties":{"country_en":"Turkey","name":"Kurtoglu","name_adm0":"Turkey","name_adm1":"Bursa","name_adm2":"Yıldırım","name_en":"Kurtoglu"},"geometry":{"type":"Point","coordinates":[29.073054999999997,40.181553]}},{"type":"feature","properties":{"country_en":"Turkey","name":"Cumhuriyet","name_adm0":"Turkey","name_adm1":"İstanbul","name_adm2":"Küçükçekmece","name_en":"Cumhuriyet"},"geometry":{"type":"Point","coordinates":[28.762396999999996,40.997876]}},{"type":"feature","properties":{"country_en":"Turkey","name":"Fatih","name_adm0":"Turkey","name_adm1":"İstanbul","name_adm2":"Silivri","name_en":"Fatih"},"geometry":{"type":"Point","coordinates":[28.245473499999996,41.071239]}},{"type":"feature","properties":{"country_en":"Turkey","name":"Gaziler","name_adm0":"Turkey","name_adm1":"Kocaeli","name_adm2":"Gebze","name_en":"Gaziler"},"geometry":{"type":"Point","coordinates":[29.905099999999997,40.40299]}},{"type":"feature","properties":{"country_en":"Turkey","name":"Çandir","name_adm0":"Turkey","name_adm1":"Konya","name_adm2":"Meram","name_en":"Çandir"},"geometry":{"type":"Point","coordinates":[32.60494,38.13127]}},{"type":"feature","properties":{"country_en":"Turkey","name":"Tepeköy","name_adm0":"Turkey","name_adm1":"Kocaeli","name_adm2":"Merkez","name_en":"Tepeköy"},"geometry":{"type":"Point","coordinates":[29.65862,40.68897]}},{"type":"feature","properties":{"country_en":"Turkey","name":"Atakent","name_adm0":"Turkey","name_adm1":"Gaziantep","name_adm2":"Şehitkamil","name_en":"Atakent"},"geometry":{"type":"Point","coordinates":[37.14083,36.99556]}},