{"type":"FeatureCollection","features":[{"type":"feature","properties":{"country_en":"Ukraine","name":"Blagodatnoye","name_adm0":"Ukraine","name_adm1":"Donets´ka Oblast´","name_en":"Blagodatnoye"},"geometry":{"type":"Point","coordinates":[37.41898,47.700129999999994]}},{"type":"feature","properties":{"country_en":"Ukraine","name":"Bezymennoye","name_adm0":"Ukraine","name_adm1":"Donets´ka Oblast´","name_en":"Bezymennoye"},"geometry":{"type":"Point","coordinates":[37.93815,47.10716]}},{"type":"feature","properties":{"country_en":"Ukraine","name":"Chernevtsy","name_adm0":"Ukraine","name_adm1":"Vinnyts´ka Oblast´","name_en":"Chernevtsy"},"geometry":{"type":"Point","coordinates":[27.807269999999995,49.20458]}},{"type":"feature","properties":{"country_en":"Ukraine","name":"Chulakovka","name_adm0":"Ukraine","name_adm1":"Khersons´ka Oblast´","name_en":"Chulakovka"},"geometry":{"type":"Point","coordinates":[32.3514,46.35763]}},{"type":"feature","properties":{"country_en":"Ukraine","name":"Eskhar","name_adm0":"Ukraine","name_adm1":"Kharkivs´ka Oblast´","name_en":"Eskhar"},"geometry":{"type":"Point","coordinates":[36.58831,49.79866]}},{"type":"feature","properties":{"country_en":"Ukraine","name":"Kamjanka","name_adm0":"Ukraine","name_adm1":"Cherkas´ka Oblast´","name_en":"Kamjanka"},"geometry":{"type":"Point","coordinates":[32.10396,49.0318]}},{"type":"feature","properties":{"country_en":"Ukraine","name":"Mogilev","name_adm0":"Ukraine","name_adm1":"Dnipropetrovs´ka Oblast´","name_en":"Mogilev"},"geometry":{"type":"Point","coordinates":[34.48411,48.86422]}},{"type":"feature","properties":{"country_en":"Ukraine","name":"Mikhaylovka","name_adm0":"Ukraine","name_adm1":"Zaporiz´ka Oblast´","name_en":"Mikhaylovka"},"geometry":{"type":"Point","coordinates":[35.26322,47.95304]}},{"type":"feature","properties":{"country_en":"Ukraine","name":"Mirolyubovka","name_adm0":"Ukraine","name_adm1":"Zaporiz´ka Oblast´","name_en":"Mirolyubovka"},"geometry":{"type":"Point","coordinates":[34.91036,47.74274]}},{"type":"feature","properties":{"country_en":"Ukraine","name":"Peremyshlyany","name_adm0":"Ukraine","name_adm1":"L´vivs´ka Oblast´","name_en":"Peremyshlyany"},"geometry":{"type":"Point","coordinates":[24.55846,49.66523]}},{"type":"feature","properties":{"country_en":"Ukraine","name":"Panteleymonovka","name_adm0":"Ukraine","name_adm1":"Donets´ka Oblast´","name_en":"Panteleymonovka"},"geometry":{"type":"Point","coordinates":[37.97428,48.20181]}},{"type":"feature","properties":{"country_en":"Ukraine","name":"Parishchev","name_adm0":"Ukraine","name_adm1":"Kyyivs´ka Oblast´","name_en":"Parishchev"},"geometry":{"type":"Point","coordinates":[30.193,52.242]}},{"type":"feature","properties":{"country_en":"Ukraine","name":"Sverdlovo","name_adm0":"Ukraine","name_adm1":"Odes´ka Oblast´","name_en":"Sverdlovo"},"geometry":{"type":"Point","coordinates":[30.88552,46.67217]}},{"type":"feature","properties":{"country_en":"Ukraine","name":"Trostyanets","name_adm0":"Ukraine","name_adm1":"Sums´ka Oblast´","name_en":"Trostyanets"},"geometry":{"type":"Point","coordinates":[34.96298,50.47843]}},{"type":"feature","properties":{"country_en":"Ukraine","name":"Torez","name_adm0":"Ukraine","name_adm1":"Donets´ka Oblast´","name_en":"Torez"},"geometry":{"type":"Point","coordinates":[38.59685,48.03876]}},{"type":"feature","properties":{"country_en":"Ukraine","name":"Syeverodonets'k","name_adm0":"Ukraine","name_adm1":"Luhans´ka Oblast´","name_en":"Syeverodonets'k"},"geometry":{"type":"Point","coordinates":[38.49166,48.94832]}},{"type":"feature","properties":{"country_en":"Ukraine","name":"Ustinovka","name_adm0":"Ukraine","name_adm1":"Luhans´ka Oblast´","name_en":"Ustinovka"},"geometry":{"type":"Point","coordinates":[39.54685,48.09466]}},{"type":"feature","properties":{"country_en":"Ukraine","name":"Vakhrushevo","name_adm0":"Ukraine","name_adm1":"Luhans´ka Oblast´","name_en":"Vakhrushevo"},"geometry":{"type":"Point","coordinates":[38.78043,48.15124]}},{"type":"feature","properties":{"country_en":"Ukraine","name":"Varvarovka","name_adm0":"Ukraine","name_adm1":"Zaporiz´ka Oblast´","name_en":"Varvarovka"},"geometry":{"type":"Point","coordinates":[35.13333,48.1]}},{"type":"feature","properties":{"country_en":"Ukraine","name":"Vas'kovtsy","name_adm0":"Ukraine","name_adm1":"Chernivets´ka Oblast´","name_en":"Vas'kovtsy"},"geometry":{"type":"Point","coordinates":[25.58116,49.16638999999999]}},{"type":"feature","properties":{"country_en":"Ukraine","name":"Vyshchevtarasivka","name_adm0":"Ukraine","name_adm1":"Dnipropetrovs´ka Oblast´","name_en":"Vyshchevtarasivka"},"geometry":{"type":"Point","coordinates":[34.88096,47.5685]}},{"type":"feature","properties":{"country_en":"Ukraine","name":"Aleksandrovka","name_adm0":"Ukraine","name_adm1":"Zaporiz´ka Oblast´","name_en":"Aleksandrovka"},"geometry":{"type":"Point","coordinates":[34.65,48.13333]}},{"type":"feature","properties":{"country_en":"Ukraine","name":"Aleksandrovka","name_adm0":"Ukraine","name_adm1":"Khersons´ka Oblast´","name_en":"Aleksandrovka"},"geometry":{"type":"Point","coordinates":[32.76116,46.83826]}},{"type":"feature","properties":{"country_en":"Ukraine","name":"Andreyevka","name_adm0":"Ukraine","name_adm1":"Donets´ka Oblast´","name_en":"Andreyevka"},"geometry":{"type":"Point","coordinates":[37.78936,47.85251]}},{"type":"feature","properties":{"country_en":"Ukraine","name":"Andreyevka","name_adm0":"Ukraine","name_adm1":"Zaporiz´ka Oblast´","name_en":"Andreyevka"},"geometry":{"type":"Point","coordinates":[35.15,47.96667]}},{"type":"feature","properties":{"country_en":"Ukraine","name":"Kamyshevakha","name_adm0":"Ukraine","name_adm1":"Luhans´ka Oblast´","name_en":"Kamyshevakha"},"geometry":{"type":"Point","coordinates":[39.02694,48.45139]}},{"type":"feature","properties":{"country_en":"Ukraine","name":"Kamyshevka","name_adm0":"Ukraine","name_adm1":"Donets´ka Oblast´","name_en":"Kamyshevka"},"geometry":{"type":"Point","coordinates":[37.4422,48.18528]}},{"type":"feature","properties":{"country_en":"Ukraine","name":"Kamyshi","name_adm0":"Ukraine","name_adm1":"Sums´ka Oblast´","name_en":"Kamyshi"},"geometry":{"type":"Point","coordinates":[34.47633,50.31121]}},{"type":"feature","properties":{"country_en":"Ukraine","name":"Kaplevka","name_adm0":"Ukraine","name_adm1":"Chernivets´ka Oblast´","name_en":"Kaplevka"},"geometry":{"type":"Point","coordinates":[26.51036,48.44848]}},{"type":"feature","properties":{"country_en":"Ukraine","name":"Kapustintsy","name_adm0":"Ukraine","name_adm1":"Sums´ka Oblast´","name_en":"Kapustintsy"},"geometry":{"type":"Point","coordinates":[34.15148,50.6298]}},{"type":"feature","properties":{"country_en":"Ukraine","name":"Kara-Tobel'","name_adm0":"Ukraine","name_adm1":"Avtonomna Respublika Krym","name_en":"Kara-Tobel'"},"geometry":{"type":"Point","coordinates":[34.93333,45.63333]}},{"type":"feature","properties":{"country_en":"Ukraine","name":"Kazatskoye","name_adm0":"Ukraine","name_adm1":"Odes´ka Oblast´","name_en":"Kazatskoye"},"geometry":{"type":"Point","coordinates":[30.0452,46.34881]}},{"type":"feature","properties":{"country_en":"Ukraine","name":"Khatki","name_adm0":"Ukraine","name_adm1":"L´vivs´ka Oblast´","name_en":"Khatki"},"geometry":{"type":"Point","coordinates":[23.21667,50.01666999999999]}},{"type":"feature","properties":{"country_en":"Ukraine","name":"Khibalovka","name_adm0":"Ukraine","name_adm1":"Chernihivs´ka Oblast´","name_en":"Khibalovka"},"geometry":{"type":"Point","coordinates":[31.85846,51.34337]}},{"type":"feature","properties":{"country_en":"Ukraine","name":"Khmelevoye","name_adm0":"Ukraine","name_adm1":"Kirovohrads´ka Oblast´","name_en":"Khmelevoye"},"geometry":{"type":"Point","coordinates":[31.402859999999997,48.57286]}},{"type":"feature","properties":{"country_en":"Ukraine","name":"Kholmy","name_adm0":"Ukraine","name_adm1":"Chernihivs´ka Oblast´","name_en":"Kholmy"},"geometry":{"type":"Point","coordinates":[31.1253,52.1526]}},{"type":"feature","properties":{"country_en":"Ukraine","name":"Konstantinovka","name_adm0":"Ukraine","name_adm1":"Kharkivs´ka Oblast´","name_en":"Konstantinovka"},"geometry":{"type":"Point","coordinates":[36.255,49.77803999999999]}},{"type":"feature","properties":{"country_en":"Ukraine","name":"Konstantinovka","name_adm0":"Ukraine","name_adm1":"Kirovohrads´ka Oblast´","name_en":"Konstantinovka"},"geometry":{"type":"Point","coordinates":[33.07314,48.81071]}},{"type":"feature","properties":{"country_en":"Ukraine","name":"Kopani","name_adm0":"Ukraine","name_adm1":"Zaporiz´ka Oblast´","name_en":"Kopani"},"geometry":{"type":"Point","coordinates":[35.75,47.816669999999995]}},{"type":"feature","properties":{"country_en":"Ukraine","name":"Kordelevka","name_adm0":"Ukraine","name_adm1":"Vinnyts´ka Oblast´","name_en":"Kordelevka"},"geometry":{"type":"Point","coordinates":[28.55014,49.52155]}},{"type":"feature","properties":{"country_en":"Ukraine","name":"Krasnogorovka","name_adm0":"Ukraine","name_adm1":"Donets´ka Oblast´","name_en":"Krasnogorovka"},"geometry":{"type":"Point","coordinates":[37.51667,48.01667]}},{"type":"feature","properties":{"country_en":"Ukraine","name":"Krasnohirka","name_adm0":"Ukraine","name_adm1":"Kirovohrads´ka Oblast´","name_en":"Krasnohirka"},"geometry":{"type":"Point","coordinates":[31.51316,47.83813]}},{"type":"feature","properties":{"country_en":"Ukraine","name":"Krasnoil'sk","name_adm0":"Ukraine","name_adm1":"Chernivets´ka Oblast´","name_en":"Krasnoil'sk"},"geometry":{"type":"Point","coordinates":[25.57431,48.01659]}},{"type":"feature","properties":{"country_en":"Ukraine","name":"Martynosh","name_adm0":"Ukraine","name_adm1":"Kirovohrads´ka Oblast´","name_en":"Martynosh"},"geometry":{"type":"Point","coordinates":[31.78178,48.76163]}},{"type":"feature","properties":{"country_en":"Ukraine","name":"Matusov","name_adm0":"Ukraine","name_adm1":"Cherkas´ka Oblast´","name_en":"Matusov"},"geometry":{"type":"Point","coordinates":[31.55968,49.04831]}},{"type":"feature","properties":{"country_en":"Ukraine","name":"Mikhaylovskiy","name_adm0":"Ukraine","name_adm1":"Luhans´ka Oblast´","name_en":"Mikhaylovskiy"},"geometry":{"type":"Point","coordinates":[39.26950999999999,48.87312]}},{"type":"feature","properties":{"country_en":"Ukraine","name":"Mikhaylyanka","name_adm0":"Ukraine","name_adm1":"Chernivets´ka Oblast´","name_en":"Mikhaylyanka"},"geometry":{"type":"Point","coordinates":[26.61093,48.38418]}},{"type":"feature","properties":{"country_en":"Ukraine","name":"Mikhaylyukov","name_adm0":"Ukraine","name_adm1":"Luhans´ka Oblast´","name_en":"Mikhaylyukov"},"geometry":{"type":"Point","coordinates":[39.29891,48.98575]}},{"type":"feature","properties":{"country_en":"Ukraine","name":"Mizyakov","name_adm0":"Ukraine","name_adm1":"Vinnyts´ka Oblast´","name_en":"Mizyakov"},"geometry":{"type":"Point","coordinates":[28.36904,49.39882999999999]}},{"type":"feature","properties":{"country_en":"Ukraine","name":"Monchin","name_adm0":"Ukraine","name_adm1":"Vinnyts´ka Oblast´","name_en":"Monchin"},"geometry":{"type":"Point","coordinates":[28.97807,49.4213]}},{"type":"feature","properties":{"country_en":"Ukraine","name":"Moskovskiy Bobrik","name_adm0":"Ukraine","name_adm1":"Sums´ka Oblast´","name_en":"Moskovskiy Bobrik"},"geometry":{"type":"Point","coordinates":[34.34972,50.42206]}},{"type":"feature","properties":{"country_en":"Ukraine","name":"Molodogvardeysk","name_adm0":"Ukraine","name_adm1":"Luhans´ka Oblast´","name_en":"Molodogvardeysk"},"geometry":{"type":"Point","coordinates":[39.65824,48.34578]}},{"type":"feature","properties":{"country_en":"Ukraine","name":"Mutino","name_adm0":"Ukraine","name_adm1":"Sums´ka Oblast´","name_en":"Mutino"},"geometry":{"type":"Point","coordinates":[35.3929,51.4966]}},{"type":"feature","properties":{"country_en":"Ukraine","name":"Nikolayevka","name_adm0":"Ukraine","name_adm1":"Dnipropetrovs´ka Oblast´","name_en":"Nikolayevka"},"geometry":{"type":"Point","coordinates":[34.8,48.58333]}},{"type":"feature","properties":{"country_en":"Ukraine","name":"Nikolayevka","name_adm0":"Ukraine","name_adm1":"Donets´ka Oblast´","name_en":"Nikolayevka"},"geometry":{"type":"Point","coordinates":[37.68333,48.33333]}},{"type":"feature","properties":{"country_en":"Ukraine","name":"Nikolayevka","name_adm0":"Ukraine","name_adm1":"Odes´ka Oblast´","name_en":"Nikolayevka"},"geometry":{"type":"Point","coordinates":[30.28889,46.64013]}},{"type":"feature","properties":{"country_en":"Ukraine","name":"Nikolayevka","name_adm0":"Ukraine","name_adm1":"Mykolayivs´ka Oblast´","name_en":"Nikolayevka"},"geometry":{"type":"Point","coordinates":[30.95,47.8]}},{"type":"feature","properties":{"country_en":"Ukraine","name":"Nikolayevka","name_adm0":"Ukraine","name_adm1":"Khersons´ka Oblast´","name_en":"Nikolayevka"},"geometry":{"type":"Point","coordinates":[33.254859999999994,46.78808]}},{"type":"feature","properties":{"country_en":"Ukraine","name":"Nikolaypol'ye","name_adm0":"Ukraine","name_adm1":"Donets´ka Oblast´","name_en":"Nikolaypol'ye"},"geometry":{"type":"Point","coordinates":[37.55874,48.52696]}},{"type":"feature","properties":{"country_en":"Ukraine","name":"Petrovskoye","name_adm0":"Ukraine","name_adm1":"Donets´ka Oblast´","name_en":"Petrovskoye"},"geometry":{"type":"Point","coordinates":[37.16468,47.66125]}},{"type":"feature","properties":{"country_en":"Ukraine","name":"Pirogovtsy","name_adm0":"Ukraine","name_adm1":"Khmel´nyts´ka Oblast´","name_en":"Pirogovtsy"},"geometry":{"type":"Point","coordinates":[27.25149,49.38664]}},{"type":"feature","properties":{"country_en":"Ukraine","name":"Podluby","name_adm0":"Ukraine","name_adm1":"Zhytomyrs´ka Oblast´","name_en":"Podluby"},"geometry":{"type":"Point","coordinates":[27.748649999999998,50.92313999999999]}},{"type":"feature","properties":{"country_en":"Ukraine","name":"Sladkaya Balka","name_adm0":"Ukraine","name_adm1":"Zaporiz´ka Oblast´","name_en":"Sladkaya Balka"},"geometry":{"type":"Point","coordinates":[35.78855,47.38433]}},{"type":"feature","properties":{"country_en":"Ukraine","name":"Slatino","name_adm0":"Ukraine","name_adm1":"Kharkivs´ka Oblast´","name_en":"Slatino"},"geometry":{"type":"Point","coordinates":[36.15376,50.210409999999996]}},{"type":"feature","properties":{"country_en":"Ukraine","name":"Ukrains'ke","name_adm0":"Ukraine","name_adm1":"Chernihivs´ka Oblast´","name_en":"Ukrains'ke"},"geometry":{"type":"Point","coordinates":[31.62808,51.41261999999999]}},{"type":"feature","properties":{"country_en":"Ukraine","name":"Ul'yanovka","name_adm0":"Ukraine","name_adm1":"Kirovohrads´ka Oblast´","name_en":"Ul'yanovka"},"geometry":{"type":"Point","coordinates":[32.11667,48.71667]}},{"type":"feature","properties":{"country_en":"Ukraine","name":"Uralovo","name_adm0":"Ukraine","name_adm1":"Sums´ka Oblast´","name_en":"Uralovo"},"geometry":{"type":"Point","coordinates":[34.8013,51.3733]}},{"type":"feature","properties":{"country_en":"Ukraine","name":"Uritskoye","name_adm0":"Ukraine","name_adm1":"Zaporiz´ka Oblast´","name_en":"Uritskoye"},"geometry":{"type":"Point","coordinates":[35.44471,47.05474]}},{"type":"feature","properties":{"country_en":"Ukraine","name":"Uspenka","name_adm0":"Ukraine","name_adm1":"Donets´ka Oblast´","name_en":"Uspenka"},"geometry":{"type":"Point","coordinates":[38.70695,47.72854999999999]}},{"type":"feature","properties":{"country_en":"Ukraine","name":"Uspenovka","name_adm0":"Ukraine","name_adm1":"Zaporiz´ka Oblast´","name_en":"Uspenovka"},"geometry":{"type":"Point","coordinates":[35.9,47.46667]}},{"type":"feature","properties":{"country_en":"Ukraine","name":"Ustimovka","name_adm0":"Ukraine","name_adm1":"Poltavs´ka Oblast´","name_en":"Ustimovka"},"geometry":{"type":"Point","coordinates":[35.1414,49.24616]}},{"type":"feature","properties":{"country_en":"Ukraine","name":"Ustimovka","name_adm0":"Ukraine","name_adm1":"Kharkivs´ka Oblast´","name_en":"Ustimovka"},"geometry":{"type":"Point","coordinates":[37.06556,49.46278]}},{"type":"feature","properties":{"country_en":"Ukraine","name":"Ustivitsa","name_adm0":"Ukraine","name_adm1":"Poltavs´ka Oblast´","name_en":"Ustivitsa"},"geometry":{"type":"Point","coordinates":[33.80293,49.86076]}},{"type":"feature","properties":{"country_en":"Ukraine","name":"Zhovtnevoye","name_adm0":"Ukraine","name_adm1":"Kirovohrads´ka Oblast´","name_en":"Zhovtnevoye"},"geometry":{"type":"Point","coordinates":[31.98333,48.51667]}},{"type":"feature","properties":{"country_en":"Ukraine","name":"Zhuravlevka","name_adm0":"Ukraine","name_adm1":"Vinnyts´ka Oblast´","name_en":"Zhuravlevka"},"geometry":{"type":"Point","coordinates":[27.58085,49.01742]}},{"type":"feature","properties":{"country_en":"Ukraine","name":"Zhurbintsy","name_adm0":"Ukraine","name_adm1":"Vinnyts´ka Oblast´","name_en":"Zhurbintsy"},"geometry":{"type":"Point","coordinates":[28.952719999999996,49.65473999999999]}},{"type":"feature","properties":{"country_en":"Ukraine","name":"Znamenka Vtoraya","name_adm0":"Ukraine","name_adm1":"Kirovohrads´ka Oblast´","name_en":"Znamenka Vtoraya"},"geometry":{"type":"Point","coordinates":[32.591739999999994,48.71143]}},{"type":"feature","properties":{"country_en":"Ukraine","name":"Znamenovka","name_adm0":"Ukraine","name_adm1":"Dnipropetrovs´ka Oblast´","name_en":"Znamenovka"},"geometry":{"type":"Point","coordinates":[35.45946,48.63477]}},{"type":"feature","properties":{"country_en":"Ukraine","name":"Zolotoy Kolodez'","name_adm0":"Ukraine","name_adm1":"Donets´ka Oblast´","name_en":"Zolotoy Kolodez'"},"geometry":{"type":"Point","coordinates":[37.23558,48.53012999999999]}},{"type":"feature","properties":{"country_en":"Ukraine","name":"Zolotoye","name_adm0":"Ukraine","name_adm1":"Luhans´ka Oblast´","name_en":"Zolotoye"},"geometry":{"type":"Point","coordinates":[38.51459,48.69263999999999]}},{"type":"feature","properties":{"country_en":"Ukraine","name":"Leninskoye","name_adm0":"Ukraine","name_adm1":"Donets´ka Oblast´","name_en":"Leninskoye"},"geometry":{"type":"Point","coordinates":[37.90715,48.37358]}},{"type":"feature","properties":{"country_en":"Ukraine","name":"Novopetrovka","name_adm0":"Ukraine","name_adm1":"Zaporiz´ka Oblast´","name_en":"Novopetrovka"},"geometry":{"type":"Point","coordinates":[34.54006,47.28978]}},{"type":"feature","properties":{"country_en":"Ukraine","name":"Peschanoye","name_adm0":"Ukraine","name_adm1":"Sums´ka Oblast´","name_en":"Peschanoye"},"geometry":{"type":"Point","coordinates":[34.444,51.6322]}},{"type":"feature","properties":{"country_en":"Ukraine","name":"Babai","name_adm0":"Ukraine","name_adm1":"Kharkivs´ka Oblast´","name_en":"Babai"},"geometry":{"type":"Point","coordinates":[36.194919999999996,49.89633]}},{"type":"feature","properties":{"country_en":"Ukraine","name":"Belyayevka","name_adm0":"Ukraine","name_adm1":"Odes´ka Oblast´","name_en":"Belyayevka"},"geometry":{"type":"Point","coordinates":[30.43333,46.55]}},{"type":"feature","properties":{"country_en":"Ukraine","name":"Ivanovka","name_adm0":"Ukraine","name_adm1":"Zaporiz´ka Oblast´","name_en":"Ivanovka"},"geometry":{"type":"Point","coordinates":[34.75476,47.47972]}},{"type":"feature","properties":{"country_en":"Ukraine","name":"Krasnoarmeysk","name_adm0":"Ukraine","name_adm1":"Donets´ka Oblast´","name_en":"Krasnoarmeysk"},"geometry":{"type":"Point","coordinates":[37.92739,47.23254]}},{"type":"feature","properties":{"country_en":"Ukraine","name":"Ol'ginka","name_adm0":"Ukraine","name_adm1":"Donets´ka Oblast´","name_en":"Ol'ginka"},"geometry":{"type":"Point","coordinates":[37.5124,47.69633]}},{"type":"feature","properties":{"country_en":"Ukraine","name":"Obertin","name_adm0":"Ukraine","name_adm1":"Ivano-Frankivs´ka Oblast´","name_en":"Obertin"},"geometry":{"type":"Point","coordinates":[25.17012,48.70032]}},{"type":"feature","properties":{"country_en":"Ukraine","name":"Semenovka","name_adm0":"Ukraine","name_adm1":"Mykolayivs´ka Oblast´","name_en":"Semenovka"},"geometry":{"type":"Point","coordinates":[31.061149999999998,47.94661]}},{"type":"feature","properties":{"country_en":"Ukraine","name":"Smotrich","name_adm0":"Ukraine","name_adm1":"Khmel´nyts´ka Oblast´","name_en":"Smotrich"},"geometry":{"type":"Point","coordinates":[26.56149,48.94939]}},{"type":"feature","properties":{"country_en":"Ukraine","name":"Starobeshevo","name_adm0":"Ukraine","name_adm1":"Donets´ka Oblast´","name_en":"Starobeshevo"},"geometry":{"type":"Point","coordinates":[38.03051,47.75038]}},{"type":"feature","properties":{"country_en":"Ukraine","name":"Torchin","name_adm0":"Ukraine","name_adm1":"Volyns´ka Oblast´","name_en":"Torchin"},"geometry":{"type":"Point","coordinates":[25.00178,50.76529]}},{"type":"feature","properties":{"country_en":"Ukraine","name":"Svalyava","name_adm0":"Ukraine","name_adm1":"Zakarpats´ka Oblast´","name_en":"Svalyava"},"geometry":{"type":"Point","coordinates":[22.99578,48.54853]}},{"type":"feature","properties":{"country_en":"Ukraine","name":"Zdolbunov","name_adm0":"Ukraine","name_adm1":"Rivnens´ka Oblast´","name_en":"Zdolbunov"},"geometry":{"type":"Point","coordinates":[26.242509999999996,50.5206]}},{"type":"feature","properties":{"country_en":"Ukraine","name":"Zborov","name_adm0":"Ukraine","name_adm1":"Ternopil´s´ka Oblast´","name_en":"Zborov"},"geometry":{"type":"Point","coordinates":[25.14096,49.66483999999999]}},{"type":"feature","properties":{"country_en":"Ukraine","name":"Zhukovka","name_adm0":"Ukraine","name_adm1":"Avtonomna Respublika Krym","name_en":"Zhukovka"},"geometry":{"type":"Point","coordinates":[36.625609999999995,45.37093999999999]}},{"type":"feature","properties":{"country_en":"Ukraine","name":"Yuzhnoye","name_adm0":"Ukraine","name_adm1":"Odes´ka Oblast´","name_en":"Yuzhnoye"},"geometry":{"type":"Point","coordinates":[30.15,46.26667]}},{"type":"feature","properties":{"country_en":"Ukraine","name":"Kremenchuk","name_adm0":"Ukraine","name_adm1":"Poltavs´ka Oblast´","name_en":"Kremenchuk"},"geometry":{"type":"Point","coordinates":[33.41972,49.09725]}},{"type":"feature","properties":{"country_en":"Ukraine","name":"Krasnaya Akchera","name_adm0":"Ukraine","name_adm1":"Avtonomna Respublika Krym","name_en":"Krasnaya Akchera"},"geometry":{"type":"Point","coordinates":[34.70127999999999,45.8677]}},{"type":"feature","properties":{"country_en":"Ukraine","name":"Verbskiye","name_adm0":"Ukraine","name_adm1":"Dnipropetrovs´ka Oblast´","name_en":"Verbskiye"},"geometry":{"type":"Point","coordinates":[35.90095,48.58870999999999]}},{"type":"feature","properties":{"country_en":"Ukraine","name":"Uvarovo","name_adm0":"Ukraine","name_adm1":"Avtonomna Respublika Krym","name_en":"Uvarovo"},"geometry":{"type":"Point","coordinates":[35.66603,45.26588]}},{"type":"feature","properties":{"country_en":"Ukraine","name":"Staryy Saltov","name_adm0":"Ukraine","name_adm1":"Kharkivs´ka Oblast´","name_en":"Staryy Saltov"},"geometry":{"type":"Point","coordinates":[36.79393,50.08268]}},{"type":"feature","properties":{"country_en":"Ukraine","name":"Baranovka","name_adm0":"Ukraine","name_adm1":"Zhytomyrs´ka Oblast´","name_en":"Baranovka"},"geometry":{"type":"Point","coordinates":[27.662199999999995,50.29691]}},{"type":"feature","properties":{"country_en":"Ukraine","name":"Chernetchina","name_adm0":"Ukraine","name_adm1":"Dnipropetrovs´ka Oblast´","name_en":"Chernetchina"},"geometry":{"type":"Point","coordinates":[34.77253,49.12319]}},{"type":"feature","properties":{"country_en":"Ukraine","name":"Katerinovka","name_adm0":"Ukraine","name_adm1":"Khersons´ka Oblast´","name_en":"Katerinovka"},"geometry":{"type":"Point","coordinates":[32.18032,47.04774999999999]}},{"type":"feature","properties":{"country_en":"Ukraine","name":"Kazach'i Lageri","name_adm0":"Ukraine","name_adm1":"Khersons´ka Oblast´","name_en":"Kazach'i Lageri"},"geometry":{"type":"Point","coordinates":[32.9776,46.70371999999999]}},{"type":"feature","properties":{"country_en":"Ukraine","name":"Krasnoye","name_adm0":"Ukraine","name_adm1":"L´vivs´ka Oblast´","name_en":"Krasnoye"},"geometry":{"type":"Point","coordinates":[24.6134,49.914469999999994]}},{"type":"feature","properties":{"country_en":"Ukraine","name":"Malaya Viska","name_adm0":"Ukraine","name_adm1":"Kirovohrads´ka Oblast´","name_en":"Malaya Viska"},"geometry":{"type":"Point","coordinates":[31.636569999999995,48.64307999999999]}},{"type":"feature","properties":{"country_en":"Ukraine","name":"Pereshchepino","name_adm0":"Ukraine","name_adm1":"Dnipropetrovs´ka Oblast´","name_en":"Pereshchepino"},"geometry":{"type":"Point","coordinates":[35.36886,49.01807]}},{"type":"feature","properties":{"country_en":"Ukraine","name":"Sobolevka","name_adm0":"Ukraine","name_adm1":"Vinnyts´ka Oblast´","name_en":"Sobolevka"},"geometry":{"type":"Point","coordinates":[28.65096,49.33604]}},{"type":"feature","properties":{"country_en":"Ukraine","name":"Sukhovolya","name_adm0":"Ukraine","name_adm1":"L´vivs´ka Oblast´","name_en":"Sukhovolya"},"geometry":{"type":"Point","coordinates":[23.8377,49.82426]}},{"type":"feature","properties":{"country_en":"Ukraine","name":"Styla","name_adm0":"Ukraine","name_adm1":"Donets´ka Oblast´","name_en":"Styla"},"geometry":{"type":"Point","coordinates":[37.843059999999994,47.69529]}},{"type":"feature","properties":{"country_en":"Ukraine","name":"Vasishchevo","name_adm0":"Ukraine","name_adm1":"Kharkivs´ka Oblast´","name_en":"Vasishchevo"},"geometry":{"type":"Point","coordinates":[36.32691,49.82852]}},{"type":"feature","properties":{"country_en":"Ukraine","name":"Berezna","name_adm0":"Ukraine","name_adm1":"Kyyivs´ka Oblast´","name_en":"Berezna"},"geometry":{"type":"Point","coordinates":[29.95,51.066669999999995]}},{"type":"feature","properties":{"country_en":"Ukraine","name":"Petrovskoye","name_adm0":"Ukraine","name_adm1":"Kharkivs´ka Oblast´","name_en":"Petrovskoye"},"geometry":{"type":"Point","coordinates":[35.73444,50.00806]}},{"type":"feature","properties":{"country_en":"Ukraine","name":"Berezne","name_adm0":"Ukraine","name_adm1":"Rivnens´ka Oblast´","name_en":"Berezne"},"geometry":{"type":"Point","coordinates":[26.75106,51.00094]}},{"type":"feature","properties":{"country_en":"Ukraine","name":"Bezlyudovka","name_adm0":"Ukraine","name_adm1":"Kharkivs´ka Oblast´","name_en":"Bezlyudovka"},"geometry":{"type":"Point","coordinates":[36.74547,50.382279999999994]}},{"type":"feature","properties":{"country_en":"Ukraine","name":"Dergachi","name_adm0":"Ukraine","name_adm1":"Kharkivs´ka Oblast´","name_en":"Dergachi"},"geometry":{"type":"Point","coordinates":[35.4808,49.96385]}},{"type":"feature","properties":{"country_en":"Ukraine","name":"Dachnoye","name_adm0":"Ukraine","name_adm1":"Odes´ka Oblast´","name_en":"Dachnoye"},"geometry":{"type":"Point","coordinates":[30.54823,46.58442]}},{"type":"feature","properties":{"country_en":"Ukraine","name":"Parkovoye","name_adm0":"Ukraine","name_adm1":"Avtonomna Respublika Krym","name_en":"Parkovoye"},"geometry":{"type":"Point","coordinates":[33.90783999999999,44.408919999999995]}},{"type":"feature","properties":{"country_en":"Ukraine","name":"Udachnoye","name_adm0":"Ukraine","name_adm1":"Donets´ka Oblast´","name_en":"Udachnoye"},"geometry":{"type":"Point","coordinates":[36.98662999999999,48.23864]}},{"type":"feature","properties":{"country_en":"Ukraine","name":"Zhvirka","name_adm0":"Ukraine","name_adm1":"L´vivs´ka Oblast´","name_en":"Zhvirka"},"geometry":{"type":"Point","coordinates":[24.26726,50.46597]}},{"type":"feature","properties":{"country_en":"Ukraine","name":"Opolznevoye","name_adm0":"Ukraine","name_adm1":"Avtonomna Respublika Krym","name_en":"Opolznevoye"},"geometry":{"type":"Point","coordinates":[33.94016,44.40865]}},{"type":"feature","properties":{"country_en":"Ukraine","name":"Verkhovina","name_adm0":"Ukraine","name_adm1":"Ivano-Frankivs´ka Oblast´","name_en":"Verkhovina"},"geometry":{"type":"Point","coordinates":[24.79112,48.15571]}},{"type":"feature","properties":{"country_en":"Ukraine","name":"Usatovo","name_adm0":"Ukraine","name_adm1":"Odes´ka Oblast´","name_en":"Usatovo"},"geometry":{"type":"Point","coordinates":[30.6596,46.53296]}},{"type":"feature","properties":{"country_en":"Ukraine","name":"Zolochev","name_adm0":"Ukraine","name_adm1":"L´vivs´ka Oblast´","name_en":"Zolochev"},"geometry":{"type":"Point","coordinates":[24.89436,49.80597]}},{"type":"feature","properties":{"country_en":"Ukraine","name":"Kotel'va","name_adm0":"Ukraine","name_adm1":"Poltavs´ka Oblast´","name_en":"Kotel'va"},"geometry":{"type":"Point","coordinates":[34.75862,50.06864]}},{"type":"feature","properties":{"country_en":"Ukraine","name":"Nikita","name_adm0":"Ukraine","name_adm1":"Avtonomna Respublika Krym","name_en":"Nikita"},"geometry":{"type":"Point","coordinates":[34.2384,44.51564]}},{"type":"feature","properties":{"country_en":"Ukraine","name":"Zaporiz´ka Oblast´","name_adm0":"Ukraine","name_adm1":"Zaporiz´ka Oblast´","name_en":"Zaporizhia Oblast"},"geometry":{"type":"Point","coordinates":[35.1628585,47.842888]}},{"type":"feature","properties":{"country_en":"Ukraine","name":"Zhytomyrs´ka Oblast´","name_adm0":"Ukraine","name_adm1":"Zhytomyrs´ka Oblast´","name_en":"Zhytomyr Oblast"},"geometry":{"type":"Point","coordinates":[28.486433,50.285502]}},{"type":"feature","properties":{"country_en":"Ukraine","name":"Brody","name_adm0":"Ukraine","name_adm1":"L´vivs´ka Oblast´","name_en":"Brody"},"geometry":{"type":"Point","coordinates":[25.15027,50.08791]}},{"type":"feature","properties":{"country_en":"Ukraine","name":"Bilhorod-Dnistrovs'kyy","name_adm0":"Ukraine","name_adm1":"Odes´ka Oblast´","name_en":"Bilhorod-Dnistrovs'kyy"},"geometry":{"type":"Point","coordinates":[30.349379999999996,46.1952]}},{"type":"feature","properties":{"country_en":"Ukraine","name":"Stryy","name_adm0":"Ukraine","name_adm1":"L´vivs´ka Oblast´","name_en":"Stryy"},"geometry":{"type":"Point","coordinates":[23.85609,49.26223]}},{"type":"feature","properties":{"country_en":"Ukraine","name":"Skadovsk","name_adm0":"Ukraine","name_adm1":"Khersons´ka Oblast´","name_en":"Skadovsk"},"geometry":{"type":"Point","coordinates":[32.91124,46.1161]}},{"type":"feature","properties":{"country_en":"Ukraine","name":"Konstantinovka","name_adm0":"Ukraine","name_adm1":"Mykolayivs´ka Oblast´","name_en":"Konstantinovka"},"geometry":{"type":"Point","coordinates":[31.77444,47.80508]}},{"type":"feature","properties":{"country_en":"Ukraine","name":"Konstantinovka","name_adm0":"Ukraine","name_adm1":"Donets´ka Oblast´","name_en":"Konstantinovka"},"geometry":{"type":"Point","coordinates":[37.40701,47.86651]}},{"type":"feature","properties":{"country_en":"Ukraine","name":"Pesochin","name_adm0":"Ukraine","name_adm1":"Kharkivs´ka Oblast´","name_en":"Pesochin"},"geometry":{"type":"Point","coordinates":[36.10841,49.95642]}},{"type":"feature","properties":{"country_en":"Ukraine","name":"Spasskoye","name_adm0":"Ukraine","name_adm1":"Dnipropetrovs´ka Oblast´","name_en":"Spasskoye"},"geometry":{"type":"Point","coordinates":[35.05242,48.65983]}},{"type":"feature","properties":{"country_en":"Ukraine","name":"Donets´ka Oblast´","name_adm0":"Ukraine","name_adm1":"Donets´ka Oblast´","name_en":"Donetsk Oblast"},"geometry":{"type":"Point","coordinates":[37.787627,47.99681399999999]}},{"type":"feature","properties":{"country_en":"Ukraine","name":"Gaspra","name_adm0":"Ukraine","name_adm1":"Avtonomna Respublika Krym","name_en":"Gaspra"},"geometry":{"type":"Point","coordinates":[34.10297,44.43364]}},{"type":"feature","properties":{"country_en":"Ukraine","name":"Foros","name_adm0":"Ukraine","name_adm1":"Avtonomna Respublika Krym","name_en":"Foros"},"geometry":{"type":"Point","coordinates":[33.78798,44.39214]}},{"type":"feature","properties":{"country_en":"Ukraine","name":"Malyy Mayak","name_adm0":"Ukraine","name_adm1":"Avtonomna Respublika Krym","name_en":"Malyy Mayak"},"geometry":{"type":"Point","coordinates":[34.36421,44.61508]}},{"type":"feature","properties":{"country_en":"Ukraine","name":"Kanev","name_adm0":"Ukraine","name_adm1":"Cherkas´ka Oblast´","name_en":"Kanev"},"geometry":{"type":"Point","coordinates":[31.46004,49.75182]}},{"type":"feature","properties":{"country_en":"Ukraine","name":"Chinadiyevo","name_adm0":"Ukraine","name_adm1":"Zakarpats´ka Oblast´","name_en":"Chinadiyevo"},"geometry":{"type":"Point","coordinates":[22.821699999999996,48.48179]}},{"type":"feature","properties":{"country_en":"Ukraine","name":"Pochayev","name_adm0":"Ukraine","name_adm1":"Ternopil´s´ka Oblast´","name_en":"Pochayev"},"geometry":{"type":"Point","coordinates":[25.51183,50.00508]}},{"type":"feature","properties":{"country_en":"Ukraine","name":"Gavrilovka","name_adm0":"Ukraine","name_adm1":"Kharkivs´ka Oblast´","name_en":"Gavrilovka"},"geometry":{"type":"Point","coordinates":[36.05,49.98333]}},{"type":"feature","properties":{"country_en":"Ukraine","name":"Kolenkovtsy","name_adm0":"Ukraine","name_adm1":"Chernivets´ka Oblast´","name_en":"Kolenkovtsy"},"geometry":{"type":"Point","coordinates":[26.12462,48.41254]}},{"type":"feature","properties":{"country_en":"Ukraine","name":"Larino","name_adm0":"Ukraine","name_adm1":"Donets´ka Oblast´","name_en":"Larino"},"geometry":{"type":"Point","coordinates":[37.92704,47.89225]}},{"type":"feature","properties":{"country_en":"Ukraine","name":"Pobednoye","name_adm0":"Ukraine","name_adm1":"Avtonomna Respublika Krym","name_en":"Pobednoye"},"geometry":{"type":"Point","coordinates":[33.43204,45.28844999999999]}},{"type":"feature","properties":{"country_en":"Ukraine","name":"Sokolov","name_adm0":"Ukraine","name_adm1":"Kharkivs´ka Oblast´","name_en":"Sokolov"},"geometry":{"type":"Point","coordinates":[36.19135,49.71209999999999]}},{"type":"feature","properties":{"country_en":"Ukraine","name":"Sokolovka","name_adm0":"Ukraine","name_adm1":"Khmel´nyts´ka Oblast´","name_en":"Sokolovka"},"geometry":{"type":"Point","coordinates":[26.86248,49.15886]}},{"type":"feature","properties":{"country_en":"Ukraine","name":"Sosnovka","name_adm0":"Ukraine","name_adm1":"L´vivs´ka Oblast´","name_en":"Sosnovka"},"geometry":{"type":"Point","coordinates":[24.25139,50.289699999999996]}},{"type":"feature","properties":{"country_en":"Ukraine","name":"Sovyets'kyy","name_adm0":"Ukraine","name_adm1":"Avtonomna Respublika Krym","name_en":"Sovyets'kyy"},"geometry":{"type":"Point","coordinates":[34.92463,45.34267]}},{"type":"feature","properties":{"country_en":"Ukraine","name":"Syrai","name_adm0":"Ukraine","name_adm1":"Chernihivs´ka Oblast´","name_en":"Syrai"},"geometry":{"type":"Point","coordinates":[31.041949999999996,50.84743]}},{"type":"feature","properties":{"country_en":"Ukraine","name":"Talakovka","name_adm0":"Ukraine","name_adm1":"Donets´ka Oblast´","name_en":"Talakovka"},"geometry":{"type":"Point","coordinates":[37.7252,47.19248]}},{"type":"feature","properties":{"country_en":"Ukraine","name":"Udobnoye","name_adm0":"Ukraine","name_adm1":"Odes´ka Oblast´","name_en":"Udobnoye"},"geometry":{"type":"Point","coordinates":[30.04796,46.38148]}},{"type":"feature","properties":{"country_en":"Ukraine","name":"Pochtovoye","name_adm0":"Ukraine","name_adm1":"Avtonomna Respublika Krym","name_en":"Pochtovoye"},"geometry":{"type":"Point","coordinates":[33.963632,44.808786]}},{"type":"feature","properties":{"country_en":"Ukraine","name":"Chuguyev","name_adm0":"Ukraine","name_adm1":"Kharkivs´ka Oblast´","name_en":"Chuguyev"},"geometry":{"type":"Point","coordinates":[36.688156,49.818825]}},{"type":"feature","properties":{"country_en":"Ukraine","name":"Dunaivtsi","name_adm0":"Ukraine","name_adm1":"Khmel´nyts´ka Oblast´","name_en":"Dunaivtsi"},"geometry":{"type":"Point","coordinates":[26.85636,48.88909]}},{"type":"feature","properties":{"country_en":"Ukraine","name":"Scholkine","name_adm0":"Ukraine","name_adm1":"Avtonomna Respublika Krym","name_en":"Scholkine"},"geometry":{"type":"Point","coordinates":[35.8247,45.42761]}},{"type":"feature","properties":{"country_en":"Ukraine","name":"Nezhin","name_adm0":"Ukraine","name_adm1":"Chernihivs´ka Oblast´","name_en":"Nezhin"},"geometry":{"type":"Point","coordinates":[31.886700999999995,51.047653]}},{"type":"feature","properties":{"country_en":"Ukraine","name":"Volodarka","name_adm0":"Ukraine","name_adm1":"Kyyivs´ka Oblast´","name_en":"Volodarka"},"geometry":{"type":"Point","coordinates":[29.699069999999995,51.0751]}},{"type":"feature","properties":{"country_en":"Ukraine","name":"Slavyanogorsk","name_adm0":"Ukraine","name_adm1":"Donets´ka Oblast´","name_en":"Slavyanogorsk"},"geometry":{"type":"Point","coordinates":[37.56667,49.03333]}},{"type":"feature","properties":{"country_en":"Ukraine","name":"Burlach'ya Balka","name_adm0":"Ukraine","name_adm1":"Odes´ka Oblast´","name_en":"Burlach'ya Balka"},"geometry":{"type":"Point","coordinates":[30.66599,46.33662]}},{"type":"feature","properties":{"country_en":"Ukraine","name":"Bugayevka","name_adm0":"Ukraine","name_adm1":"Luhans´ka Oblast´","name_en":"Bugayevka"},"geometry":{"type":"Point","coordinates":[38.85866,48.41767]}},{"type":"feature","properties":{"country_en":"Ukraine","name":"Staraya Darnitsa","name_adm0":"Ukraine","name_adm1":"Kyyiv Misto","name_en":"Staraya Darnitsa"},"geometry":{"type":"Point","coordinates":[30.63333,50.43333]}},{"type":"feature","properties":{"country_en":"Ukraine","name":"Krasnodon","name_adm0":"Ukraine","name_adm1":"Luhans´ka Oblast´","name_en":"Krasnodon"},"geometry":{"type":"Point","coordinates":[39.57374,48.30856]}},{"type":"feature","properties":{"country_en":"Ukraine","name":"Mikachevo","name_adm0":"Ukraine","name_adm1":"Zakarpats´ka Oblast´","name_en":"Mikachevo"},"geometry":{"type":"Point","coordinates":[22.717666,48.442753]}},{"type":"feature","properties":{"country_en":"Ukraine","name":"Novoaydar","name_adm0":"Ukraine","name_adm1":"Luhans´ka Oblast´","name_en":"Novoaydar"},"geometry":{"type":"Point","coordinates":[39.00583,48.96391]}},{"type":"feature","properties":{"country_en":"Ukraine","name":"Gresovskiy","name_adm0":"Ukraine","name_adm1":"Avtonomna Respublika Krym","name_en":"Gresovskiy"},"geometry":{"type":"Point","coordinates":[34.02657,45.00804]}},{"type":"feature","properties":{"country_en":"Ukraine","name":"Chernomorskoye","name_adm0":"Ukraine","name_adm1":"Avtonomna Respublika Krym","name_en":"Chernomorskoye"},"geometry":{"type":"Point","coordinates":[32.18333,46.25]}},{"type":"feature","properties":{"country_en":"Ukraine","name":"Staryy Krym","name_adm0":"Ukraine","name_adm1":"Donets´ka Oblast´","name_en":"Staryy Krym"},"geometry":{"type":"Point","coordinates":[37.48934,47.16146]}},{"type":"feature","properties":{"country_en":"Ukraine","name":"Chemer","name_adm0":"Ukraine","name_adm1":"Chernihivs´ka Oblast´","name_en":"Chemer"},"geometry":{"type":"Point","coordinates":[31.215089999999996,51.102759999999996]}},{"type":"feature","properties":{"country_en":"Ukraine","name":"Leplyavo","name_adm0":"Ukraine","name_adm1":"Cherkas´ka Oblast´","name_en":"Leplyavo"},"geometry":{"type":"Point","coordinates":[31.553339999999995,49.78668]}},{"type":"feature","properties":{"country_en":"Ukraine","name":"Malaya Belozerka","name_adm0":"Ukraine","name_adm1":"Zaporiz´ka Oblast´","name_en":"Malaya Belozerka"},"geometry":{"type":"Point","coordinates":[34.93457,47.24737]}},{"type":"feature","properties":{"country_en":"Ukraine","name":"Murafa","name_adm0":"Ukraine","name_adm1":"Kharkivs´ka Oblast´","name_en":"Murafa"},"geometry":{"type":"Point","coordinates":[35.32917,50.04675]}},{"type":"feature","properties":{"country_en":"Ukraine","name":"Radionovka","name_adm0":"Ukraine","name_adm1":"Poltavs´ka Oblast´","name_en":"Radionovka"},"geometry":{"type":"Point","coordinates":[33.54726,49.64194]}},{"type":"feature","properties":{"country_en":"Ukraine","name":"Rakitnoye","name_adm0":"Ukraine","name_adm1":"Poltavs´ka Oblast´","name_en":"Rakitnoye"},"geometry":{"type":"Point","coordinates":[33.5347,49.14768]}},{"type":"feature","properties":{"country_en":"Ukraine","name":"Raygorodok","name_adm0":"Ukraine","name_adm1":"Donets´ka Oblast´","name_en":"Raygorodok"},"geometry":{"type":"Point","coordinates":[37.72692,48.89848]}},{"type":"feature","properties":{"country_en":"Ukraine","name":"Rozdil'na","name_adm0":"Ukraine","name_adm1":"Odes´ka Oblast´","name_en":"Rozdil'na"},"geometry":{"type":"Point","coordinates":[30.07919,46.84334]}},{"type":"feature","properties":{"country_en":"Ukraine","name":"Sergeyevka","name_adm0":"Ukraine","name_adm1":"Donets´ka Oblast´","name_en":"Sergeyevka"},"geometry":{"type":"Point","coordinates":[37.37554999999999,48.67066]}},{"type":"feature","properties":{"country_en":"Ukraine","name":"Verkhnetoretskoye","name_adm0":"Ukraine","name_adm1":"Donets´ka Oblast´","name_en":"Verkhnetoretskoye"},"geometry":{"type":"Point","coordinates":[37.879799999999996,48.22187]}},{"type":"feature","properties":{"country_en":"Ukraine","name":"Malaya Danilovka","name_adm0":"Ukraine","name_adm1":"Kharkivs´ka Oblast´","name_en":"Malaya Danilovka"},"geometry":{"type":"Point","coordinates":[36.16564,50.06354]}},{"type":"feature","properties":{"country_en":"Ukraine","name":"Lyubotin","name_adm0":"Ukraine","name_adm1":"Kharkivs´ka Oblast´","name_en":"Lyubotin"},"geometry":{"type":"Point","coordinates":[35.92907,49.94691]}},{"type":"feature","properties":{"country_en":"Ukraine","name":"Petrovka","name_adm0":"Ukraine","name_adm1":"Luhans´ka Oblast´","name_en":"Petrovka"},"geometry":{"type":"Point","coordinates":[39.26648,48.80677]}},{"type":"feature","properties":{"country_en":"Ukraine","name":"Chausovo","name_adm0":"Ukraine","name_adm1":"Mykolayivs´ka Oblast´","name_en":"Chausovo"},"geometry":{"type":"Point","coordinates":[30.71724,48.06296]}},{"type":"feature","properties":{"country_en":"Ukraine","name":"Korobochkino","name_adm0":"Ukraine","name_adm1":"Kharkivs´ka Oblast´","name_en":"Korobochkino"},"geometry":{"type":"Point","coordinates":[36.81574,49.77721999999999]}},{"type":"feature","properties":{"country_en":"Ukraine","name":"Lomovatka","name_adm0":"Ukraine","name_adm1":"Luhans´ka Oblast´","name_en":"Lomovatka"},"geometry":{"type":"Point","coordinates":[38.56788,48.45389]}},{"type":"feature","properties":{"country_en":"Ukraine","name":"Nedoboyevtsy","name_adm0":"Ukraine","name_adm1":"Chernivets´ka Oblast´","name_en":"Nedoboyevtsy"},"geometry":{"type":"Point","coordinates":[26.367239999999995,48.43181]}},{"type":"feature","properties":{"country_en":"Ukraine","name":"Novyy Chudnov","name_adm0":"Ukraine","name_adm1":"Zhytomyrs´ka Oblast´","name_en":"Novyy Chudnov"},"geometry":{"type":"Point","coordinates":[28.116669999999996,50.05]}},{"type":"feature","properties":{"country_en":"Ukraine","name":"Orlovets'","name_adm0":"Ukraine","name_adm1":"Cherkas´ka Oblast´","name_en":"Orlovets'"},"geometry":{"type":"Point","coordinates":[31.58184,49.22525]}},{"type":"feature","properties":{"country_en":"Ukraine","name":"Prishib","name_adm0":"Ukraine","name_adm1":"Poltavs´ka Oblast´","name_en":"Prishib"},"geometry":{"type":"Point","coordinates":[34.14122,49.87729999999999]}},{"type":"feature","properties":{"country_en":"Ukraine","name":"Stetsovka","name_adm0":"Ukraine","name_adm1":"Cherkas´ka Oblast´","name_en":"Stetsovka"},"geometry":{"type":"Point","coordinates":[31.15759,48.99159]}},{"type":"feature","properties":{"country_en":"Ukraine","name":"Zelena","name_adm0":"Ukraine","name_adm1":"Chernivets´ka Oblast´","name_en":"Zelena"},"geometry":{"type":"Point","coordinates":[25.638849999999998,48.35516]}},{"type":"feature","properties":{"country_en":"Ukraine","name":"Sakhnovshchina","name_adm0":"Ukraine","name_adm1":"Kharkivs´ka Oblast´","name_en":"Sakhnovshchina"},"geometry":{"type":"Point","coordinates":[35.87198,49.15165999999999]}},{"type":"feature","properties":{"country_en":"Ukraine","name":"Fedorovka","name_adm0":"Ukraine","name_adm1":"Zaporiz´ka Oblast´","name_en":"Fedorovka"},"geometry":{"type":"Point","coordinates":[35.02604,48.0827]}},{"type":"feature","properties":{"country_en":"Ukraine","name":"Kuzemin","name_adm0":"Ukraine","name_adm1":"Sums´ka Oblast´","name_en":"Kuzemin"},"geometry":{"type":"Point","coordinates":[34.66017,50.13955]}},{"type":"feature","properties":{"country_en":"Ukraine","name":"Yerki","name_adm0":"Ukraine","name_adm1":"Cherkas´ka Oblast´","name_en":"Yerki"},"geometry":{"type":"Point","coordinates":[30.988179999999996,48.99062]}},{"type":"feature","properties":{"country_en":"Ukraine","name":"Yelisavetgradka","name_adm0":"Ukraine","name_adm1":"Kirovohrads´ka Oblast´","name_en":"Yelisavetgradka"},"geometry":{"type":"Point","coordinates":[32.4046,48.80380999999999]}},{"type":"feature","properties":{"country_en":"Ukraine","name":"Voykove","name_adm0":"Ukraine","name_adm1":"Avtonomna Respublika Krym","name_en":"Voykove"},"geometry":{"type":"Point","coordinates":[36.43724,45.38261]}},{"type":"feature","properties":{"country_en":"Ukraine","name":"Velikiye Sorochintsy","name_adm0":"Ukraine","name_adm1":"Poltavs´ka Oblast´","name_en":"Velikiye Sorochintsy"},"geometry":{"type":"Point","coordinates":[33.94144,50.02314]}},{"type":"feature","properties":{"country_en":"Ukraine","name":"Ruzhin","name_adm0":"Ukraine","name_adm1":"Zhytomyrs´ka Oblast´","name_en":"Ruzhin"},"geometry":{"type":"Point","coordinates":[29.204549999999998,49.72279999999999]}},{"type":"feature","properties":{"country_en":"Ukraine","name":"Radomishl","name_adm0":"Ukraine","name_adm1":"Zhytomyrs´ka Oblast´","name_en":"Radomishl"},"geometry":{"type":"Point","coordinates":[29.22911,50.49613]}},{"type":"feature","properties":{"country_en":"Ukraine","name":"Pidhorodne","name_adm0":"Ukraine","name_adm1":"Dnipropetrovs´ka Oblast´","name_en":"Pidhorodne"},"geometry":{"type":"Point","coordinates":[35.1068,48.57527999999999]}},{"type":"feature","properties":{"country_en":"Ukraine","name":"Pereval'sk","name_adm0":"Ukraine","name_adm1":"Luhans´ka Oblast´","name_en":"Pereval'sk"},"geometry":{"type":"Point","coordinates":[38.84384,48.43779]}},{"type":"feature","properties":{"country_en":"Ukraine","name":"Lokachi","name_adm0":"Ukraine","name_adm1":"Volyns´ka Oblast´","name_en":"Lokachi"},"geometry":{"type":"Point","coordinates":[24.649439999999995,50.737]}},{"type":"feature","properties":{"country_en":"Ukraine","name":"Dobropol'ye","name_adm0":"Ukraine","name_adm1":"Donets´ka Oblast´","name_en":"Dobropol'ye"},"geometry":{"type":"Point","coordinates":[37.08524,48.46147]}},{"type":"feature","properties":{"country_en":"Ukraine","name":"Berehove","name_adm0":"Ukraine","name_adm1":"Zakarpats´ka Oblast´","name_en":"Berehove"},"geometry":{"type":"Point","coordinates":[22.644179999999995,48.20555]}},{"type":"feature","properties":{"country_en":"Ukraine","name":"Kislyanka","name_adm0":"Ukraine","name_adm1":"Dnipropetrovs´ka Oblast´","name_en":"Kislyanka"},"geometry":{"type":"Point","coordinates":[35.49272,48.4292]}},{"type":"feature","properties":{"country_en":"Ukraine","name":"Ploskoye","name_adm0":"Ukraine","name_adm1":"Chernihivs´ka Oblast´","name_en":"Ploskoye"},"geometry":{"type":"Point","coordinates":[31.661819999999995,51.06564]}},{"type":"feature","properties":{"country_en":"Ukraine","name":"Vypaskoye","name_adm0":"Ukraine","name_adm1":"Odes´ka Oblast´","name_en":"Vypaskoye"},"geometry":{"type":"Point","coordinates":[30.26667,46.19937999999999]}},{"type":"feature","properties":{"country_en":"Ukraine","name":"Yaremcha","name_adm0":"Ukraine","name_adm1":"Ivano-Frankivs´ka Oblast´","name_en":"Yaremcha"},"geometry":{"type":"Point","coordinates":[24.55436,48.45157]}},{"type":"feature","properties":{"country_en":"Ukraine","name":"Svetlogorskoye","name_adm0":"Ukraine","name_adm1":"Poltavs´ka Oblast´","name_en":"Svetlogorskoye"},"geometry":{"type":"Point","coordinates":[34.069309999999994,48.89004]}},{"type":"feature","properties":{"country_en":"Ukraine","name":"Rogatin","name_adm0":"Ukraine","name_adm1":"Ivano-Frankivs´ka Oblast´","name_en":"Rogatin"},"geometry":{"type":"Point","coordinates":[24.79955,49.46922]}},{"type":"feature","properties":{"country_en":"Ukraine","name":"Pokrovka","name_adm0":"Ukraine","name_adm1":"Dnipropetrovs´ka Oblast´","name_en":"Pokrovka"},"geometry":{"type":"Point","coordinates":[34.06717,48.23473]}},{"type":"feature","properties":{"country_en":"Ukraine","name":"Troshcha","name_adm0":"Ukraine","name_adm1":"Zhytomyrs´ka Oblast´","name_en":"Troshcha"},"geometry":{"type":"Point","coordinates":[28.09109,49.90837]}},{"type":"feature","properties":{"country_en":"Ukraine","name":"Krasnosel'ye","name_adm0":"Ukraine","name_adm1":"Kirovohrads´ka Oblast´","name_en":"Krasnosel'ye"},"geometry":{"type":"Point","coordinates":[32.54718,49.16443]}},{"type":"feature","properties":{"country_en":"Ukraine","name":"Alekseyevka","name_adm0":"Ukraine","name_adm1":"Donets´ka Oblast´","name_en":"Alekseyevka"},"geometry":{"type":"Point","coordinates":[36.94679,48.018429999999995]}},{"type":"feature","properties":{"country_en":"Ukraine","name":"Kapitanovka","name_adm0":"Ukraine","name_adm1":"Kirovohrads´ka Oblast´","name_en":"Kapitanovka"},"geometry":{"type":"Point","coordinates":[31.716709999999996,48.91718999999999]}},{"type":"feature","properties":{"country_en":"Ukraine","name":"Kamyshevakha","name_adm0":"Ukraine","name_adm1":"Zaporiz´ka Oblast´","name_en":"Kamyshevakha"},"geometry":{"type":"Point","coordinates":[35.52882,47.71758]}},{"type":"feature","properties":{"country_en":"Ukraine","name":"Klenovyy","name_adm0":"Ukraine","name_adm1":"Luhans´ka Oblast´","name_en":"Klenovyy"},"geometry":{"type":"Point","coordinates":[39.4588,48.11934]}},{"type":"feature","properties":{"country_en":"Ukraine","name":"Mikhaylovka","name_adm0":"Ukraine","name_adm1":"Khersons´ka Oblast´","name_en":"Mikhaylovka"},"geometry":{"type":"Point","coordinates":[32.65473,46.28105]}},{"type":"feature","properties":{"country_en":"Ukraine","name":"Terny","name_adm0":"Ukraine","name_adm1":"Sums´ka Oblast´","name_en":"Terny"},"geometry":{"type":"Point","coordinates":[33.9707,50.98916]}},{"type":"feature","properties":{"country_en":"Ukraine","name":"Yekaterino-Platonovka","name_adm0":"Ukraine","name_adm1":"Odes´ka Oblast´","name_en":"Yekaterino-Platonovka"},"geometry":{"type":"Point","coordinates":[30.474259999999997,47.16807]}},{"type":"feature","properties":{"country_en":"Ukraine","name":"Zamozhnoye","name_adm0":"Ukraine","name_adm1":"Donets´ka Oblast´","name_en":"Zamozhnoye"},"geometry":{"type":"Point","coordinates":[37.80865,47.31595]}},{"type":"feature","properties":{"country_en":"Ukraine","name":"Nikolayevka","name_adm0":"Ukraine","name_adm1":"Odes´ka Oblast´","name_en":"Nikolayevka"},"geometry":{"type":"Point","coordinates":[30.28889,46.64013]}},{"type":"feature","properties":{"country_en":"Ukraine","name":"Chernomorka","name_adm0":"Ukraine","name_adm1":"Mykolayivs´ka Oblast´","name_en":"Chernomorka"},"geometry":{"type":"Point","coordinates":[30.870339999999995,47.0397]}},{"type":"feature","properties":{"country_en":"Ukraine","name":"Vladislavovka","name_adm0":"Ukraine","name_adm1":"Avtonomna Respublika Krym","name_en":"Vladislavovka"},"geometry":{"type":"Point","coordinates":[34.59087,45.46871999999999]}},{"type":"feature","properties":{"country_en":"Ukraine","name":"Tomashpol'","name_adm0":"Ukraine","name_adm1":"Vinnyts´ka Oblast´","name_en":"Tomashpol'"},"geometry":{"type":"Point","coordinates":[28.128649999999997,49.53974]}},{"type":"feature","properties":{"country_en":"Ukraine","name":"Tyvrov","name_adm0":"Ukraine","name_adm1":"Vinnyts´ka Oblast´","name_en":"Tyvrov"},"geometry":{"type":"Point","coordinates":[28.50846,49.01404]}},{"type":"feature","properties":{"country_en":"Ukraine","name":"Novoselka","name_adm0":"Ukraine","name_adm1":"Chernivets´ka Oblast´","name_en":"Novoselka"},"geometry":{"type":"Point","coordinates":[25.8275,48.34721999999999]}},{"type":"feature","properties":{"country_en":"Ukraine","name":"Novoselovka","name_adm0":"Ukraine","name_adm1":"Donets´ka Oblast´","name_en":"Novoselovka"},"geometry":{"type":"Point","coordinates":[37.83965,47.83693]}},{"type":"feature","properties":{"country_en":"Ukraine","name":"Novopokrovka","name_adm0":"Ukraine","name_adm1":"Kharkivs´ka Oblast´","name_en":"Novopokrovka"},"geometry":{"type":"Point","coordinates":[36.54773,49.84252]}},{"type":"feature","properties":{"country_en":"Ukraine","name":"Tolstoye","name_adm0":"Ukraine","name_adm1":"Ternopil´s´ka Oblast´","name_en":"Tolstoye"},"geometry":{"type":"Point","coordinates":[26.08972,49.27161]}},{"type":"feature","properties":{"country_en":"Ukraine","name":"Ivano-Frankivs´ka Oblast´","name_adm0":"Ukraine","name_adm1":"Ivano-Frankivs´ka Oblast´","name_en":"Ivano-Frankivsk Oblast"},"geometry":{"type":"Point","coordinates":[24.5633695,48.463815]}},{"type":"feature","properties":{"country_en":"Ukraine","name":"Aleksandriya","name_adm0":"Ukraine","name_adm1":"Rivnens´ka Oblast´","name_en":"Aleksandriya"},"geometry":{"type":"Point","coordinates":[26.34421,50.73524]}},{"type":"feature","properties":{"country_en":"Ukraine","name":"Balabino","name_adm0":"Ukraine","name_adm1":"Zaporiz´ka Oblast´","name_en":"Balabino"},"geometry":{"type":"Point","coordinates":[35.21728,47.74424]}},{"type":"feature","properties":{"country_en":"Ukraine","name":"Mezhvodnoye","name_adm0":"Ukraine","name_adm1":"Avtonomna Respublika Krym","name_en":"Mezhvodnoye"},"geometry":{"type":"Point","coordinates":[32.84501,45.587509999999995]}},{"type":"feature","properties":{"country_en":"Ukraine","name":"Vynohradiv","name_adm0":"Ukraine","name_adm1":"Zakarpats´ka Oblast´","name_en":"Vynohradiv"},"geometry":{"type":"Point","coordinates":[23.02666,48.14135]}},{"type":"feature","properties":{"country_en":"Ukraine","name":"Ivashkovtsy","name_adm0":"Ukraine","name_adm1":"Khmel´nyts´ka Oblast´","name_en":"Ivashkovtsy"},"geometry":{"type":"Point","coordinates":[27.22488,48.80207999999999]}},{"type":"feature","properties":{"country_en":"Ukraine","name":"Javorivka","name_adm0":"Ukraine","name_adm1":"Vinnyts´ka Oblast´","name_en":"Javorivka"},"geometry":{"type":"Point","coordinates":[28.47122,49.3427]}},{"type":"feature","properties":{"country_en":"Ukraine","name":"Krasnaya Polyana","name_adm0":"Ukraine","name_adm1":"Donets´ka Oblast´","name_en":"Krasnaya Polyana"},"geometry":{"type":"Point","coordinates":[38.133329999999994,47.78333]}},{"type":"feature","properties":{"country_en":"Ukraine","name":"Lyuta","name_adm0":"Ukraine","name_adm1":"Zakarpats´ka Oblast´","name_en":"Lyuta"},"geometry":{"type":"Point","coordinates":[22.77352,48.89922]}},{"type":"feature","properties":{"country_en":"Ukraine","name":"Tarnopol'","name_adm0":"Ukraine","name_adm1":"Ternopil´s´ka Oblast´","name_en":"Tarnopol'"},"geometry":{"type":"Point","coordinates":[25.596771,49.550161]}},{"type":"feature","properties":{"country_en":"Ukraine","name":"Chepel'","name_adm0":"Ukraine","name_adm1":"Kharkivs´ka Oblast´","name_en":"Chepel'"},"geometry":{"type":"Point","coordinates":[36.91754,49.320879999999995]}},{"type":"feature","properties":{"country_en":"Ukraine","name":"Korovnitsy","name_adm0":"Ukraine","name_adm1":"Sums´ka Oblast´","name_en":"Korovnitsy"},"geometry":{"type":"Point","coordinates":[33.75808,50.8103]}},{"type":"feature","properties":{"country_en":"Ukraine","name":"Koshevatoye","name_adm0":"Ukraine","name_adm1":"Kyyivs´ka Oblast´","name_en":"Koshevatoye"},"geometry":{"type":"Point","coordinates":[30.7856,52.0476]}},{"type":"feature","properties":{"country_en":"Ukraine","name":"Kosovka","name_adm0":"Ukraine","name_adm1":"Kirovohrads´ka Oblast´","name_en":"Kosovka"},"geometry":{"type":"Point","coordinates":[33.03059,48.80915]}},{"type":"feature","properties":{"country_en":"Ukraine","name":"Kovsharovka","name_adm0":"Ukraine","name_adm1":"Kharkivs´ka Oblast´","name_en":"Kovsharovka"},"geometry":{"type":"Point","coordinates":[35.44623,50.01643]}},{"type":"feature","properties":{"country_en":"Ukraine","name":"Kozabelovka","name_adm0":"Ukraine","name_adm1":"Luhans´ka Oblast´","name_en":"Kozabelovka"},"geometry":{"type":"Point","coordinates":[39.32833,48.06972]}},{"type":"feature","properties":{"country_en":"Ukraine","name":"Kozary","name_adm0":"Ukraine","name_adm1":"Chernihivs´ka Oblast´","name_en":"Kozary"},"geometry":{"type":"Point","coordinates":[31.403829999999996,50.94397]}},{"type":"feature","properties":{"country_en":"Ukraine","name":"Mironovka","name_adm0":"Ukraine","name_adm1":"Kharkivs´ka Oblast´","name_en":"Mironovka"},"geometry":{"type":"Point","coordinates":[36.04906,50.19258]}},{"type":"feature","properties":{"country_en":"Ukraine","name":"Mitrofanovka","name_adm0":"Ukraine","name_adm1":"Kirovohrads´ka Oblast´","name_en":"Mitrofanovka"},"geometry":{"type":"Point","coordinates":[32.71354,48.50278]}},{"type":"feature","properties":{"country_en":"Ukraine","name":"Luhans'k","name_adm0":"Ukraine","name_adm1":"Luhans´ka Oblast´","name_en":"Luhans'k"},"geometry":{"type":"Point","coordinates":[39.305441,48.566669]}},{"type":"feature","properties":{"country_en":"Ukraine","name":"Maksimovka","name_adm0":"Ukraine","name_adm1":"Donets´ka Oblast´","name_en":"Maksimovka"},"geometry":{"type":"Point","coordinates":[37.56218,47.6369]}},{"type":"feature","properties":{"country_en":"Ukraine","name":"Krasnotorka","name_adm0":"Ukraine","name_adm1":"Donets´ka Oblast´","name_en":"Krasnotorka"},"geometry":{"type":"Point","coordinates":[37.53266,48.68204]}},{"type":"feature","properties":{"country_en":"Ukraine","name":"Novoalekseyevka","name_adm0":"Ukraine","name_adm1":"Khersons´ka Oblast´","name_en":"Novoalekseyevka"},"geometry":{"type":"Point","coordinates":[32.23844,46.28963]}},{"type":"feature","properties":{"country_en":"Ukraine","name":"Staromikhaylovka","name_adm0":"Ukraine","name_adm1":"Donets´ka Oblast´","name_en":"Staromikhaylovka"},"geometry":{"type":"Point","coordinates":[37.59488,47.99797]}},{"type":"feature","properties":{"country_en":"Ukraine","name":"Tolmach","name_adm0":"Ukraine","name_adm1":"Cherkas´ka Oblast´","name_en":"Tolmach"},"geometry":{"type":"Point","coordinates":[31.365219999999997,48.89083]}},{"type":"feature","properties":{"country_en":"Ukraine","name":"Budy","name_adm0":"Ukraine","name_adm1":"Kharkivs´ka Oblast´","name_en":"Budy"},"geometry":{"type":"Point","coordinates":[36.02243,49.89336999999999]}},{"type":"feature","properties":{"country_en":"Ukraine","name":"Boyany","name_adm0":"Ukraine","name_adm1":"Chernivets´ka Oblast´","name_en":"Boyany"},"geometry":{"type":"Point","coordinates":[26.12624,48.27077]}},{"type":"feature","properties":{"country_en":"Ukraine","name":"Bilohirs'k","name_adm0":"Ukraine","name_adm1":"Avtonomna Respublika Krym","name_en":"Bilohirs'k"},"geometry":{"type":"Point","coordinates":[34.60184999999999,45.05462]}},{"type":"feature","properties":{"country_en":"Ukraine","name":"Berestechko","name_adm0":"Ukraine","name_adm1":"Volyns´ka Oblast´","name_en":"Berestechko"},"geometry":{"type":"Point","coordinates":[25.26652,50.48961]}},{"type":"feature","properties":{"country_en":"Ukraine","name":"Korostyshev","name_adm0":"Ukraine","name_adm1":"Zhytomyrs´ka Oblast´","name_en":"Korostyshev"},"geometry":{"type":"Point","coordinates":[29.0563,50.31723]}},{"type":"feature","properties":{"country_en":"Ukraine","name":"Korolevo","name_adm0":"Ukraine","name_adm1":"Zakarpats´ka Oblast´","name_en":"Korolevo"},"geometry":{"type":"Point","coordinates":[23.13659,48.15247]}},{"type":"feature","properties":{"country_en":"Ukraine","name":"Kompaneyevka","name_adm0":"Ukraine","name_adm1":"Kirovohrads´ka Oblast´","name_en":"Kompaneyevka"},"geometry":{"type":"Point","coordinates":[32.20795,48.25115]}},{"type":"feature","properties":{"country_en":"Ukraine","name":"Bulavinskoye","name_adm0":"Ukraine","name_adm1":"Donets´ka Oblast´","name_en":"Bulavinskoye"},"geometry":{"type":"Point","coordinates":[38.3929,48.2752]}},{"type":"feature","properties":{"country_en":"Ukraine","name":"Buzhanka","name_adm0":"Ukraine","name_adm1":"Cherkas´ka Oblast´","name_en":"Buzhanka"},"geometry":{"type":"Point","coordinates":[30.7317,49.24088]}},{"type":"feature","properties":{"country_en":"Ukraine","name":"Korsunka","name_adm0":"Ukraine","name_adm1":"Khersons´ka Oblast´","name_en":"Korsunka"},"geometry":{"type":"Point","coordinates":[33.19185,46.75955]}},{"type":"feature","properties":{"country_en":"Ukraine","name":"Krekhovichi","name_adm0":"Ukraine","name_adm1":"Ivano-Frankivs´ka Oblast´","name_en":"Krekhovichi"},"geometry":{"type":"Point","coordinates":[24.15168,49.007819999999995]}},{"type":"feature","properties":{"country_en":"Ukraine","name":"Russkaya Polyana","name_adm0":"Ukraine","name_adm1":"Cherkas´ka Oblast´","name_en":"Russkaya Polyana"},"geometry":{"type":"Point","coordinates":[31.92009,49.417]}},{"type":"feature","properties":{"country_en":"Ukraine","name":"Pokotilovka","name_adm0":"Ukraine","name_adm1":"Kharkivs´ka Oblast´","name_en":"Pokotilovka"},"geometry":{"type":"Point","coordinates":[36.17511,49.91342999999999]}},{"type":"feature","properties":{"country_en":"Ukraine","name":"Petrovo","name_adm0":"Ukraine","name_adm1":"Kirovohrads´ka Oblast´","name_en":"Petrovo"},"geometry":{"type":"Point","coordinates":[32.66373,48.70521]}},{"type":"feature","properties":{"country_en":"Ukraine","name":"Strizhavka","name_adm0":"Ukraine","name_adm1":"Vinnyts´ka Oblast´","name_en":"Strizhavka"},"geometry":{"type":"Point","coordinates":[28.46787,49.30512]}},{"type":"feature","properties":{"country_en":"Ukraine","name":"Sukhodol'sk","name_adm0":"Ukraine","name_adm1":"Luhans´ka Oblast´","name_en":"Sukhodol'sk"},"geometry":{"type":"Point","coordinates":[39.710499999999996,48.35014]}},{"type":"feature","properties":{"country_en":"Ukraine","name":"Vuglyar","name_adm0":"Ukraine","name_adm1":"Donets´ka Oblast´","name_en":"Vuglyar"},"geometry":{"type":"Point","coordinates":[38.05886,48.016]}},{"type":"feature","properties":{"country_en":"Ukraine","name":"Vysokiy","name_adm0":"Ukraine","name_adm1":"Kharkivs´ka Oblast´","name_en":"Vysokiy"},"geometry":{"type":"Point","coordinates":[36.09778,49.87111]}},{"type":"feature","properties":{"country_en":"Ukraine","name":"Vyssheol'chedayev","name_adm0":"Ukraine","name_adm1":"Vinnyts´ka Oblast´","name_en":"Vyssheol'chedayev"},"geometry":{"type":"Point","coordinates":[27.68288,48.72877]}},{"type":"feature","properties":{"country_en":"Ukraine","name":"Spichintsy","name_adm0":"Ukraine","name_adm1":"Zhytomyrs´ka Oblast´","name_en":"Spichintsy"},"geometry":{"type":"Point","coordinates":[29.2034,49.85353]}},{"type":"feature","properties":{"country_en":"Ukraine","name":"Artek","name_adm0":"Ukraine","name_adm1":"Avtonomna Respublika Krym","name_en":"Artek"},"geometry":{"type":"Point","coordinates":[34.3,44.56667]}},{"type":"feature","properties":{"country_en":"Ukraine","name":"Berezhany","name_adm0":"Ukraine","name_adm1":"Ternopil´s´ka Oblast´","name_en":"Berezhany"},"geometry":{"type":"Point","coordinates":[25.41239,50.29219]}},{"type":"feature","properties":{"country_en":"Ukraine","name":"Voznesenka","name_adm0":"Ukraine","name_adm1":"Zaporiz´ka Oblast´","name_en":"Voznesenka"},"geometry":{"type":"Point","coordinates":[35.11667,47.85]}},{"type":"feature","properties":{"country_en":"Ukraine","name":"Yekaterinovka","name_adm0":"Ukraine","name_adm1":"Dnipropetrovs´ka Oblast´","name_en":"Yekaterinovka"},"geometry":{"type":"Point","coordinates":[34.18333,48.01667]}},{"type":"feature","properties":{"country_en":"Ukraine","name":"Avdeyevka Vtoraya","name_adm0":"Ukraine","name_adm1":"Donets´ka Oblast´","name_en":"Avdeyevka Vtoraya"},"geometry":{"type":"Point","coordinates":[37.78333,48.11667]}},{"type":"feature","properties":{"country_en":"Ukraine","name":"Krymskoye","name_adm0":"Ukraine","name_adm1":"Avtonomna Respublika Krym","name_en":"Krymskoye"},"geometry":{"type":"Point","coordinates":[33.80106,45.18836]}},{"type":"feature","properties":{"country_en":"Ukraine","name":"Krasnoselka","name_adm0":"Ukraine","name_adm1":"Odes´ka Oblast´","name_en":"Krasnoselka"},"geometry":{"type":"Point","coordinates":[30.77421,46.62258]}},{"type":"feature","properties":{"country_en":"Ukraine","name":"Novyy Svet","name_adm0":"Ukraine","name_adm1":"Donets´ka Oblast´","name_en":"Novyy Svet"},"geometry":{"type":"Point","coordinates":[38.1029,48.148179999999996]}},{"type":"feature","properties":{"country_en":"Ukraine","name":"Ocheretovatoye","name_adm0":"Ukraine","name_adm1":"Dnipropetrovs´ka Oblast´","name_en":"Ocheretovatoye"},"geometry":{"type":"Point","coordinates":[35.00698,48.71672]}},{"type":"feature","properties":{"country_en":"Ukraine","name":"Portovoye","name_adm0":"Ukraine","name_adm1":"Avtonomna Respublika Krym","name_en":"Portovoye"},"geometry":{"type":"Point","coordinates":[33.4864,45.84901]}},{"type":"feature","properties":{"country_en":"Ukraine","name":"Prishib","name_adm0":"Ukraine","name_adm1":"Zaporiz´ka Oblast´","name_en":"Prishib"},"geometry":{"type":"Point","coordinates":[35.58333,47.21666999999999]}},{"type":"feature","properties":{"country_en":"Ukraine","name":"Robotino","name_adm0":"Ukraine","name_adm1":"Zaporiz´ka Oblast´","name_en":"Robotino"},"geometry":{"type":"Point","coordinates":[35.83205,47.44835]}},{"type":"feature","properties":{"country_en":"Ukraine","name":"Rodakovo","name_adm0":"Ukraine","name_adm1":"Luhans´ka Oblast´","name_en":"Rodakovo"},"geometry":{"type":"Point","coordinates":[39.02375,48.55722]}},{"type":"feature","properties":{"country_en":"Ukraine","name":"Kadijewka","name_adm0":"Ukraine","name_adm1":"Luhans´ka Oblast´","name_en":"Kadijewka"},"geometry":{"type":"Point","coordinates":[38.650745,48.510122]}},{"type":"feature","properties":{"country_en":"Ukraine","name":"Rudki","name_adm0":"Ukraine","name_adm1":"L´vivs´ka Oblast´","name_en":"Rudki"},"geometry":{"type":"Point","coordinates":[23.91015,49.45749]}},{"type":"feature","properties":{"country_en":"Ukraine","name":"Artemovka","name_adm0":"Ukraine","name_adm1":"Kharkivs´ka Oblast´","name_en":"Artemovka"},"geometry":{"type":"Point","coordinates":[36.07486,49.837219999999995]}},{"type":"feature","properties":{"country_en":"Ukraine","name":"Artemovka","name_adm0":"Ukraine","name_adm1":"Donets´ka Oblast´","name_en":"Artemovka"},"geometry":{"type":"Point","coordinates":[37.379189999999994,48.49195]}},{"type":"feature","properties":{"country_en":"Ukraine","name":"Artemovo","name_adm0":"Ukraine","name_adm1":"Donets´ka Oblast´","name_en":"Artemovo"},"geometry":{"type":"Point","coordinates":[37.888419999999996,48.37184]}},{"type":"feature","properties":{"country_en":"Ukraine","name":"Avdeyevka Pervaya","name_adm0":"Ukraine","name_adm1":"Donets´ka Oblast´","name_en":"Avdeyevka Pervaya"},"geometry":{"type":"Point","coordinates":[37.76667,48.13333]}},{"type":"feature","properties":{"country_en":"Ukraine","name":"Babchintsy","name_adm0":"Ukraine","name_adm1":"Vinnyts´ka Oblast´","name_en":"Babchintsy"},"geometry":{"type":"Point","coordinates":[29.03634,48.866409999999995]}},{"type":"feature","properties":{"country_en":"Ukraine","name":"Bagerovo","name_adm0":"Ukraine","name_adm1":"Avtonomna Respublika Krym","name_en":"Bagerovo"},"geometry":{"type":"Point","coordinates":[36.309819999999995,45.38358999999999]}},{"type":"feature","properties":{"country_en":"Ukraine","name":"Bel'sk","name_adm0":"Ukraine","name_adm1":"Poltavs´ka Oblast´","name_en":"Bel'sk"},"geometry":{"type":"Point","coordinates":[34.63502,50.0938]}},{"type":"feature","properties":{"country_en":"Ukraine","name":"Belen'koye","name_adm0":"Ukraine","name_adm1":"Donets´ka Oblast´","name_en":"Belen'koye"},"geometry":{"type":"Point","coordinates":[37.63626,48.76436]}},{"type":"feature","properties":{"country_en":"Ukraine","name":"Belozerskoye","name_adm0":"Ukraine","name_adm1":"Donets´ka Oblast´","name_en":"Belozerskoye"},"geometry":{"type":"Point","coordinates":[37.06272,48.53366]}},{"type":"feature","properties":{"country_en":"Ukraine","name":"Bishkin'","name_adm0":"Ukraine","name_adm1":"Sums´ka Oblast´","name_en":"Bishkin'"},"geometry":{"type":"Point","coordinates":[34.62513,50.63242]}},{"type":"feature","properties":{"country_en":"Ukraine","name":"Blagodatnoye","name_adm0":"Ukraine","name_adm1":"Mykolayivs´ka Oblast´","name_en":"Blagodatnoye"},"geometry":{"type":"Point","coordinates":[31.14359,47.99211]}},{"type":"feature","properties":{"country_en":"Ukraine","name":"Borovskoye","name_adm0":"Ukraine","name_adm1":"Luhans´ka Oblast´","name_en":"Borovskoye"},"geometry":{"type":"Point","coordinates":[38.56931,48.86688999999999]}},{"type":"feature","properties":{"country_en":"Ukraine","name":"Borshchevoye","name_adm0":"Ukraine","name_adm1":"Kharkivs´ka Oblast´","name_en":"Borshchevoye"},"geometry":{"type":"Point","coordinates":[37.12389,50.00078]}},{"type":"feature","properties":{"country_en":"Ukraine","name":"Breusovka","name_adm0":"Ukraine","name_adm1":"Poltavs´ka Oblast´","name_en":"Breusovka"},"geometry":{"type":"Point","coordinates":[34.00433,49.14580999999999]}},{"type":"feature","properties":{"country_en":"Ukraine","name":"Busk","name_adm0":"Ukraine","name_adm1":"L´vivs´ka Oblast´","name_en":"Busk"},"geometry":{"type":"Point","coordinates":[24.61227,49.96548]}},{"type":"feature","properties":{"country_en":"Ukraine","name":"Bylbasovka","name_adm0":"Ukraine","name_adm1":"Donets´ka Oblast´","name_en":"Bylbasovka"},"geometry":{"type":"Point","coordinates":[37.50168,48.83664999999999]}},{"type":"feature","properties":{"country_en":"Ukraine","name":"Byrlovka","name_adm0":"Ukraine","name_adm1":"Cherkas´ka Oblast´","name_en":"Byrlovka"},"geometry":{"type":"Point","coordinates":[32.06741,50.085899999999995]}},{"type":"feature","properties":{"country_en":"Ukraine","name":"Chapayevka","name_adm0":"Ukraine","name_adm1":"Vinnyts´ka Oblast´","name_en":"Chapayevka"},"geometry":{"type":"Point","coordinates":[28.212,48.67617]}},{"type":"feature","properties":{"country_en":"Ukraine","name":"Chervonoarmeysk","name_adm0":"Ukraine","name_adm1":"Zhytomyrs´ka Oblast´","name_en":"Chervonoarmeysk"},"geometry":{"type":"Point","coordinates":[28.2713,50.46784]}},{"type":"feature","properties":{"country_en":"Ukraine","name":"Chervonoarmeyskoye Vtoroye","name_adm0":"Ukraine","name_adm1":"Kharkivs´ka Oblast´","name_en":"Chervonoarmeyskoye Vtoroye"},"geometry":{"type":"Point","coordinates":[37.13843,50.07985]}},{"type":"feature","properties":{"country_en":"Ukraine","name":"Deykalovka","name_adm0":"Ukraine","name_adm1":"Poltavs´ka Oblast´","name_en":"Deykalovka"},"geometry":{"type":"Point","coordinates":[34.28601999999999,50.11577]}},{"type":"feature","properties":{"country_en":"Ukraine","name":"Dikovka","name_adm0":"Ukraine","name_adm1":"Kirovohrads´ka Oblast´","name_en":"Dikovka"},"geometry":{"type":"Point","coordinates":[32.08616,48.75153]}},{"type":"feature","properties":{"country_en":"Ukraine","name":"Dmitriyevka","name_adm0":"Ukraine","name_adm1":"Odes´ka Oblast´","name_en":"Dmitriyevka"},"geometry":{"type":"Point","coordinates":[31.330109999999998,46.9546]}},{"type":"feature","properties":{"country_en":"Ukraine","name":"Dmitriyevka","name_adm0":"Ukraine","name_adm1":"Donets´ka Oblast´","name_en":"Dmitriyevka"},"geometry":{"type":"Point","coordinates":[37.5201,47.54657]}},{"type":"feature","properties":{"country_en":"Ukraine","name":"Druzhba","name_adm0":"Ukraine","name_adm1":"Sums´ka Oblast´","name_en":"Druzhba"},"geometry":{"type":"Point","coordinates":[34.89778,50.18972]}},{"type":"feature","properties":{"country_en":"Ukraine","name":"Druzhnoye","name_adm0":"Ukraine","name_adm1":"Donets´ka Oblast´","name_en":"Druzhnoye"},"geometry":{"type":"Point","coordinates":[38.34139,48.18611]}},{"type":"feature","properties":{"country_en":"Ukraine","name":"Fedun'ki","name_adm0":"Ukraine","name_adm1":"Poltavs´ka Oblast´","name_en":"Fedun'ki"},"geometry":{"type":"Point","coordinates":[33.90805999999999,49.76302]}},{"type":"feature","properties":{"country_en":"Ukraine","name":"Galayki","name_adm0":"Ukraine","name_adm1":"Kyyivs´ka Oblast´","name_en":"Galayki"},"geometry":{"type":"Point","coordinates":[30.4945,51.5816]}},{"type":"feature","properties":{"country_en":"Ukraine","name":"Gavrilovka","name_adm0":"Ukraine","name_adm1":"Dnipropetrovs´ka Oblast´","name_en":"Gavrilovka"},"geometry":{"type":"Point","coordinates":[35.11345,49.08848]}},{"type":"feature","properties":{"country_en":"Ukraine","name":"Gaysin","name_adm0":"Ukraine","name_adm1":"Vinnyts´ka Oblast´","name_en":"Gaysin"},"geometry":{"type":"Point","coordinates":[29.06667,49.23333]}},{"type":"feature","properties":{"country_en":"Ukraine","name":"Gorodishche","name_adm0":"Ukraine","name_adm1":"Ternopil´s´ka Oblast´","name_en":"Gorodishche"},"geometry":{"type":"Point","coordinates":[25.3474,49.50134]}},{"type":"feature","properties":{"country_en":"Ukraine","name":"Gorodnya","name_adm0":"Ukraine","name_adm1":"Chernihivs´ka Oblast´","name_en":"Gorodnya"},"geometry":{"type":"Point","coordinates":[31.549699999999998,52.3261]}},{"type":"feature","properties":{"country_en":"Ukraine","name":"Goryshkovka","name_adm0":"Ukraine","name_adm1":"Vinnyts´ka Oblast´","name_en":"Goryshkovka"},"geometry":{"type":"Point","coordinates":[28.61552,48.640649999999994]}},{"type":"feature","properties":{"country_en":"Ukraine","name":"Grakowo","name_adm0":"Ukraine","name_adm1":"Kharkivs´ka Oblast´","name_en":"Grakowo"},"geometry":{"type":"Point","coordinates":[36.81482,49.71822]}},{"type":"feature","properties":{"country_en":"Ukraine","name":"Grechishkino","name_adm0":"Ukraine","name_adm1":"Luhans´ka Oblast´","name_en":"Grechishkino"},"geometry":{"type":"Point","coordinates":[38.89688,48.86753]}},{"type":"feature","properties":{"country_en":"Ukraine","name":"Grigor'yevka","name_adm0":"Ukraine","name_adm1":"Donets´ka Oblast´","name_en":"Grigor'yevka"},"geometry":{"type":"Point","coordinates":[37.8985,47.40699999999999]}},{"type":"feature","properties":{"country_en":"Ukraine","name":"Grishino","name_adm0":"Ukraine","name_adm1":"Donets´ka Oblast´","name_en":"Grishino"},"geometry":{"type":"Point","coordinates":[37.08029,48.32804]}},{"type":"feature","properties":{"country_en":"Ukraine","name":"Grun'","name_adm0":"Ukraine","name_adm1":"Sums´ka Oblast´","name_en":"Grun'"},"geometry":{"type":"Point","coordinates":[34.26474,50.70638999999999]}},{"type":"feature","properties":{"country_en":"Ukraine","name":"Hrynyava","name_adm0":"Ukraine","name_adm1":"Ivano-Frankivs´ka Oblast´","name_en":"Hrynyava"},"geometry":{"type":"Point","coordinates":[24.8758,47.98393]}},{"type":"feature","properties":{"country_en":"Ukraine","name":"Irkliyiv","name_adm0":"Ukraine","name_adm1":"Cherkas´ka Oblast´","name_en":"Irkliyiv"},"geometry":{"type":"Point","coordinates":[32.33482,49.51867]}},{"type":"feature","properties":{"country_en":"Ukraine","name":"Ivanki","name_adm0":"Ukraine","name_adm1":"Kharkivs´ka Oblast´","name_en":"Ivanki"},"geometry":{"type":"Point","coordinates":[35.61667,50.3]}},{"type":"feature","properties":{"country_en":"Ukraine","name":"Ivankovtsy","name_adm0":"Ukraine","name_adm1":"Kirovohrads´ka Oblast´","name_en":"Ivankovtsy"},"geometry":{"type":"Point","coordinates":[32.71541,48.91123]}},{"type":"feature","properties":{"country_en":"Ukraine","name":"Ivanov","name_adm0":"Ukraine","name_adm1":"Vinnyts´ka Oblast´","name_en":"Ivanov"},"geometry":{"type":"Point","coordinates":[28.348149999999997,49.48587]}},{"type":"feature","properties":{"country_en":"Ukraine","name":"Kazarovichi","name_adm0":"Ukraine","name_adm1":"Kyyivs´ka Oblast´","name_en":"Kazarovichi"},"geometry":{"type":"Point","coordinates":[30.35269,50.75602]}},{"type":"feature","properties":{"country_en":"Ukraine","name":"Kazatskoye","name_adm0":"Ukraine","name_adm1":"Sums´ka Oblast´","name_en":"Kazatskoye"},"geometry":{"type":"Point","coordinates":[35.15267,50.39291]}},{"type":"feature","properties":{"country_en":"Ukraine","name":"Khreshchatoye","name_adm0":"Ukraine","name_adm1":"Chernihivs´ka Oblast´","name_en":"Khreshchatoye"},"geometry":{"type":"Point","coordinates":[31.36464,51.14036999999999]}},{"type":"feature","properties":{"country_en":"Ukraine","name":"Khristishche","name_adm0":"Ukraine","name_adm1":"Donets´ka Oblast´","name_en":"Khristishche"},"geometry":{"type":"Point","coordinates":[37.49880999999999,48.92279]}},{"type":"feature","properties":{"country_en":"Ukraine","name":"Kocherezhki","name_adm0":"Ukraine","name_adm1":"Dnipropetrovs´ka Oblast´","name_en":"Kocherezhki"},"geometry":{"type":"Point","coordinates":[35.698859999999996,48.67134]}},{"type":"feature","properties":{"country_en":"Ukraine","name":"Kolgospivka","name_adm0":"Ukraine","name_adm1":"Dnipropetrovs´ka Oblast´","name_en":"Kolgospivka"},"geometry":{"type":"Point","coordinates":[34.53333,48.73333]}},{"type":"feature","properties":{"country_en":"Ukraine","name":"Kotovka","name_adm0":"Ukraine","name_adm1":"Dnipropetrovs´ka Oblast´","name_en":"Kotovka"},"geometry":{"type":"Point","coordinates":[34.94163,49.1337]}},{"type":"feature","properties":{"country_en":"Ukraine","name":"Kotovsk","name_adm0":"Ukraine","name_adm1":"Odes´ka Oblast´","name_en":"Kotovsk"},"geometry":{"type":"Point","coordinates":[30.78039,47.33949]}},{"type":"feature","properties":{"country_en":"Ukraine","name":"Kovalevka Nomer Vtoroy","name_adm0":"Ukraine","name_adm1":"Kirovohrads´ka Oblast´","name_en":"Kovalevka Nomer Vtoroy"},"geometry":{"type":"Point","coordinates":[32.58333,48]}},{"type":"feature","properties":{"country_en":"Ukraine","name":"Kozel'shchina","name_adm0":"Ukraine","name_adm1":"Poltavs´ka Oblast´","name_en":"Kozel'shchina"},"geometry":{"type":"Point","coordinates":[34.74658,49.78020999999999]}},{"type":"feature","properties":{"country_en":"Ukraine","name":"Krasilovka","name_adm0":"Ukraine","name_adm1":"Chernihivs´ka Oblast´","name_en":"Krasilovka"},"geometry":{"type":"Point","coordinates":[31.048300000000005,52.1087]}},{"type":"feature","properties":{"country_en":"Ukraine","name":"Krasnaya Gora","name_adm0":"Ukraine","name_adm1":"Donets´ka Oblast´","name_en":"Krasnaya Gora"},"geometry":{"type":"Point","coordinates":[38.01622999999999,48.65932999999999]}},{"type":"feature","properties":{"country_en":"Ukraine","name":"Kremennoye","name_adm0":"Ukraine","name_adm1":"Donets´ka Oblast´","name_en":"Kremennoye"},"geometry":{"type":"Point","coordinates":[38.76667,48.01667]}},{"type":"feature","properties":{"country_en":"Ukraine","name":"Kreminna","name_adm0":"Ukraine","name_adm1":"Khmel´nyts´ka Oblast´","name_en":"Kreminna"},"geometry":{"type":"Point","coordinates":[26.48874,49.20017]}},{"type":"feature","properties":{"country_en":"Ukraine","name":"Krestovka","name_adm0":"Ukraine","name_adm1":"Donets´ka Oblast´","name_en":"Krestovka"},"geometry":{"type":"Point","coordinates":[38.07889,47.45333]}},{"type":"feature","properties":{"country_en":"Ukraine","name":"Krikhayevo","name_adm0":"Ukraine","name_adm1":"Chernihivs´ka Oblast´","name_en":"Krikhayevo"},"geometry":{"type":"Point","coordinates":[30.79683,50.80377]}},{"type":"feature","properties":{"country_en":"Ukraine","name":"Krinichnaya","name_adm0":"Ukraine","name_adm1":"Luhans´ka Oblast´","name_en":"Krinichnaya"},"geometry":{"type":"Point","coordinates":[38.71567,48.60399999999999]}},{"type":"feature","properties":{"country_en":"Ukraine","name":"Krivaya Ruda","name_adm0":"Ukraine","name_adm1":"Poltavs´ka Oblast´","name_en":"Krivaya Ruda"},"geometry":{"type":"Point","coordinates":[33.71667,49.2]}},{"type":"feature","properties":{"country_en":"Ukraine","name":"Kuchinovka","name_adm0":"Ukraine","name_adm1":"Chernihivs´ka Oblast´","name_en":"Kuchinovka"},"geometry":{"type":"Point","coordinates":[31.913739999999997,51.71679]}},{"type":"feature","properties":{"country_en":"Ukraine","name":"Kukavka","name_adm0":"Ukraine","name_adm1":"Vinnyts´ka Oblast´","name_en":"Kukavka"},"geometry":{"type":"Point","coordinates":[27.70811,48.60174]}},{"type":"feature","properties":{"country_en":"Ukraine","name":"Kumary","name_adm0":"Ukraine","name_adm1":"Mykolayivs´ka Oblast´","name_en":"Kumary"},"geometry":{"type":"Point","coordinates":[30.670909999999996,47.93505]}},{"type":"feature","properties":{"country_en":"Ukraine","name":"Lageri","name_adm0":"Ukraine","name_adm1":"Kharkivs´ka Oblast´","name_en":"Lageri"},"geometry":{"type":"Point","coordinates":[36.80472,49.46583]}},{"type":"feature","properties":{"country_en":"Ukraine","name":"Losinovka","name_adm0":"Ukraine","name_adm1":"Chernihivs´ka Oblast´","name_en":"Losinovka"},"geometry":{"type":"Point","coordinates":[30.838899999999995,52.3695]}},{"type":"feature","properties":{"country_en":"Ukraine","name":"Lozovatka","name_adm0":"Ukraine","name_adm1":"Cherkas´ka Oblast´","name_en":"Lozovatka"},"geometry":{"type":"Point","coordinates":[31.280489999999997,49.05469999999999]}},{"type":"feature","properties":{"country_en":"Ukraine","name":"Lyuten'ka","name_adm0":"Ukraine","name_adm1":"Poltavs´ka Oblast´","name_en":"Lyuten'ka"},"geometry":{"type":"Point","coordinates":[34.0367,50.21084]}},{"type":"feature","properties":{"country_en":"Ukraine","name":"Malaya Pereshchepina","name_adm0":"Ukraine","name_adm1":"Poltavs´ka Oblast´","name_en":"Malaya Pereshchepina"},"geometry":{"type":"Point","coordinates":[34.57445,49.39037]}},{"type":"feature","properties":{"country_en":"Ukraine","name":"Malaya Rusava","name_adm0":"Ukraine","name_adm1":"Vinnyts´ka Oblast´","name_en":"Malaya Rusava"},"geometry":{"type":"Point","coordinates":[28.46667,48.61667]}},{"type":"feature","properties":{"country_en":"Ukraine","name":"Malyy Korogod","name_adm0":"Ukraine","name_adm1":"Kyyivs´ka Oblast´","name_en":"Malyy Korogod"},"geometry":{"type":"Point","coordinates":[30.01667,51.28333]}},{"type":"feature","properties":{"country_en":"Ukraine","name":"Malyye Krushlintsy","name_adm0":"Ukraine","name_adm1":"Vinnyts´ka Oblast´","name_en":"Malyye Krushlintsy"},"geometry":{"type":"Point","coordinates":[28.67793,49.2457]}},{"type":"feature","properties":{"country_en":"Ukraine","name":"Malyye Puzy'ki","name_adm0":"Ukraine","name_adm1":"Khmel´nyts´ka Oblast´","name_en":"Malyye Puzy'ki"},"geometry":{"type":"Point","coordinates":[26.75676,49.84119]}},{"type":"feature","properties":{"country_en":"Ukraine","name":"Maydanetskoye","name_adm0":"Ukraine","name_adm1":"Cherkas´ka Oblast´","name_en":"Maydanetskoye"},"geometry":{"type":"Point","coordinates":[30.704809999999995,48.8134]}},{"type":"feature","properties":{"country_en":"Ukraine","name":"Mikhalkovo","name_adm0":"Ukraine","name_adm1":"Chernivets´ka Oblast´","name_en":"Mikhalkovo"},"geometry":{"type":"Point","coordinates":[26.08018,48.63114]}},{"type":"feature","properties":{"country_en":"Ukraine","name":"Mikhaylovka","name_adm0":"Ukraine","name_adm1":"Vinnyts´ka Oblast´","name_en":"Mikhaylovka"},"geometry":{"type":"Point","coordinates":[28.53333,49.03333]}},{"type":"feature","properties":{"country_en":"Ukraine","name":"Nekhvoroshcha","name_adm0":"Ukraine","name_adm1":"Poltavs´ka Oblast´","name_en":"Nekhvoroshcha"},"geometry":{"type":"Point","coordinates":[34.715,49.14446999999999]}},{"type":"feature","properties":{"country_en":"Ukraine","name":"Nelepovka","name_adm0":"Ukraine","name_adm1":"Donets´ka Oblast´","name_en":"Nelepovka"},"geometry":{"type":"Point","coordinates":[37.83451,48.3534]}},{"type":"feature","properties":{"country_en":"Ukraine","name":"Nepedovka","name_adm0":"Ukraine","name_adm1":"Vinnyts´ka Oblast´","name_en":"Nepedovka"},"geometry":{"type":"Point","coordinates":[28.80713,49.77548999999999]}},{"type":"feature","properties":{"country_en":"Ukraine","name":"Nikitovka","name_adm0":"Ukraine","name_adm1":"Donets´ka Oblast´","name_en":"Nikitovka"},"geometry":{"type":"Point","coordinates":[38.19278,48.00694]}},{"type":"feature","properties":{"country_en":"Ukraine","name":"Nizhnyaya Pokrovka","name_adm0":"Ukraine","name_adm1":"Luhans´ka Oblast´","name_en":"Nizhnyaya Pokrovka"},"geometry":{"type":"Point","coordinates":[39.9383,48.3643]}},{"type":"feature","properties":{"country_en":"Ukraine","name":"Novo-Prokopovka","name_adm0":"Ukraine","name_adm1":"Zaporiz´ka Oblast´","name_en":"Novo-Prokopovka"},"geometry":{"type":"Point","coordinates":[35.83616,47.41048]}},{"type":"feature","properties":{"country_en":"Ukraine","name":"Novo-Rozovka","name_adm0":"Ukraine","name_adm1":"Zaporiz´ka Oblast´","name_en":"Novo-Rozovka"},"geometry":{"type":"Point","coordinates":[35.76217,47.77048]}},{"type":"feature","properties":{"country_en":"Ukraine","name":"Novo-Uspenovka","name_adm0":"Ukraine","name_adm1":"Zaporiz´ka Oblast´","name_en":"Novo-Uspenovka"},"geometry":{"type":"Point","coordinates":[35.03236,47.05002]}},{"type":"feature","properties":{"country_en":"Ukraine","name":"Novoivanivs'ke","name_adm0":"Ukraine","name_adm1":"Dnipropetrovs´ka Oblast´","name_en":"Novoivanivs'ke"},"geometry":{"type":"Point","coordinates":[35.64489,47.7982]}},{"type":"feature","properties":{"country_en":"Ukraine","name":"Novomar'yevka","name_adm0":"Ukraine","name_adm1":"Donets´ka Oblast´","name_en":"Novomar'yevka"},"geometry":{"type":"Point","coordinates":[38.14686,48.15108]}},{"type":"feature","properties":{"country_en":"Ukraine","name":"Novovasilevka","name_adm0":"Ukraine","name_adm1":"Zaporiz´ka Oblast´","name_en":"Novovasilevka"},"geometry":{"type":"Point","coordinates":[34.88626,48.78485]}},{"type":"feature","properties":{"country_en":"Ukraine","name":"Novovodyanoye","name_adm0":"Ukraine","name_adm1":"Donets´ka Oblast´","name_en":"Novovodyanoye"},"geometry":{"type":"Point","coordinates":[37.14666,48.54433999999999]}},{"type":"feature","properties":{"country_en":"Ukraine","name":"Novoyanisol'","name_adm0":"Ukraine","name_adm1":"Donets´ka Oblast´","name_en":"Novoyanisol'"},"geometry":{"type":"Point","coordinates":[37.2685,47.29325]}},{"type":"feature","properties":{"country_en":"Ukraine","name":"Okhrimovtsy","name_adm0":"Ukraine","name_adm1":"Khmel´nyts´ka Oblast´","name_en":"Okhrimovtsy"},"geometry":{"type":"Point","coordinates":[27.27595,49.11212]}},{"type":"feature","properties":{"country_en":"Ukraine","name":"Oktyabr'skoye","name_adm0":"Ukraine","name_adm1":"Donets´ka Oblast´","name_en":"Oktyabr'skoye"},"geometry":{"type":"Point","coordinates":[37.316669999999995,47.98333]}},{"type":"feature","properties":{"country_en":"Ukraine","name":"Ol'khovatka","name_adm0":"Ukraine","name_adm1":"Donets´ka Oblast´","name_en":"Ol'khovatka"},"geometry":{"type":"Point","coordinates":[38.41282,48.25189]}},{"type":"feature","properties":{"country_en":"Ukraine","name":"Ol'shanka","name_adm0":"Ukraine","name_adm1":"Vinnyts´ka Oblast´","name_en":"Ol'shanka"},"geometry":{"type":"Point","coordinates":[28.145589999999995,50.01786]}},{"type":"feature","properties":{"country_en":"Ukraine","name":"Ostroye","name_adm0":"Ukraine","name_adm1":"Donets´ka Oblast´","name_en":"Ostroye"},"geometry":{"type":"Point","coordinates":[37.40165,47.99177]}},{"type":"feature","properties":{"country_en":"Ukraine","name":"Pavlovka","name_adm0":"Ukraine","name_adm1":"Volyns´ka Oblast´","name_en":"Pavlovka"},"geometry":{"type":"Point","coordinates":[24.45869,50.62086]}},{"type":"feature","properties":{"country_en":"Ukraine","name":"Perekop","name_adm0":"Ukraine","name_adm1":"Kharkivs´ka Oblast´","name_en":"Perekop"},"geometry":{"type":"Point","coordinates":[35.49594,49.88134]}},{"type":"feature","properties":{"country_en":"Ukraine","name":"Pershotravenka","name_adm0":"Ukraine","name_adm1":"Dnipropetrovs´ka Oblast´","name_en":"Pershotravenka"},"geometry":{"type":"Point","coordinates":[34.80597,48.782149999999994]}},{"type":"feature","properties":{"country_en":"Ukraine","name":"Pervokonstantinovka","name_adm0":"Ukraine","name_adm1":"Khersons´ka Oblast´","name_en":"Pervokonstantinovka"},"geometry":{"type":"Point","coordinates":[32.31367,46.98796999999999]}},{"type":"feature","properties":{"country_en":"Ukraine","name":"Petro-Davydovka","name_adm0":"Ukraine","name_adm1":"Poltavs´ka Oblast´","name_en":"Petro-Davydovka"},"geometry":{"type":"Point","coordinates":[34.39074,49.88963999999999]}},{"type":"feature","properties":{"country_en":"Ukraine","name":"Petro-Mikhaylovka","name_adm0":"Ukraine","name_adm1":"Zaporiz´ka Oblast´","name_en":"Petro-Mikhaylovka"},"geometry":{"type":"Point","coordinates":[35.23153,48.0589]}},{"type":"feature","properties":{"country_en":"Ukraine","name":"Petrovka","name_adm0":"Ukraine","name_adm1":"Kharkivs´ka Oblast´","name_en":"Petrovka"},"geometry":{"type":"Point","coordinates":[36.52316,50.11223999999999]}},{"type":"feature","properties":{"country_en":"Ukraine","name":"Petrovka","name_adm0":"Ukraine","name_adm1":"Avtonomna Respublika Krym","name_en":"Petrovka"},"geometry":{"type":"Point","coordinates":[33.78492,45.01619999999999]}},{"type":"feature","properties":{"country_en":"Ukraine","name":"Petrovka","name_adm0":"Ukraine","name_adm1":"Khersons´ka Oblast´","name_en":"Petrovka"},"geometry":{"type":"Point","coordinates":[32.54051,46.18864]}},{"type":"feature","properties":{"country_en":"Ukraine","name":"Pochapka","name_adm0":"Ukraine","name_adm1":"Rivnens´ka Oblast´","name_en":"Pochapka"},"geometry":{"type":"Point","coordinates":[26.65174,50.44591]}},{"type":"feature","properties":{"country_en":"Ukraine","name":"Podgorodnoye","name_adm0":"Ukraine","name_adm1":"Dnipropetrovs´ka Oblast´","name_en":"Podgorodnoye"},"geometry":{"type":"Point","coordinates":[35.75769,47.92318]}},{"type":"feature","properties":{"country_en":"Ukraine","name":"Podlesnyy Yaltushkov","name_adm0":"Ukraine","name_adm1":"Vinnyts´ka Oblast´","name_en":"Podlesnyy Yaltushkov"},"geometry":{"type":"Point","coordinates":[27.55494,48.92649]}},{"type":"feature","properties":{"country_en":"Ukraine","name":"Primorskoye","name_adm0":"Ukraine","name_adm1":"Donets´ka Oblast´","name_en":"Primorskoye"},"geometry":{"type":"Point","coordinates":[37.94432,47.31391]}},{"type":"feature","properties":{"country_en":"Ukraine","name":"Proletarskoye","name_adm0":"Ukraine","name_adm1":"Donets´ka Oblast´","name_en":"Proletarskoye"},"geometry":{"type":"Point","coordinates":[38.09979,48.0159]}},{"type":"feature","properties":{"country_en":"Ukraine","name":"Protopopovka","name_adm0":"Ukraine","name_adm1":"Kharkivs´ka Oblast´","name_en":"Protopopovka"},"geometry":{"type":"Point","coordinates":[35.83662,50.02908]}},{"type":"feature","properties":{"country_en":"Ukraine","name":"Rayevka","name_adm0":"Ukraine","name_adm1":"Dnipropetrovs´ka Oblast´","name_en":"Rayevka"},"geometry":{"type":"Point","coordinates":[35.45548,48.35314]}},{"type":"feature","properties":{"country_en":"Ukraine","name":"Raygorod","name_adm0":"Ukraine","name_adm1":"Vinnyts´ka Oblast´","name_en":"Raygorod"},"geometry":{"type":"Point","coordinates":[29.08007,48.88046]}},{"type":"feature","properties":{"country_en":"Ukraine","name":"Rayskoye","name_adm0":"Ukraine","name_adm1":"Donets´ka Oblast´","name_en":"Rayskoye"},"geometry":{"type":"Point","coordinates":[37.46046,48.573539999999994]}},{"type":"feature","properties":{"country_en":"Ukraine","name":"Rubezhnoye","name_adm0":"Ukraine","name_adm1":"Luhans´ka Oblast´","name_en":"Rubezhnoye"},"geometry":{"type":"Point","coordinates":[40.0686,48.2953]}},{"type":"feature","properties":{"country_en":"Ukraine","name":"Rudanskoye","name_adm0":"Ukraine","name_adm1":"Vinnyts´ka Oblast´","name_en":"Rudanskoye"},"geometry":{"type":"Point","coordinates":[27.94054,48.78035]}},{"type":"feature","properties":{"country_en":"Ukraine","name":"Semenovka","name_adm0":"Ukraine","name_adm1":"Poltavs´ka Oblast´","name_en":"Semenovka"},"geometry":{"type":"Point","coordinates":[34.6,49.66667]}},{"type":"feature","properties":{"country_en":"Ukraine","name":"Semenovka","name_adm0":"Ukraine","name_adm1":"Dnipropetrovs´ka Oblast´","name_en":"Semenovka"},"geometry":{"type":"Point","coordinates":[34.32556,48.45985999999999]}},{"type":"feature","properties":{"country_en":"Ukraine","name":"Semenovka","name_adm0":"Ukraine","name_adm1":"Chernihivs´ka Oblast´","name_en":"Semenovka"},"geometry":{"type":"Point","coordinates":[31.0216,52.0847]}},{"type":"feature","properties":{"country_en":"Ukraine","name":"Shevchenkovo","name_adm0":"Ukraine","name_adm1":"Sums´ka Oblast´","name_en":"Shevchenkovo"},"geometry":{"type":"Point","coordinates":[34.74763999999999,50.98132]}},{"type":"feature","properties":{"country_en":"Ukraine","name":"Shevchenkovo","name_adm0":"Ukraine","name_adm1":"Kharkivs´ka Oblast´","name_en":"Shevchenkovo"},"geometry":{"type":"Point","coordinates":[35.57867,50.35557]}},{"type":"feature","properties":{"country_en":"Ukraine","name":"Shirokoye","name_adm0":"Ukraine","name_adm1":"Donets´ka Oblast´","name_en":"Shirokoye"},"geometry":{"type":"Point","coordinates":[38.14727,47.5591]}},{"type":"feature","properties":{"country_en":"Ukraine","name":"Smolino","name_adm0":"Ukraine","name_adm1":"Kirovohrads´ka Oblast´","name_en":"Smolino"},"geometry":{"type":"Point","coordinates":[31.294979999999995,48.60307]}},{"type":"feature","properties":{"country_en":"Ukraine","name":"Sofiyevka","name_adm0":"Ukraine","name_adm1":"Dnipropetrovs´ka Oblast´","name_en":"Sofiyevka"},"geometry":{"type":"Point","coordinates":[34.78333,48.24999999999999]}},{"type":"feature","properties":{"country_en":"Ukraine","name":"Staroverovka","name_adm0":"Ukraine","name_adm1":"Kharkivs´ka Oblast´","name_en":"Staroverovka"},"geometry":{"type":"Point","coordinates":[35.69665,49.543609999999994]}},{"type":"feature","properties":{"country_en":"Ukraine","name":"Staryy Maydan","name_adm0":"Ukraine","name_adm1":"Zhytomyrs´ka Oblast´","name_en":"Staryy Maydan"},"geometry":{"type":"Point","coordinates":[28.03539,50.40303999999999]}},{"type":"feature","properties":{"country_en":"Ukraine","name":"Storozhinets","name_adm0":"Ukraine","name_adm1":"Chernivets´ka Oblast´","name_en":"Storozhinets"},"geometry":{"type":"Point","coordinates":[25.720279999999995,48.1643]}},{"type":"feature","properties":{"country_en":"Ukraine","name":"Struga","name_adm0":"Ukraine","name_adm1":"Khmel´nyts´ka Oblast´","name_en":"Struga"},"geometry":{"type":"Point","coordinates":[27.32286,48.7933]}},{"type":"feature","properties":{"country_en":"Ukraine","name":"Studena","name_adm0":"Ukraine","name_adm1":"Vinnyts´ka Oblast´","name_en":"Studena"},"geometry":{"type":"Point","coordinates":[28.422819999999998,49.1408]}},{"type":"feature","properties":{"country_en":"Ukraine","name":"Sulymivka","name_adm0":"Ukraine","name_adm1":"Kyyivs´ka Oblast´","name_en":"Sulymivka"},"geometry":{"type":"Point","coordinates":[30.857899999999997,51.94064999999999]}},{"type":"feature","properties":{"country_en":"Ukraine","name":"Suvorovskoye","name_adm0":"Ukraine","name_adm1":"Vinnyts´ka Oblast´","name_en":"Suvorovskoye"},"geometry":{"type":"Point","coordinates":[28.807369999999995,48.62467]}},{"type":"feature","properties":{"country_en":"Ukraine","name":"Svidovets","name_adm0":"Ukraine","name_adm1":"Chernihivs´ka Oblast´","name_en":"Svidovets"},"geometry":{"type":"Point","coordinates":[31.57586,50.7392]}},{"type":"feature","properties":{"country_en":"Ukraine","name":"Udy","name_adm0":"Ukraine","name_adm1":"Kharkivs´ka Oblast´","name_en":"Udy"},"geometry":{"type":"Point","coordinates":[36.05548,50.39081999999999]}},{"type":"feature","properties":{"country_en":"Ukraine","name":"Ugorniki","name_adm0":"Ukraine","name_adm1":"Ivano-Frankivs´ka Oblast´","name_en":"Ugorniki"},"geometry":{"type":"Point","coordinates":[24.76277,48.92143999999999]}},{"type":"feature","properties":{"country_en":"Ukraine","name":"Ulanov","name_adm0":"Ukraine","name_adm1":"Sums´ka Oblast´","name_en":"Ulanov"},"geometry":{"type":"Point","coordinates":[34.30111,51.75543]}},{"type":"feature","properties":{"country_en":"Ukraine","name":"Valer'yanovka","name_adm0":"Ukraine","name_adm1":"Donets´ka Oblast´","name_en":"Valer'yanovka"},"geometry":{"type":"Point","coordinates":[37.38117,47.63871]}},{"type":"feature","properties":{"country_en":"Ukraine","name":"Varvarovka","name_adm0":"Ukraine","name_adm1":"Luhans´ka Oblast´","name_en":"Varvarovka"},"geometry":{"type":"Point","coordinates":[39.63972,48.26028]}},{"type":"feature","properties":{"country_en":"Ukraine","name":"Velikaya Pavlovka","name_adm0":"Ukraine","name_adm1":"Poltavs´ka Oblast´","name_en":"Velikaya Pavlovka"},"geometry":{"type":"Point","coordinates":[34.26945,50.2393]}},{"type":"feature","properties":{"country_en":"Ukraine","name":"Vershino-Kamenka","name_adm0":"Ukraine","name_adm1":"Kirovohrads´ka Oblast´","name_en":"Vershino-Kamenka"},"geometry":{"type":"Point","coordinates":[32.72524,48.44231]}},{"type":"feature","properties":{"country_en":"Ukraine","name":"Volkovintsy","name_adm0":"Ukraine","name_adm1":"Khmel´nyts´ka Oblast´","name_en":"Volkovintsy"},"geometry":{"type":"Point","coordinates":[26.0911,48.77066]}},{"type":"feature","properties":{"country_en":"Ukraine","name":"Volodarka","name_adm0":"Ukraine","name_adm1":"Kyyivs´ka Oblast´","name_en":"Volodarka"},"geometry":{"type":"Point","coordinates":[29.699069999999995,51.0751]}},{"type":"feature","properties":{"country_en":"Ukraine","name":"Vysokopol'","name_adm0":"Ukraine","name_adm1":"Kharkivs´ka Oblast´","name_en":"Vysokopol'"},"geometry":{"type":"Point","coordinates":[35.422579999999996,49.922959999999996]}},{"type":"feature","properties":{"country_en":"Ukraine","name":"Yakovenkovo","name_adm0":"Ukraine","name_adm1":"Avtonomna Respublika Krym","name_en":"Yakovenkovo"},"geometry":{"type":"Point","coordinates":[36.31983,45.0703]}},{"type":"feature","properties":{"country_en":"Ukraine","name":"Yalanets","name_adm0":"Ukraine","name_adm1":"Vinnyts´ka Oblast´","name_en":"Yalanets"},"geometry":{"type":"Point","coordinates":[28.49018,48.38126]}},{"type":"feature","properties":{"country_en":"Ukraine","name":"Yevgenovka","name_adm0":"Ukraine","name_adm1":"Donets´ka Oblast´","name_en":"Yevgenovka"},"geometry":{"type":"Point","coordinates":[37.08529,47.67018]}},{"type":"feature","properties":{"country_en":"Ukraine","name":"Yur'yevka","name_adm0":"Ukraine","name_adm1":"Sums´ka Oblast´","name_en":"Yur'yevka"},"geometry":{"type":"Point","coordinates":[34.13489,50.26274999999999]}},{"type":"feature","properties":{"country_en":"Ukraine","name":"Yur'yevka","name_adm0":"Ukraine","name_adm1":"Dnipropetrovs´ka Oblast´","name_en":"Yur'yevka"},"geometry":{"type":"Point","coordinates":[34.66741,49.0271]}},{"type":"feature","properties":{"country_en":"Ukraine","name":"Yur'yevka","name_adm0":"Ukraine","name_adm1":"Zaporiz´ka Oblast´","name_en":"Yur'yevka"},"geometry":{"type":"Point","coordinates":[35.61667,47.88333]}},{"type":"feature","properties":{"country_en":"Ukraine","name":"Yurkovka","name_adm0":"Ukraine","name_adm1":"Vinnyts´ka Oblast´","name_en":"Yurkovka"},"geometry":{"type":"Point","coordinates":[28.46992,49.75037]}},{"type":"feature","properties":{"country_en":"Ukraine","name":"Zaprudnoye","name_adm0":"Ukraine","name_adm1":"Avtonomna Respublika Krym","name_en":"Zaprudnoye"},"geometry":{"type":"Point","coordinates":[34.31659,44.59191]}},{"type":"feature","properties":{"country_en":"Ukraine","name":"Zaprudnoye","name_adm0":"Ukraine","name_adm1":"Donets´ka Oblast´","name_en":"Zaprudnoye"},"geometry":{"type":"Point","coordinates":[38.76667,48.01667]}},{"type":"feature","properties":{"country_en":"Ukraine","name":"Zhovtnevoye","name_adm0":"Ukraine","name_adm1":"Sums´ka Oblast´","name_en":"Zhovtnevoye"},"geometry":{"type":"Point","coordinates":[34.37813,50.94786]}},{"type":"feature","properties":{"country_en":"Ukraine","name":"Zhovtnevoye","name_adm0":"Ukraine","name_adm1":"Volyns´ka Oblast´","name_en":"Zhovtnevoye"},"geometry":{"type":"Point","coordinates":[24.43306,50.90813]}},{"type":"feature","properties":{"country_en":"Ukraine","name":"Tarasovka","name_adm0":"Ukraine","name_adm1":"Poltavs´ka Oblast´","name_en":"Tarasovka"},"geometry":{"type":"Point","coordinates":[34.949999999999996,49.56667]}},{"type":"feature","properties":{"country_en":"Ukraine","name":"Alekseyevka","name_adm0":"Ukraine","name_adm1":"Kharkivs´ka Oblast´","name_en":"Alekseyevka"},"geometry":{"type":"Point","coordinates":[36.2821,49.39668]}},{"type":"feature","properties":{"country_en":"Ukraine","name":"Zhovtnevo","name_adm0":"Ukraine","name_adm1":"Poltavs´ka Oblast´","name_en":"Zhovtnevo"},"geometry":{"type":"Point","coordinates":[34.13316999999999,49.64403]}},{"type":"feature","properties":{"country_en":"Ukraine","name":"Petrivka","name_adm0":"Ukraine","name_adm1":"Odes´ka Oblast´","name_en":"Petrivka"},"geometry":{"type":"Point","coordinates":[30.95914,46.96950999999999]}},{"type":"feature","properties":{"country_en":"Ukraine","name":"Avdeyevka","name_adm0":"Ukraine","name_adm1":"Donets´ka Oblast´","name_en":"Avdeyevka"},"geometry":{"type":"Point","coordinates":[37.742549999999994,48.13989]}},{"type":"feature","properties":{"country_en":"Ukraine","name":"Bereza","name_adm0":"Ukraine","name_adm1":"Sums´ka Oblast´","name_en":"Bereza"},