{"type":"FeatureCollection","features":[{"type":"Feature","properties":{"country_en":"Angola","name":"Chinguar","name_adm0":"Angola","name_adm1":"Lunda Sul","name_en":"Chinguar","iso":"AO"},"geometry":{"type":"Point","coordinates":[20.45,-9.449999999999998]}},{"type":"Feature","properties":{"country_en":"Angola","name":"Maela","name_adm0":"Angola","name_adm1":"Lunda Norte","name_en":"Maela","iso":"AO"},"geometry":{"type":"Point","coordinates":[14.833329999999998,-9.65]}},{"type":"Feature","properties":{"country_en":"Angola","name":"Mundanga","name_adm0":"Angola","name_adm1":"Lunda Norte","name_en":"Mundanga","iso":"AO"},"geometry":{"type":"Point","coordinates":[19.16667,-9.55]}},{"type":"Feature","properties":{"country_en":"Angola","name":"Sambo","name_adm0":"Angola","name_adm1":"Huambo","name_en":"Sambo","iso":"AO"},"geometry":{"type":"Point","coordinates":[15.343679999999999,-12.40728]}},{"type":"Feature","properties":{"country_en":"Angola","name":"Sanguvulo","name_adm0":"Angola","name_adm1":"Lunda Sul","name_en":"Sanguvulo","iso":"AO"},"geometry":{"type":"Point","coordinates":[21.2318,-10.46444]}},{"type":"Feature","properties":{"country_en":"Angola","name":"Saurimo","name_adm0":"Angola","name_adm1":"Lunda Sul","name_en":"Saurimo","iso":"AO"},"geometry":{"type":"Point","coordinates":[20.39155,-9.66078]}},{"type":"Feature","properties":{"country_en":"Angola","name":"Menongue","name_adm0":"Angola","name_adm1":"Cuando Cubango","name_en":"Menongue","iso":"AO"},"geometry":{"type":"Point","coordinates":[17.69099,-14.658499999999998]}},{"type":"Feature","properties":{"country_en":"Angola","name":"Baía dos Tigres","name_adm0":"Angola","name_adm1":"Namibe","name_en":"Baía dos Tigres","iso":"AO"},"geometry":{"type":"Point","coordinates":[11.73333,-16.6]}},{"type":"Feature","properties":{"country_en":"Angola","name":"Binge","name_adm0":"Angola","name_adm1":"Lunda Norte","name_en":"Binge","iso":"AO"},"geometry":{"type":"Point","coordinates":[14.350000000000001,-11.099999999999998]}},{"type":"Feature","properties":{"country_en":"Angola","name":"Bumba","name_adm0":"Angola","name_adm1":"Lunda Sul","name_en":"Bumba","iso":"AO"},"geometry":{"type":"Point","coordinates":[21.95163,-8.944]}},{"type":"Feature","properties":{"country_en":"Angola","name":"Caar","name_adm0":"Angola","name_adm1":"Bie","name_en":"Caar","iso":"AO"},"geometry":{"type":"Point","coordinates":[18.28333,-12.049999999999999]}},{"type":"Feature","properties":{"country_en":"Angola","name":"Cabari","name_adm0":"Angola","name_adm1":"Malanje","name_en":"Cabari","iso":"AO"},"geometry":{"type":"Point","coordinates":[17.4,-9.08333]}},{"type":"Feature","properties":{"country_en":"Angola","name":"Cambadacata","name_adm0":"Angola","name_adm1":"Moxico","name_en":"Cambadacata","iso":"AO"},"geometry":{"type":"Point","coordinates":[21.38333,-15.166669999999998]}},{"type":"Feature","properties":{"country_en":"Angola","name":"Cambange","name_adm0":"Angola","name_adm1":"Lunda Norte","name_en":"Cambange","iso":"AO"},"geometry":{"type":"Point","coordinates":[14.749209999999998,-9.63862]}},{"type":"Feature","properties":{"country_en":"Angola","name":"Cambolo","name_adm0":"Angola","name_adm1":"Lunda Norte","name_en":"Cambolo","iso":"AO"},"geometry":{"type":"Point","coordinates":[18.58761,-9.47533]}},{"type":"Feature","properties":{"country_en":"Angola","name":"Catala","name_adm0":"Angola","name_adm1":"Huila","name_en":"Catala","iso":"AO"},"geometry":{"type":"Point","coordinates":[16.35,-14.31667]}},{"type":"Feature","properties":{"country_en":"Angola","name":"Catata-a-Nova","name_adm0":"Angola","name_adm1":"Huambo","name_en":"Catata-a-Nova","iso":"AO"},"geometry":{"type":"Point","coordinates":[15.416669999999998,-13.4]}},{"type":"Feature","properties":{"country_en":"Angola","name":"Catequero","name_adm0":"Angola","name_adm1":"Cunene","name_en":"Catequero","iso":"AO"},"geometry":{"type":"Point","coordinates":[14.900000000000002,-16.566669999999995]}},{"type":"Feature","properties":{"country_en":"Angola","name":"Cutenda","name_adm0":"Angola","name_adm1":"Huila","name_en":"Cutenda","iso":"AO"},"geometry":{"type":"Point","coordinates":[15.083329999999998,-14.366670000000001]}},{"type":"Feature","properties":{"country_en":"Angola","name":"Dala","name_adm0":"Angola","name_adm1":"Lunda Sul","name_en":"Dala","iso":"AO"},"geometry":{"type":"Point","coordinates":[20.2,-11.03333]}},{"type":"Feature","properties":{"country_en":"Angola","name":"Dende","name_adm0":"Angola","name_adm1":"Benguela","name_en":"Dende","iso":"AO"},"geometry":{"type":"Point","coordinates":[13.95889,-12.58389]}},{"type":"Feature","properties":{"country_en":"Angola","name":"Luzi","name_adm0":"Angola","name_adm1":"Moxico","name_en":"Luzi","iso":"AO"},"geometry":{"type":"Point","coordinates":[20.799999999999997,-12.96667]}},{"type":"Feature","properties":{"country_en":"Angola","name":"Macango","name_adm0":"Angola","name_adm1":"Moxico","name_en":"Macango","iso":"AO"},"geometry":{"type":"Point","coordinates":[14.32091,-10.79513]}},{"type":"Feature","properties":{"country_en":"Angola","name":"Massengo","name_adm0":"Angola","name_adm1":"Malanje","name_en":"Massengo","iso":"AO"},"geometry":{"type":"Point","coordinates":[17.4038,-8.43509]}},{"type":"Feature","properties":{"country_en":"Angola","name":"Quingenge","name_adm0":"Angola","name_adm1":"Huambo","name_en":"Quingenge","iso":"AO"},"geometry":{"type":"Point","coordinates":[14.933329999999998,-12.81667]}},{"type":"Feature","properties":{"country_en":"Angola","name":"Quino","name_adm0":"Angola","name_adm1":"Malanje","name_en":"Quino","iso":"AO"},"geometry":{"type":"Point","coordinates":[16.19851,-8.42198]}},{"type":"Feature","properties":{"country_en":"Angola","name":"Quisseia","name_adm0":"Angola","name_adm1":"Bie","name_en":"Quisseia","iso":"AO"},"geometry":{"type":"Point","coordinates":[16.9,-13.13333]}},{"type":"Feature","properties":{"country_en":"Angola","name":"Sagumba","name_adm0":"Angola","name_adm1":"Lunda Norte","name_en":"Sagumba","iso":"AO"},"geometry":{"type":"Point","coordinates":[19.3,-8.55]}},{"type":"Feature","properties":{"country_en":"Angola","name":"Saiasso","name_adm0":"Angola","name_adm1":"Lunda Norte","name_en":"Saiasso","iso":"AO"},"geometry":{"type":"Point","coordinates":[18.98698,-8.75292]}},{"type":"Feature","properties":{"country_en":"Angola","name":"Santa Cruz","name_adm0":"Angola","name_adm1":"Uige","name_en":"Santa Cruz","iso":"AO"},"geometry":{"type":"Point","coordinates":[16.34934,-6.92489]}},{"type":"Feature","properties":{"country_en":"Angola","name":"Santa Maria","name_adm0":"Angola","name_adm1":"Benguela","name_en":"Santa Maria","iso":"AO"},"geometry":{"type":"Point","coordinates":[12.53333,-13.41667]}},{"type":"Feature","properties":{"country_en":"Angola","name":"Sapoco","name_adm0":"Angola","name_adm1":"Lunda Norte","name_en":"Sapoco","iso":"AO"},"geometry":{"type":"Point","coordinates":[21.481509999999997,-8.10153]}},{"type":"Feature","properties":{"country_en":"Angola","name":"Tumba","name_adm0":"Angola","name_adm1":"Lunda Norte","name_en":"Tumba","iso":"AO"},"geometry":{"type":"Point","coordinates":[21.03333,-7.41667]}},{"type":"Feature","properties":{"country_en":"Angola","name":"Tumba","name_adm0":"Angola","name_adm1":"Bie","name_en":"Tumba","iso":"AO"},"geometry":{"type":"Point","coordinates":[16.34137,-11.2365]}},{"type":"Feature","properties":{"country_en":"Angola","name":"Tunda Chissococua","name_adm0":"Angola","name_adm1":"Bie","name_en":"Tunda Chissococua","iso":"AO"},"geometry":{"type":"Point","coordinates":[16.68067,-11.812129999999998]}},{"type":"Feature","properties":{"country_en":"Angola","name":"Xassengue","name_adm0":"Angola","name_adm1":"Lunda Sul","name_en":"Xassengue","iso":"AO"},"geometry":{"type":"Point","coordinates":[18.53331,-10.45923]}},{"type":"Feature","properties":{"country_en":"Angola","name":"Caundi","name_adm0":"Angola","name_adm1":"Huambo","name_en":"Caundi","iso":"AO"},"geometry":{"type":"Point","coordinates":[15.88333,-12.03333]}},{"type":"Feature","properties":{"country_en":"Angola","name":"Cote","name_adm0":"Angola","name_adm1":"Cuanza Norte","name_en":"Cote","iso":"AO"},"geometry":{"type":"Point","coordinates":[14.916670000000002,-9.28333]}},{"type":"Feature","properties":{"country_en":"Angola","name":"Coxe","name_adm0":"Angola","name_adm1":"Cuanza Norte","name_en":"Coxe","iso":"AO"},"geometry":{"type":"Point","coordinates":[14.7902,-8.478249999999997]}},{"type":"Feature","properties":{"country_en":"Angola","name":"Cuemba","name_adm0":"Angola","name_adm1":"Bie","name_en":"Cuemba","iso":"AO"},"geometry":{"type":"Point","coordinates":[18.08333,-12.15]}},{"type":"Feature","properties":{"country_en":"Angola","name":"Dumbo","name_adm0":"Angola","name_adm1":"Cuanza Sul","name_en":"Dumbo","iso":"AO"},"geometry":{"type":"Point","coordinates":[14.369829999999999,-11.095179999999997]}},{"type":"Feature","properties":{"country_en":"Angola","name":"Jumba","name_adm0":"Angola","name_adm1":"Cuanza Sul","name_en":"Jumba","iso":"AO"},"geometry":{"type":"Point","coordinates":[14.916670000000002,-11.81667]}},{"type":"Feature","properties":{"country_en":"Angola","name":"Luachimo","name_adm0":"Angola","name_adm1":"Lunda Sul","name_en":"Luachimo","iso":"AO"},"geometry":{"type":"Point","coordinates":[20.57143,-9.66215]}},{"type":"Feature","properties":{"country_en":"Angola","name":"Quiangombe","name_adm0":"Angola","name_adm1":"Cuanza Norte","name_en":"Quiangombe","iso":"AO"},"geometry":{"type":"Point","coordinates":[15.25318,-9.07712]}},{"type":"Feature","properties":{"country_en":"Angola","name":"Quicongo","name_adm0":"Angola","name_adm1":"Uige","name_en":"Quicongo","iso":"AO"},"geometry":{"type":"Point","coordinates":[15.37644,-6.92919]}},{"type":"Feature","properties":{"country_en":"Angola","name":"Quilemba","name_adm0":"Angola","name_adm1":"Cuanza Norte","name_en":"Quilemba","iso":"AO"},"geometry":{"type":"Point","coordinates":[14.507059999999997,-8.97479]}},{"type":"Feature","properties":{"country_en":"Angola","name":"Quilenda","name_adm0":"Angola","name_adm1":"Cuanza Sul","name_en":"Quilenda","iso":"AO"},"geometry":{"type":"Point","coordinates":[14.13333,-11.46667]}},{"type":"Feature","properties":{"country_en":"Angola","name":"Quimbengue","name_adm0":"Angola","name_adm1":"Uige","name_en":"Quimbengue","iso":"AO"},"geometry":{"type":"Point","coordinates":[16.03318,-6.012609999999999]}},{"type":"Feature","properties":{"country_en":"Angola","name":"Cunene","name_adm0":"Angola","name_adm1":"Cunene","name_en":"Cunene","iso":"AO"},"geometry":{"type":"Point","coordinates":[15.435260000000001,-16.51009]}},{"type":"Feature","properties":{"country_en":"Angola","name":"Cuanza Sul","name_adm0":"Angola","name_adm1":"Cuanza Sul","name_en":"Cuanza Sul","iso":"AO"},"geometry":{"type":"Point","coordinates":[15.03197,-10.826959999999998]}},{"type":"Feature","properties":{"country_en":"Angola","name":"Luatamba","name_adm0":"Angola","name_adm1":"Moxico","name_en":"Luatamba","iso":"AO"},"geometry":{"type":"Point","coordinates":[20.3,-12.11667]}},{"type":"Feature","properties":{"country_en":"Angola","name":"Munhango","name_adm0":"Angola","name_adm1":"Bie","name_en":"Munhango","iso":"AO"},"geometry":{"type":"Point","coordinates":[18.55,-12.16667]}},{"type":"Feature","properties":{"country_en":"Angola","name":"Umpulo","name_adm0":"Angola","name_adm1":"Bie","name_en":"Umpulo","iso":"AO"},"geometry":{"type":"Point","coordinates":[17.7,-12.7]}},{"type":"Feature","properties":{"country_en":"Angola","name":"Lunda Norte","name_adm0":"Angola","name_adm1":"Lunda Norte","name_en":"Lunda Norte","iso":"AO"},"geometry":{"type":"Point","coordinates":[19.64852,-8.635429999999998]}},{"type":"Feature","properties":{"country_en":"Angola","name":"Benguela","name_adm0":"Angola","name_adm1":"Benguela","name_en":"Benguela","iso":"AO"},"geometry":{"type":"Point","coordinates":[13.92825,-12.853999999999997]}},{"type":"Feature","properties":{"country_en":"Angola","name":"Bie","name_adm0":"Angola","name_adm1":"Bie","name_en":"Bie","iso":"AO"},"geometry":{"type":"Point","coordinates":[17.3031,-12.349889999999998]}},{"type":"Feature","properties":{"country_en":"Angola","name":"Tombua","name_adm0":"Angola","name_adm1":"Namibe","name_en":"Tombua","iso":"AO"},"geometry":{"type":"Point","coordinates":[11.85,-15.799999999999999]}},{"type":"Feature","properties":{"country_en":"Angola","name":"Tampa","name_adm0":"Angola","name_adm1":"Huila","name_en":"Tampa","iso":"AO"},"geometry":{"type":"Point","coordinates":[13.449999999999998,-15.499999999999998]}},{"type":"Feature","properties":{"country_en":"Angola","name":"Chitado","name_adm0":"Angola","name_adm1":"Cunene","name_en":"Chitado","iso":"AO"},"geometry":{"type":"Point","coordinates":[13.91667,-17.31667]}},{"type":"Feature","properties":{"country_en":"Angola","name":"Cota","name_adm0":"Angola","name_adm1":"Malanje","name_en":"Cota","iso":"AO"},"geometry":{"type":"Point","coordinates":[16.098659999999995,-9.26573]}},{"type":"Feature","properties":{"country_en":"Angola","name":"Barra do Cuanza","name_adm0":"Angola","name_adm1":"Luanda","name_en":"Barra do Cuanza","iso":"AO"},"geometry":{"type":"Point","coordinates":[13.13333,-9.299999999999999]}},{"type":"Feature","properties":{"country_en":"Angola","name":"Quarenta","name_adm0":"Angola","name_adm1":"Cuanza Sul","name_en":"Quarenta","iso":"AO"},"geometry":{"type":"Point","coordinates":[16.13276,-10.2164]}},{"type":"Feature","properties":{"country_en":"Angola","name":"Saco do Giraul","name_adm0":"Angola","name_adm1":"Namibe","name_en":"Saco do Giraul","iso":"AO"},"geometry":{"type":"Point","coordinates":[12.13333,-15.099999999999998]}},{"type":"Feature","properties":{"country_en":"Angola","name":"São Jõao do Sul","name_adm0":"Angola","name_adm1":"Namibe","name_en":"São Jõao do Sul","iso":"AO"},"geometry":{"type":"Point","coordinates":[12.1,-15.78333]}},{"type":"Feature","properties":{"country_en":"Angola","name":"Dundo","name_adm0":"Angola","name_adm1":"Lunda Norte","name_en":"Dundo","iso":"AO"},"geometry":{"type":"Point","coordinates":[20.8338,-7.38109]}},{"type":"Feature","properties":{"country_en":"Angola","name":"Quicabo","name_adm0":"Angola","name_adm1":"Bengo","name_en":"Quicabo","iso":"AO"},"geometry":{"type":"Point","coordinates":[13.833329999999998,-8.31667]}},{"type":"Feature","properties":{"country_en":"Angola","name":"Luvo","name_adm0":"Angola","name_adm1":"Zaire","name_en":"Luvo","iso":"AO"},"geometry":{"type":"Point","coordinates":[14.084199999999997,-5.84925]}},{"type":"Feature","properties":{"country_en":"Angola","name":"M'banza Congo","name_adm0":"Angola","name_adm1":"Zaire","name_en":"M'banza Congo","iso":"AO"},"geometry":{"type":"Point","coordinates":[14.2401,-6.26703]}},{"type":"Feature","properties":{"country_en":"Angola","name":"Cambuta","name_adm0":"Angola","name_adm1":"Moxico","name_en":"Cambuta","iso":"AO"},"geometry":{"type":"Point","coordinates":[18.95,-12.95]}},{"type":"Feature","properties":{"country_en":"Angola","name":"Cariango","name_adm0":"Angola","name_adm1":"Cuanza Sul","name_en":"Cariango","iso":"AO"},"geometry":{"type":"Point","coordinates":[15.06667,-11.4]}},{"type":"Feature","properties":{"country_en":"Angola","name":"Leúa","name_adm0":"Angola","name_adm1":"Moxico","name_en":"Leúa","iso":"AO"},"geometry":{"type":"Point","coordinates":[20.45,-11.649999999999999]}},{"type":"Feature","properties":{"country_en":"Angola","name":"Caconda","name_adm0":"Angola","name_adm1":"Huila","name_en":"Caconda","iso":"AO"},"geometry":{"type":"Point","coordinates":[15.06667,-13.73333]}},{"type":"Feature","properties":{"country_en":"Angola","name":"Caála","name_adm0":"Angola","name_adm1":"Huambo","name_en":"Caála","iso":"AO"},"geometry":{"type":"Point","coordinates":[15.560559999999999,-12.8525]}},{"type":"Feature","properties":{"country_en":"Angola","name":"Quina","name_adm0":"Angola","name_adm1":"Cuanza Norte","name_en":"Quina","iso":"AO"},"geometry":{"type":"Point","coordinates":[15.41092,-8.27227]}},{"type":"Feature","properties":{"country_en":"Angola","name":"Chinanamata","name_adm0":"Angola","name_adm1":"Moxico","name_en":"Chinanamata","iso":"AO"},"geometry":{"type":"Point","coordinates":[20.23333,-11.516669999999998]}},{"type":"Feature","properties":{"country_en":"Angola","name":"Fazenda Lalama","name_adm0":"Angola","name_adm1":"Bengo","name_en":"Fazenda Lalama","iso":"AO"},"geometry":{"type":"Point","coordinates":[13.41667,-8.5]}},{"type":"Feature","properties":{"country_en":"Angola","name":"Fonseca","name_adm0":"Angola","name_adm1":"Lunda Norte","name_en":"Fonseca","iso":"AO"},"geometry":{"type":"Point","coordinates":[14.733329999999999,-9.78333]}},{"type":"Feature","properties":{"country_en":"Angola","name":"Gango","name_adm0":"Angola","name_adm1":"Moxico","name_en":"Gango","iso":"AO"},"geometry":{"type":"Point","coordinates":[21.66667,-14.15]}},{"type":"Feature","properties":{"country_en":"Angola","name":"Muandumba","name_adm0":"Angola","name_adm1":"Malanje","name_en":"Muandumba","iso":"AO"},"geometry":{"type":"Point","coordinates":[18.599999999999998,-11.15]}},{"type":"Feature","properties":{"country_en":"Angola","name":"Quitubia","name_adm0":"Angola","name_adm1":"Cuanza Sul","name_en":"Quitubia","iso":"AO"},"geometry":{"type":"Point","coordinates":[13.95,-9.88333]}},{"type":"Feature","properties":{"country_en":"Angola","name":"Techombé","name_adm0":"Angola","name_adm1":"Cuanza Sul","name_en":"Techombé","iso":"AO"},"geometry":{"type":"Point","coordinates":[15.166669999999998,-11.6]}},{"type":"Feature","properties":{"country_en":"Angola","name":"Cangombe","name_adm0":"Angola","name_adm1":"Moxico","name_en":"Cangombe","iso":"AO"},"geometry":{"type":"Point","coordinates":[20.03532,-14.43524]}},{"type":"Feature","properties":{"country_en":"Angola","name":"Cangote","name_adm0":"Angola","name_adm1":"Bie","name_en":"Cangote","iso":"AO"},"geometry":{"type":"Point","coordinates":[17.0014,-11.75355]}},{"type":"Feature","properties":{"country_en":"Angola","name":"Cassôco","name_adm0":"Angola","name_adm1":"Huila","name_en":"Cassôco","iso":"AO"},"geometry":{"type":"Point","coordinates":[14.999999999999998,-13.65]}},{"type":"Feature","properties":{"country_en":"Angola","name":"Catala","name_adm0":"Angola","name_adm1":"Malanje","name_en":"Catala","iso":"AO"},"geometry":{"type":"Point","coordinates":[17.31606,-9.57767]}},{"type":"Feature","properties":{"country_en":"Angola","name":"Mungo","name_adm0":"Angola","name_adm1":"Huambo","name_en":"Mungo","iso":"AO"},"geometry":{"type":"Point","coordinates":[16.28333,-11.83333]}},{"type":"Feature","properties":{"country_en":"Angola","name":"Bango","name_adm0":"Angola","name_adm1":"Uige","name_en":"Bango","iso":"AO"},"geometry":{"type":"Point","coordinates":[15.06667,-6.35]}},{"type":"Feature","properties":{"country_en":"Angola","name":"Camera","name_adm0":"Angola","name_adm1":"Bie","name_en":"Camera","iso":"AO"},"geometry":{"type":"Point","coordinates":[17.1,-12.66667]}},{"type":"Feature","properties":{"country_en":"Angola","name":"N'dalatando","name_adm0":"Angola","name_adm1":"Cuanza Norte","name_en":"N'dalatando","iso":"AO"},"geometry":{"type":"Point","coordinates":[14.911619999999997,-9.29782]}},{"type":"Feature","properties":{"country_en":"Angola","name":"Malanje","name_adm0":"Angola","name_adm1":"Malanje","name_en":"Malanje","iso":"AO"},"geometry":{"type":"Point","coordinates":[16.34096,-9.54015]}},{"type":"Feature","properties":{"country_en":"Angola","name":"Namibe","name_adm0":"Angola","name_adm1":"Namibe","name_en":"Namibe","iso":"AO"},"geometry":{"type":"Point","coordinates":[12.15222,-15.19611]}},{"type":"Feature","properties":{"country_en":"Angola","name":"Pipas","name_adm0":"Angola","name_adm1":"Namibe","name_en":"Pipas","iso":"AO"},"geometry":{"type":"Point","coordinates":[12.19351,-14.950139999999998]}},{"type":"Feature","properties":{"country_en":"Angola","name":"Buco Zau","name_adm0":"Angola","name_adm1":"Cabinda","name_en":"Buco Zau","iso":"AO"},"geometry":{"type":"Point","coordinates":[12.55,-4.76667]}},{"type":"Feature","properties":{"country_en":"Angola","name":"Cauno","name_adm0":"Angola","name_adm1":"Cuando Cubango","name_en":"Cauno","iso":"AO"},"geometry":{"type":"Point","coordinates":[19.033329999999996,-16.76667]}},{"type":"Feature","properties":{"country_en":"Angola","name":"Dirico","name_adm0":"Angola","name_adm1":"Cuando Cubango","name_en":"Dirico","iso":"AO"},"geometry":{"type":"Point","coordinates":[20.78333,-17.98333]}},{"type":"Feature","properties":{"country_en":"Angola","name":"Lóvua","name_adm0":"Angola","name_adm1":"Lunda Norte","name_en":"Lóvua","iso":"AO"},"geometry":{"type":"Point","coordinates":[20.17227,-7.34225]}},{"type":"Feature","properties":{"country_en":"Angola","name":"Maludi","name_adm0":"Angola","name_adm1":"Lunda Norte","name_en":"Maludi","iso":"AO"},"geometry":{"type":"Point","coordinates":[21.29846,-8.02561]}},{"type":"Feature","properties":{"country_en":"Angola","name":"Muriege","name_adm0":"Angola","name_adm1":"Lunda Sul","name_en":"Muriege","iso":"AO"},"geometry":{"type":"Point","coordinates":[21.21463,-9.90719]}},{"type":"Feature","properties":{"country_en":"Angola","name":"Quibocolo","name_adm0":"Angola","name_adm1":"Uige","name_en":"Quibocolo","iso":"AO"},"geometry":{"type":"Point","coordinates":[15.06746,-6.27441]}},{"type":"Feature","properties":{"country_en":"Angola","name":"Quibaxe","name_adm0":"Angola","name_adm1":"Cuanza Norte","name_en":"Quibaxe","iso":"AO"},"geometry":{"type":"Point","coordinates":[14.585890000000001,-8.500549999999999]}},{"type":"Feature","properties":{"country_en":"Angola","name":"Naulila","name_adm0":"Angola","name_adm1":"Cunene","name_en":"Naulila","iso":"AO"},"geometry":{"type":"Point","coordinates":[14.683329999999998,-17.2]}},{"type":"Feature","properties":{"country_en":"Angola","name":"Sumba","name_adm0":"Angola","name_adm1":"Zaire","name_en":"Sumba","iso":"AO"},"geometry":{"type":"Point","coordinates":[12.616669999999997,-6.15]}},{"type":"Feature","properties":{"country_en":"Angola","name":"Matende","name_adm0":"Angola","name_adm1":"Cuando Cubango","name_en":"Matende","iso":"AO"},"geometry":{"type":"Point","coordinates":[22.883329999999997,-17.28333]}},{"type":"Feature","properties":{"country_en":"Angola","name":"Quilemba","name_adm0":"Angola","name_adm1":"Namibe","name_en":"Quilemba","iso":"AO"},"geometry":{"type":"Point","coordinates":[13.48333,-14.766670000000001]}},{"type":"Feature","properties":{"country_en":"Angola","name":"Mussaca","name_adm0":"Angola","name_adm1":"Moxico","name_en":"Mussaca","iso":"AO"},"geometry":{"type":"Point","coordinates":[14.987979999999999,-10.86296]}},{"type":"Feature","properties":{"country_en":"Angola","name":"Mutelo","name_adm0":"Angola","name_adm1":"Moxico","name_en":"Mutelo","iso":"AO"},"geometry":{"type":"Point","coordinates":[21.95,-15.18333]}},{"type":"Feature","properties":{"country_en":"Angola","name":"Muxie","name_adm0":"Angola","name_adm1":"Moxico","name_en":"Muxie","iso":"AO"},"geometry":{"type":"Point","coordinates":[14.780519999999997,-10.68794]}},{"type":"Feature","properties":{"country_en":"Angola","name":"Nhacacunde","name_adm0":"Angola","name_adm1":"Moxico","name_en":"Nhacacunde","iso":"AO"},"geometry":{"type":"Point","coordinates":[21.45,-14.05]}},{"type":"Feature","properties":{"country_en":"Angola","name":"Nhaculenga","name_adm0":"Angola","name_adm1":"Moxico","name_en":"Nhaculenga","iso":"AO"},"geometry":{"type":"Point","coordinates":[23.65,-12.749999999999998]}},{"type":"Feature","properties":{"country_en":"Angola","name":"Nhama","name_adm0":"Angola","name_adm1":"Bie","name_en":"Nhama","iso":"AO"},"geometry":{"type":"Point","coordinates":[16.708879999999997,-11.37916]}},{"type":"Feature","properties":{"country_en":"Angola","name":"Nhangimba","name_adm0":"Angola","name_adm1":"Moxico","name_en":"Nhangimba","iso":"AO"},"geometry":{"type":"Point","coordinates":[21.28333,-12.63333]}},{"type":"Feature","properties":{"country_en":"Angola","name":"Luanda","name_adm0":"Angola","name_adm1":"Luanda","name_en":"Luanda","iso":"AO"},"geometry":{"type":"Point","coordinates":[13.339239999999998,-8.91666]}},{"type":"Feature","properties":{"country_en":"Angola","name":"Mundengo","name_adm0":"Angola","name_adm1":"Bie","name_en":"Mundengo","iso":"AO"},"geometry":{"type":"Point","coordinates":[16.85,-12.86667]}},{"type":"Feature","properties":{"country_en":"Angola","name":"Sambe","name_adm0":"Angola","name_adm1":"Malanje","name_en":"Sambe","iso":"AO"},"geometry":{"type":"Point","coordinates":[15.994739999999998,-9.58367]}},{"type":"Feature","properties":{"country_en":"Angola","name":"Samuguri","name_adm0":"Angola","name_adm1":"Lunda Norte","name_en":"Samuguri","iso":"AO"},"geometry":{"type":"Point","coordinates":[20.7,-7.8999999999999995]}},{"type":"Feature","properties":{"country_en":"Angola","name":"Sombuege","name_adm0":"Angola","name_adm1":"Lunda Norte","name_en":"Sombuege","iso":"AO"},"geometry":{"type":"Point","coordinates":[21.36312,-7.75626]}},{"type":"Feature","properties":{"country_en":"Angola","name":"Ussinda","name_adm0":"Angola","name_adm1":"Huambo","name_en":"Ussinda","iso":"AO"},"geometry":{"type":"Point","coordinates":[16.08333,-12.78333]}},{"type":"Feature","properties":{"country_en":"Angola","name":"Lunvula","name_adm0":"Angola","name_adm1":"Lunda Norte","name_en":"Lunvula","iso":"AO"},"geometry":{"type":"Point","coordinates":[19.65065,-8.95068]}},{"type":"Feature","properties":{"country_en":"Angola","name":"Lupango","name_adm0":"Angola","name_adm1":"Huambo","name_en":"Lupango","iso":"AO"},"geometry":{"type":"Point","coordinates":[15.93333,-11.499999999999998]}},{"type":"Feature","properties":{"country_en":"Angola","name":"Luvengue","name_adm0":"Angola","name_adm1":"Huambo","name_en":"Luvengue","iso":"AO"},"geometry":{"type":"Point","coordinates":[15.233329999999999,-12.51667]}},{"type":"Feature","properties":{"country_en":"Angola","name":"Luvalo","name_adm0":"Angola","name_adm1":"Bie","name_en":"Luvalo","iso":"AO"},"geometry":{"type":"Point","coordinates":[16.566669999999995,-10.83333]}},{"type":"Feature","properties":{"country_en":"Angola","name":"Balacende","name_adm0":"Angola","name_adm1":"Bengo","name_en":"Balacende","iso":"AO"},"geometry":{"type":"Point","coordinates":[13.96667,-8.26667]}},{"type":"Feature","properties":{"country_en":"Angola","name":"Bandeira","name_adm0":"Angola","name_adm1":"Cuanza Sul","name_en":"Bandeira","iso":"AO"},"geometry":{"type":"Point","coordinates":[15.922789999999999,-10.45361]}},{"type":"Feature","properties":{"country_en":"Angola","name":"Bando","name_adm0":"Angola","name_adm1":"Lunda Sul","name_en":"Bando","iso":"AO"},"geometry":{"type":"Point","coordinates":[21.0865,-8.89094]}},{"type":"Feature","properties":{"country_en":"Angola","name":"Calandula","name_adm0":"Angola","name_adm1":"Moxico","name_en":"Calandula","iso":"AO"},"geometry":{"type":"Point","coordinates":[19.61667,-13.46667]}},{"type":"Feature","properties":{"country_en":"Angola","name":"Calema","name_adm0":"Angola","name_adm1":"Moxico","name_en":"Calema","iso":"AO"},"geometry":{"type":"Point","coordinates":[14.269549999999999,-10.39379]}},{"type":"Feature","properties":{"country_en":"Angola","name":"Capaco","name_adm0":"Angola","name_adm1":"Benguela","name_en":"Capaco","iso":"AO"},"geometry":{"type":"Point","coordinates":[14.449999999999998,-12.95]}},{"type":"Feature","properties":{"country_en":"Angola","name":"Capuia","name_adm0":"Angola","name_adm1":"Lunda Norte","name_en":"Capuia","iso":"AO"},"geometry":{"type":"Point","coordinates":[20.18462,-8.78383]}},{"type":"Feature","properties":{"country_en":"Angola","name":"Caximuata","name_adm0":"Angola","name_adm1":"Lunda Norte","name_en":"Caximuata","iso":"AO"},"geometry":{"type":"Point","coordinates":[20.933329999999998,-8.3]}},{"type":"Feature","properties":{"country_en":"Angola","name":"Caxito Cameia","name_adm0":"Angola","name_adm1":"Malanje","name_en":"Caxito Cameia","iso":"AO"},"geometry":{"type":"Point","coordinates":[17.45317,-8.41377]}},{"type":"Feature","properties":{"country_en":"Angola","name":"Cuilo Velho","name_adm0":"Angola","name_adm1":"Lunda Norte","name_en":"Cuilo Velho","iso":"AO"},"geometry":{"type":"Point","coordinates":[19.43221,-7.795599999999999]}},{"type":"Feature","properties":{"country_en":"Angola","name":"Cululo","name_adm0":"Angola","name_adm1":"Huambo","name_en":"Cululo","iso":"AO"},"geometry":{"type":"Point","coordinates":[15.316670000000002,-11.93333]}},{"type":"Feature","properties":{"country_en":"Angola","name":"Cumbo","name_adm0":"Angola","name_adm1":"Zaire","name_en":"Cumbo","iso":"AO"},"geometry":{"type":"Point","coordinates":[13.65,-7.250000000000001]}},{"type":"Feature","properties":{"country_en":"Angola","name":"Cunjo","name_adm0":"Angola","name_adm1":"Cuanza Sul","name_en":"Cunjo","iso":"AO"},"geometry":{"type":"Point","coordinates":[14.563669999999998,-11.15782]}},{"type":"Feature","properties":{"country_en":"Angola","name":"Cuso","name_adm0":"Angola","name_adm1":"Cuanza Norte","name_en":"Cuso","iso":"AO"},"geometry":{"type":"Point","coordinates":[15.33067,-8.94934]}},{"type":"Feature","properties":{"country_en":"Angola","name":"Fronteira","name_adm0":"Angola","name_adm1":"Uige","name_en":"Fronteira","iso":"AO"},"geometry":{"type":"Point","coordinates":[16.533329999999996,-6.63333]}},{"type":"Feature","properties":{"country_en":"Angola","name":"Funda","name_adm0":"Angola","name_adm1":"Huambo","name_en":"Funda","iso":"AO"},"geometry":{"type":"Point","coordinates":[15.633329999999999,-12.98333]}},{"type":"Feature","properties":{"country_en":"Angola","name":"Galilelia","name_adm0":"Angola","name_adm1":"Cuanza Sul","name_en":"Galilelia","iso":"AO"},"geometry":{"type":"Point","coordinates":[14.363439999999999,-11.32996]}},{"type":"Feature","properties":{"country_en":"Angola","name":"Gambo","name_adm0":"Angola","name_adm1":"Lunda Sul","name_en":"Gambo","iso":"AO"},"geometry":{"type":"Point","coordinates":[20.116669999999996,-10.399999999999999]}},{"type":"Feature","properties":{"country_en":"Angola","name":"Gandarinha","name_adm0":"Angola","name_adm1":"Huambo","name_en":"Gandarinha","iso":"AO"},"geometry":{"type":"Point","coordinates":[16.11667,-11.916669999999998]}},{"type":"Feature","properties":{"country_en":"Angola","name":"Lufico","name_adm0":"Angola","name_adm1":"Zaire","name_en":"Lufico","iso":"AO"},"geometry":{"type":"Point","coordinates":[13.50757,-6.37143]}},{"type":"Feature","properties":{"country_en":"Angola","name":"Luimbale","name_adm0":"Angola","name_adm1":"Huambo","name_en":"Luimbale","iso":"AO"},"geometry":{"type":"Point","coordinates":[15.316969999999998,-12.23712]}},{"type":"Feature","properties":{"country_en":"Angola","name":"Lunguena","name_adm0":"Angola","name_adm1":"Lunda Norte","name_en":"Lunguena","iso":"AO"},"geometry":{"type":"Point","coordinates":[19.78283,-9.25219]}},{"type":"Feature","properties":{"country_en":"Angola","name":"Malengue","name_adm0":"Angola","name_adm1":"Bie","name_en":"Malengue","iso":"AO"},"geometry":{"type":"Point","coordinates":[16.816669999999995,-13.91667]}},{"type":"Feature","properties":{"country_en":"Angola","name":"Mapelanga","name_adm0":"Angola","name_adm1":"Moxico","name_en":"Mapelanga","iso":"AO"},"geometry":{"type":"Point","coordinates":[15.06403,-10.15908]}},{"type":"Feature","properties":{"country_en":"Angola","name":"Marite","name_adm0":"Angola","name_adm1":"Moxico","name_en":"Marite","iso":"AO"},"geometry":{"type":"Point","coordinates":[20.799999999999997,-14.949999999999998]}},{"type":"Feature","properties":{"country_en":"Angola","name":"Massango","name_adm0":"Angola","name_adm1":"Uige","name_en":"Massango","iso":"AO"},"geometry":{"type":"Point","coordinates":[15.9459,-8.15913]}},{"type":"Feature","properties":{"country_en":"Angola","name":"Massau","name_adm0":"Angola","name_adm1":"Uige","name_en":"Massau","iso":"AO"},"geometry":{"type":"Point","coordinates":[16.92077,-7.230559999999999]}},{"type":"Feature","properties":{"country_en":"Angola","name":"Mona Quimbundo","name_adm0":"Angola","name_adm1":"Lunda Sul","name_en":"Mona Quimbundo","iso":"AO"},"geometry":{"type":"Point","coordinates":[19.98333,-9.95]}},{"type":"Feature","properties":{"country_en":"Angola","name":"Montalegre","name_adm0":"Angola","name_adm1":"Malanje","name_en":"Montalegre","iso":"AO"},"geometry":{"type":"Point","coordinates":[17.05339,-8.90769]}},{"type":"Feature","properties":{"country_en":"Angola","name":"Monte Belo","name_adm0":"Angola","name_adm1":"Benguela","name_en":"Monte Belo","iso":"AO"},"geometry":{"type":"Point","coordinates":[14.4,-12.41667]}},{"type":"Feature","properties":{"country_en":"Angola","name":"Muacaueue","name_adm0":"Angola","name_adm1":"Lunda Sul","name_en":"Muacaueue","iso":"AO"},"geometry":{"type":"Point","coordinates":[21.80827,-9.59031]}},{"type":"Feature","properties":{"country_en":"Angola","name":"Muamulundo","name_adm0":"Angola","name_adm1":"Lunda Norte","name_en":"Muamulundo","iso":"AO"},"geometry":{"type":"Point","coordinates":[18.65,-9.51667]}},{"type":"Feature","properties":{"country_en":"Angola","name":"Muamuzombo","name_adm0":"Angola","name_adm1":"Lunda Norte","name_en":"Muamuzombo","iso":"AO"},"geometry":{"type":"Point","coordinates":[18.4399,-9.24139]}},{"type":"Feature","properties":{"country_en":"Angola","name":"Mupeco","name_adm0":"Angola","name_adm1":"Cuando Cubango","name_en":"Mupeco","iso":"AO"},"geometry":{"type":"Point","coordinates":[18.36667,-14.16667]}},{"type":"Feature","properties":{"country_en":"Angola","name":"Mupula","name_adm0":"Angola","name_adm1":"Lunda Norte","name_en":"Mupula","iso":"AO"},"geometry":{"type":"Point","coordinates":[20.91667,-7.4]}},{"type":"Feature","properties":{"country_en":"Angola","name":"Mussabo","name_adm0":"Angola","name_adm1":"Cuanza Norte","name_en":"Mussabo","iso":"AO"},"geometry":{"type":"Point","coordinates":[15.553429999999999,-8.66403]}},{"type":"Feature","properties":{"country_en":"Angola","name":"Nhime","name_adm0":"Angola","name_adm1":"Benguela","name_en":"Nhime","iso":"AO"},"geometry":{"type":"Point","coordinates":[12.883329999999999,-13.1]}},{"type":"Feature","properties":{"country_en":"Angola","name":"Pedro do Feitico","name_adm0":"Angola","name_adm1":"Zaire","name_en":"Pedro do Feitico","iso":"AO"},"geometry":{"type":"Point","coordinates":[12.96667,-5.91667]}},{"type":"Feature","properties":{"country_en":"Angola","name":"Pipa","name_adm0":"Angola","name_adm1":"Huambo","name_en":"Pipa","iso":"AO"},"geometry":{"type":"Point","coordinates":[15.416669999999998,-13.5]}},{"type":"Feature","properties":{"country_en":"Angola","name":"Prata","name_adm0":"Angola","name_adm1":"Moxico","name_en":"Prata","iso":"AO"},"geometry":{"type":"Point","coordinates":[14.583329999999998,-9.983329999999999]}},{"type":"Feature","properties":{"country_en":"Angola","name":"Puege","name_adm0":"Angola","name_adm1":"Lunda Sul","name_en":"Puege","iso":"AO"},"geometry":{"type":"Point","coordinates":[21.460909999999995,-8.95526]}},{"type":"Feature","properties":{"country_en":"Angola","name":"Quilona","name_adm0":"Angola","name_adm1":"Zaire","name_en":"Quilona","iso":"AO"},"geometry":{"type":"Point","coordinates":[13.016669999999998,-7.48333]}},{"type":"Feature","properties":{"country_en":"Angola","name":"Quimanoxe","name_adm0":"Angola","name_adm1":"Bengo","name_en":"Quimanoxe","iso":"AO"},"geometry":{"type":"Point","coordinates":[14.29489,-8.23435]}},{"type":"Feature","properties":{"country_en":"Angola","name":"Sacamuena","name_adm0":"Angola","name_adm1":"Lunda Sul","name_en":"Sacamuena","iso":"AO"},"geometry":{"type":"Point","coordinates":[20.25901,-10.30743]}},{"type":"Feature","properties":{"country_en":"Angola","name":"Samuquena","name_adm0":"Angola","name_adm1":"Lunda Sul","name_en":"Samuquena","iso":"AO"},"geometry":{"type":"Point","coordinates":[19.53333,-10.33333]}},{"type":"Feature","properties":{"country_en":"Angola","name":"Samussango","name_adm0":"Angola","name_adm1":"Moxico","name_en":"Samussango","iso":"AO"},"geometry":{"type":"Point","coordinates":[14.41439,-10.98391]}},{"type":"Feature","properties":{"country_en":"Angola","name":"Sanga","name_adm0":"Angola","name_adm1":"Lunda Norte","name_en":"Sanga","iso":"AO"},"geometry":{"type":"Point","coordinates":[20.9258,-8.53493]}},{"type":"Feature","properties":{"country_en":"Angola","name":"Sanga","name_adm0":"Angola","name_adm1":"Cuanza Sul","name_en":"Sanga","iso":"AO"},"geometry":{"type":"Point","coordinates":[15.42638,-11.128679999999997]}},{"type":"Feature","properties":{"country_en":"Angola","name":"Sangrengue","name_adm0":"Angola","name_adm1":"Moxico","name_en":"Sangrengue","iso":"AO"},"geometry":{"type":"Point","coordinates":[13.8795,-10.72816]}},{"type":"Feature","properties":{"country_en":"Angola","name":"Suanamocha","name_adm0":"Angola","name_adm1":"Moxico","name_en":"Suanamocha","iso":"AO"},"geometry":{"type":"Point","coordinates":[23.51667,-11.783329999999998]}},{"type":"Feature","properties":{"country_en":"Angola","name":"Subida Grande","name_adm0":"Angola","name_adm1":"Namibe","name_en":"Subida Grande","iso":"AO"},"geometry":{"type":"Point","coordinates":[12.15,-15.349999999999998]}},{"type":"Feature","properties":{"country_en":"Angola","name":"Tari","name_adm0":"Angola","name_adm1":"Bengo","name_en":"Tari","iso":"AO"},"geometry":{"type":"Point","coordinates":[14.35221,-8.147999999999998]}},{"type":"Feature","properties":{"country_en":"Angola","name":"Vila Nova do Seles","name_adm0":"Angola","name_adm1":"Cuanza Sul","name_en":"Vila Nova do Seles","iso":"AO"},"geometry":{"type":"Point","coordinates":[14.30663,-11.41237]}},{"type":"Feature","properties":{"country_en":"Angola","name":"Bengo","name_adm0":"Angola","name_adm1":"Uige","name_en":"Bengo","iso":"AO"},"geometry":{"type":"Point","coordinates":[15.277719999999999,-7.799199999999999]}},{"type":"Feature","properties":{"country_en":"Angola","name":"Beú","name_adm0":"Angola","name_adm1":"Uige","name_en":"Beú","iso":"AO"},"geometry":{"type":"Point","coordinates":[15.44428,-6.21644]}},{"type":"Feature","properties":{"country_en":"Angola","name":"Capeio","name_adm0":"Angola","name_adm1":"Bie","name_en":"Capeio","iso":"AO"},"geometry":{"type":"Point","coordinates":[16.726729999999996,-11.77522]}},{"type":"Feature","properties":{"country_en":"Angola","name":"Capolo","name_adm0":"Angola","name_adm1":"Cuanza Sul","name_en":"Capolo","iso":"AO"},"geometry":{"type":"Point","coordinates":[14.00775,-10.515]}},{"type":"Feature","properties":{"country_en":"Angola","name":"Cassange","name_adm0":"Angola","name_adm1":"Lunda Norte","name_en":"Cassange","iso":"AO"},"geometry":{"type":"Point","coordinates":[17.88333,-8.56667]}},{"type":"Feature","properties":{"country_en":"Angola","name":"Chiombo","name_adm0":"Angola","name_adm1":"Bie","name_en":"Chiombo","iso":"AO"},"geometry":{"type":"Point","coordinates":[16.64351,-11.31748]}},{"type":"Feature","properties":{"country_en":"Angola","name":"Chipoia","name_adm0":"Angola","name_adm1":"Moxico","name_en":"Chipoia","iso":"AO"},"geometry":{"type":"Point","coordinates":[22.71667,-12.15]}},{"type":"Feature","properties":{"country_en":"Angola","name":"Chitembo","name_adm0":"Angola","name_adm1":"Bie","name_en":"Chitembo","iso":"AO"},"geometry":{"type":"Point","coordinates":[16.63333,-13.55]}},{"type":"Feature","properties":{"country_en":"Angola","name":"Chiuco","name_adm0":"Angola","name_adm1":"Bie","name_en":"Chiuco","iso":"AO"},"geometry":{"type":"Point","coordinates":[15.916669999999998,-11.03333]}},{"type":"Feature","properties":{"country_en":"Angola","name":"Galangue","name_adm0":"Angola","name_adm1":"Huila","name_en":"Galangue","iso":"AO"},"geometry":{"type":"Point","coordinates":[16.099999999999998,-13.91667]}},{"type":"Feature","properties":{"country_en":"Angola","name":"Ganda","name_adm0":"Angola","name_adm1":"Benguela","name_en":"Ganda","iso":"AO"},"geometry":{"type":"Point","coordinates":[14.616669999999997,-12.9]}},{"type":"Feature","properties":{"country_en":"Angola","name":"Guemba","name_adm0":"Angola","name_adm1":"Zaire","name_en":"Guemba","iso":"AO"},"geometry":{"type":"Point","coordinates":[12.96667,-6.2]}},{"type":"Feature","properties":{"country_en":"Angola","name":"Gumbe","name_adm0":"Angola","name_adm1":"Huambo","name_en":"Gumbe","iso":"AO"},"geometry":{"type":"Point","coordinates":[15.66472,-12.94806]}},{"type":"Feature","properties":{"country_en":"Angola","name":"Gungo","name_adm0":"Angola","name_adm1":"Cuanza Sul","name_en":"Gungo","iso":"AO"},"geometry":{"type":"Point","coordinates":[14.599999999999998,-11.03333]}},{"type":"Feature","properties":{"country_en":"Angola","name":"Iongo","name_adm0":"Angola","name_adm1":"Lunda Norte","name_en":"Iongo","iso":"AO"},"geometry":{"type":"Point","coordinates":[17.66667,-9.23333]}},{"type":"Feature","properties":{"country_en":"Angola","name":"Macongo","name_adm0":"Angola","name_adm1":"Malanje","name_en":"Macongo","iso":"AO"},"geometry":{"type":"Point","coordinates":[16.8351,-7.86581]}},{"type":"Feature","properties":{"country_en":"Angola","name":"Buanga","name_adm0":"Angola","name_adm1":"Bie","name_en":"Buanga","iso":"AO"},"geometry":{"type":"Point","coordinates":[16.45,-11.53333]}},{"type":"Feature","properties":{"country_en":"Angola","name":"Chacala Sacanena","name_adm0":"Angola","name_adm1":"Lunda Norte","name_en":"Chacala Sacanena","iso":"AO"},"geometry":{"type":"Point","coordinates":[19.38333,-8.31667]}},{"type":"Feature","properties":{"country_en":"Angola","name":"Chacalunga","name_adm0":"Angola","name_adm1":"Lunda Norte","name_en":"Chacalunga","iso":"AO"},"geometry":{"type":"Point","coordinates":[14.409570000000002,-9.51821]}},{"type":"Feature","properties":{"country_en":"Angola","name":"Chitonde","name_adm0":"Angola","name_adm1":"Cuanza Sul","name_en":"Chitonde","iso":"AO"},"geometry":{"type":"Point","coordinates":[14.11667,-11.76667]}},{"type":"Feature","properties":{"country_en":"Angola","name":"Nana Candundo","name_adm0":"Angola","name_adm1":"Moxico","name_en":"Nana Candundo","iso":"AO"},"geometry":{"type":"Point","coordinates":[23.01667,-11.516669999999998]}},{"type":"Feature","properties":{"country_en":"Angola","name":"Nhongo","name_adm0":"Angola","name_adm1":"Bie","name_en":"Nhongo","iso":"AO"},"geometry":{"type":"Point","coordinates":[16.22942,-11.495949999999999]}},{"type":"Feature","properties":{"country_en":"Angola","name":"Nordeste","name_adm0":"Angola","name_adm1":"Lunda Norte","name_en":"Nordeste","iso":"AO"},"geometry":{"type":"Point","coordinates":[21.76705,-7.40034]}},{"type":"Feature","properties":{"country_en":"Angola","name":"Nova Esperança","name_adm0":"Angola","name_adm1":"Uige","name_en":"Nova Esperança","iso":"AO"},"geometry":{"type":"Point","coordinates":[15.88822,-6.733029999999999]}},{"type":"Feature","properties":{"country_en":"Angola","name":"Nova Gaia","name_adm0":"Angola","name_adm1":"Malanje","name_en":"Nova Gaia","iso":"AO"},"geometry":{"type":"Point","coordinates":[17.550579999999997,-10.07531]}},{"type":"Feature","properties":{"country_en":"Angola","name":"Quinguengue","name_adm0":"Angola","name_adm1":"Malanje","name_en":"Quinguengue","iso":"AO"},"geometry":{"type":"Point","coordinates":[16.95752,-7.63968]}},{"type":"Feature","properties":{"country_en":"Angola","name":"Salinas","name_adm0":"Angola","name_adm1":"Cuanza Sul","name_en":"Salinas","iso":"AO"},"geometry":{"type":"Point","coordinates":[14.252719999999998,-10.90218]}},{"type":"Feature","properties":{"country_en":"Angola","name":"Bembe","name_adm0":"Angola","name_adm1":"Uige","name_en":"Bembe","iso":"AO"},"geometry":{"type":"Point","coordinates":[14.306809999999999,-7.02892]}},{"type":"Feature","properties":{"country_en":"Angola","name":"Naumba","name_adm0":"Angola","name_adm1":"Lunda Norte","name_en":"Naumba","iso":"AO"},"geometry":{"type":"Point","coordinates":[18.76667,-7.966669999999999]}},{"type":"Feature","properties":{"country_en":"Angola","name":"Cassasala","name_adm0":"Angola","name_adm1":"Moxico","name_en":"Cassasala","iso":"AO"},"geometry":{"type":"Point","coordinates":[14.36697,-10.74274]}},{"type":"Feature","properties":{"country_en":"Angola","name":"Dungo","name_adm0":"Angola","name_adm1":"Huambo","name_en":"Dungo","iso":"AO"},"geometry":{"type":"Point","coordinates":[15.43333,-11.83333]}},{"type":"Feature","properties":{"country_en":"Angola","name":"Cachingues","name_adm0":"Angola","name_adm1":"Bie","name_en":"Cachingues","iso":"AO"},"geometry":{"type":"Point","coordinates":[16.75,-13.06667]}},{"type":"Feature","properties":{"country_en":"Angola","name":"Belo Horizonte","name_adm0":"Angola","name_adm1":"Bie","name_en":"Belo Horizonte","iso":"AO"},"geometry":{"type":"Point","coordinates":[16.89973,-11.91357]}},{"type":"Feature","properties":{"country_en":"Angola","name":"Camabatela","name_adm0":"Angola","name_adm1":"Cuanza Norte","name_en":"Camabatela","iso":"AO"},"geometry":{"type":"Point","coordinates":[15.37495,-8.18812]}},{"type":"Feature","properties":{"country_en":"Angola","name":"Ondjiva","name_adm0":"Angola","name_adm1":"Cunene","name_en":"Ondjiva","iso":"AO"},"geometry":{"type":"Point","coordinates":[15.73333,-17.06667]}},{"type":"Feature","properties":{"country_en":"Angola","name":"Xangongo","name_adm0":"Angola","name_adm1":"Cunene","name_en":"Xangongo","iso":"AO"},"geometry":{"type":"Point","coordinates":[14.983329999999999,-16.75]}},{"type":"Feature","properties":{"country_en":"Angola","name":"Malanje","name_adm0":"Angola","name_adm1":"Malanje","name_en":"Malanje","iso":"AO"},"geometry":{"type":"Point","coordinates":[16.825529999999997,-9.675479999999999]}},{"type":"Feature","properties":{"country_en":"Angola","name":"Santo António do Zaire","name_adm0":"Angola","name_adm1":"Zaire","name_en":"Santo António do Zaire","iso":"AO"},"geometry":{"type":"Point","coordinates":[12.36894,-6.1349]}},{"type":"Feature","properties":{"country_en":"Angola","name":"Cabo Ledo","name_adm0":"Angola","name_adm1":"Bengo","name_en":"Cabo Ledo","iso":"AO"},"geometry":{"type":"Point","coordinates":[13.23917,-9.65556]}},{"type":"Feature","properties":{"country_en":"Angola","name":"Caota","name_adm0":"Angola","name_adm1":"Benguela","name_en":"Caota","iso":"AO"},"geometry":{"type":"Point","coordinates":[13.27111,-12.595559999999999]}},{"type":"Feature","properties":{"country_en":"Angola","name":"Catumbela","name_adm0":"Angola","name_adm1":"Benguela","name_en":"Catumbela","iso":"AO"},"geometry":{"type":"Point","coordinates":[13.54722,-12.43139]}},{"type":"Feature","properties":{"country_en":"Angola","name":"Massangano","name_adm0":"Angola","name_adm1":"Cuanza Norte","name_en":"Massangano","iso":"AO"},"geometry":{"type":"Point","coordinates":[14.26162,-9.62428]}},{"type":"Feature","properties":{"country_en":"Angola","name":"Luiana","name_adm0":"Angola","name_adm1":"Cuando Cubango","name_en":"Luiana","iso":"AO"},"geometry":{"type":"Point","coordinates":[22.999999999999996,-17.38333]}},{"type":"Feature","properties":{"country_en":"Angola","name":"Nova Caipemba","name_adm0":"Angola","name_adm1":"Uige","name_en":"Nova Caipemba","iso":"AO"},"geometry":{"type":"Point","coordinates":[14.64858,-7.44488]}},{"type":"Feature","properties":{"country_en":"Angola","name":"Barra do Dande","name_adm0":"Angola","name_adm1":"Bengo","name_en":"Barra do Dande","iso":"AO"},"geometry":{"type":"Point","coordinates":[13.37011,-8.47175]}},{"type":"Feature","properties":{"country_en":"Angola","name":"Tchipelongo","name_adm0":"Angola","name_adm1":"Cunene","name_en":"Tchipelongo","iso":"AO"},"geometry":{"type":"Point","coordinates":[14.63333,-16.5]}},{"type":"Feature","properties":{"country_en":"Angola","name":"Sautar","name_adm0":"Angola","name_adm1":"Malanje","name_en":"Sautar","iso":"AO"},"geometry":{"type":"Point","coordinates":[18.44084,-11.18552]}},{"type":"Feature","properties":{"country_en":"Angola","name":"Salumana","name_adm0":"Angola","name_adm1":"Moxico","name_en":"Salumana","iso":"AO"},"geometry":{"type":"Point","coordinates":[18.51667,-13.63333]}},{"type":"Feature","properties":{"country_en":"Angola","name":"Rito","name_adm0":"Angola","name_adm1":"Cuando Cubango","name_en":"Rito","iso":"AO"},"geometry":{"type":"Point","coordinates":[19.05,-16.61667]}},{"type":"Feature","properties":{"country_en":"Angola","name":"Namacunde","name_adm0":"Angola","name_adm1":"Cunene","name_en":"Namacunde","iso":"AO"},"geometry":{"type":"Point","coordinates":[15.85,-17.3]}},{"type":"Feature","properties":{"country_en":"Angola","name":"Mussolo","name_adm0":"Angola","name_adm1":"Malanje","name_en":"Mussolo","iso":"AO"},"geometry":{"type":"Point","coordinates":[17.3276,-10.00312]}},{"type":"Feature","properties":{"country_en":"Angola","name":"Longa","name_adm0":"Angola","name_adm1":"Cuando Cubango","name_en":"Longa","iso":"AO"},"geometry":{"type":"Point","coordinates":[18.47849,-14.60564]}},{"type":"Feature","properties":{"country_en":"Angola","name":"Lépi","name_adm0":"Angola","name_adm1":"Huambo","name_en":"Lépi","iso":"AO"},"geometry":{"type":"Point","coordinates":[15.398329999999998,-12.870829999999998]}},{"type":"Feature","properties":{"country_en":"Angola","name":"Impulo","name_adm0":"Angola","name_adm1":"Huila","name_en":"Impulo","iso":"AO"},"geometry":{"type":"Point","coordinates":[13.68333,-13.9]}},{"type":"Feature","properties":{"country_en":"Angola","name":"Humpata","name_adm0":"Angola","name_adm1":"Huila","name_en":"Humpata","iso":"AO"},"geometry":{"type":"Point","coordinates":[13.38333,-15.016669999999998]}},{"type":"Feature","properties":{"country_en":"Angola","name":"Humbe","name_adm0":"Angola","name_adm1":"Cunene","name_en":"Humbe","iso":"AO"},"geometry":{"type":"Point","coordinates":[14.900000000000002,-16.68333]}},{"type":"Feature","properties":{"country_en":"Angola","name":"Luena","name_adm0":"Angola","name_adm1":"Moxico","name_en":"Luena","iso":"AO"},"geometry":{"type":"Point","coordinates":[19.91667,-11.783329999999998]}},{"type":"Feature","properties":{"country_en":"Angola","name":"Chicomba","name_adm0":"Angola","name_adm1":"Huila","name_en":"Chicomba","iso":"AO"},"geometry":{"type":"Point","coordinates":[14.916670000000002,-14.13333]}},{"type":"Feature","properties":{"country_en":"Angola","name":"Chibia","name_adm0":"Angola","name_adm1":"Huila","name_en":"Chibia","iso":"AO"},"geometry":{"type":"Point","coordinates":[13.7,-15.18333]}},{"type":"Feature","properties":{"country_en":"Angola","name":"Chiange","name_adm0":"Angola","name_adm1":"Huila","name_en":"Chiange","iso":"AO"},"geometry":{"type":"Point","coordinates":[13.9,-15.73333]}},{"type":"Feature","properties":{"country_en":"Angola","name":"Capunda","name_adm0":"Angola","name_adm1":"Malanje","name_en":"Capunda","iso":"AO"},"geometry":{"type":"Point","coordinates":[17.36834,-10.67751]}},{"type":"Feature","properties":{"country_en":"Angola","name":"Catanda","name_adm0":"Angola","name_adm1":"Cuanza Sul","name_en":"Catanda","iso":"AO"},"geometry":{"type":"Point","coordinates":[14.449999999999998,-11.71667]}},{"type":"Feature","properties":{"country_en":"Angola","name":"Caipanda","name_adm0":"Angola","name_adm1":"Lunda Norte","name_en":"Caipanda","iso":"AO"},"geometry":{"type":"Point","coordinates":[14.893539999999998,-10.23703]}},{"type":"Feature","properties":{"country_en":"Angola","name":"Cairofa","name_adm0":"Angola","name_adm1":"Namibe","name_en":"Cairofa","iso":"AO"},"geometry":{"type":"Point","coordinates":[12.9,-14.05]}},{"type":"Feature","properties":{"country_en":"Angola","name":"Lucama","name_adm0":"Angola","name_adm1":"Moxico","name_en":"Lucama","iso":"AO"},"geometry":{"type":"Point","coordinates":[14.815889999999998,-10.04683]}},{"type":"Feature","properties":{"country_en":"Angola","name":"Luchico","name_adm0":"Angola","name_adm1":"Lunda Norte","name_en":"Luchico","iso":"AO"},"geometry":{"type":"Point","coordinates":[19.95,-7.23333]}},{"type":"Feature","properties":{"country_en":"Angola","name":"Luconde","name_adm0":"Angola","name_adm1":"Huila","name_en":"Luconde","iso":"AO"},"geometry":{"type":"Point","coordinates":[13.96667,-14.333329999999998]}},{"type":"Feature","properties":{"country_en":"Angola","name":"Lucunde","name_adm0":"Angola","name_adm1":"Huila","name_en":"Lucunde","iso":"AO"},"geometry":{"type":"Point","coordinates":[15.416669999999998,-13.833329999999998]}},{"type":"Feature","properties":{"country_en":"Angola","name":"Lucusse","name_adm0":"Angola","name_adm1":"Moxico","name_en":"Lucusse","iso":"AO"},"geometry":{"type":"Point","coordinates":[20.81667,-12.51667]}},{"type":"Feature","properties":{"country_en":"Angola","name":"Machato","name_adm0":"Angola","name_adm1":"Bie","name_en":"Machato","iso":"AO"},"geometry":{"type":"Point","coordinates":[17.88333,-11.8]}},{"type":"Feature","properties":{"country_en":"Angola","name":"Passe","name_adm0":"Angola","name_adm1":"Benguela","name_en":"Passe","iso":"AO"},"geometry":{"type":"Point","coordinates":[13.96028,-12.57167]}},{"type":"Feature","properties":{"country_en":"Angola","name":"Peco","name_adm0":"Angola","name_adm1":"Cunene","name_en":"Peco","iso":"AO"},"geometry":{"type":"Point","coordinates":[16.76667,-15.18333]}},{"type":"Feature","properties":{"country_en":"Angola","name":"Rampa","name_adm0":"Angola","name_adm1":"Malanje","name_en":"Rampa","iso":"AO"},"geometry":{"type":"Point","coordinates":[15.656079999999998,-9.14173]}},{"type":"Feature","properties":{"country_en":"Angola","name":"Bengo","name_adm0":"Angola","name_adm1":"Bengo","name_en":"Bengo","iso":"AO"},"geometry":{"type":"Point","coordinates":[13.82743,-8.97504]}},{"type":"Feature","properties":{"country_en":"Angola","name":"Samuata","name_adm0":"Angola","name_adm1":"Lunda Norte","name_en":"Samuata","iso":"AO"},"geometry":{"type":"Point","coordinates":[21.25,-7.68333]}},{"type":"Feature","properties":{"country_en":"Angola","name":"Ula","name_adm0":"Angola","name_adm1":"Uige","name_en":"Ula","iso":"AO"},"geometry":{"type":"Point","coordinates":[14.81667,-6.56667]}},{"type":"Feature","properties":{"country_en":"Angola","name":"Chitanga","name_adm0":"Angola","name_adm1":"Moxico","name_en":"Chitanga","iso":"AO"},"geometry":{"type":"Point","coordinates":[14.797359999999998,-11.214299999999998]}},{"type":"Feature","properties":{"country_en":"Angola","name":"Chitango","name_adm0":"Angola","name_adm1":"Moxico","name_en":"Chitango","iso":"AO"},"geometry":{"type":"Point","coordinates":[21.3,-15.166669999999998]}},{"type":"Feature","properties":{"country_en":"Angola","name":"Chitangua","name_adm0":"Angola","name_adm1":"Malanje","name_en":"Chitangua","iso":"AO"},"geometry":{"type":"Point","coordinates":[17.34946,-9.64273]}},{"type":"Feature","properties":{"country_en":"Angola","name":"Londengo","name_adm0":"Angola","name_adm1":"Benguela","name_en":"Londengo","iso":"AO"},"geometry":{"type":"Point","coordinates":[13.92667,-12.39389]}},{"type":"Feature","properties":{"country_en":"Angola","name":"Muene Tembo","name_adm0":"Angola","name_adm1":"Moxico","name_en":"Muene Tembo","iso":"AO"},"geometry":{"type":"Point","coordinates":[19.05,-13.033329999999998]}},{"type":"Feature","properties":{"country_en":"Angola","name":"Muenhundo","name_adm0":"Angola","name_adm1":"Moxico","name_en":"Muenhundo","iso":"AO"},"geometry":{"type":"Point","coordinates":[21.4,-14.350000000000001]}},{"type":"Feature","properties":{"country_en":"Angola","name":"Mueto","name_adm0":"Angola","name_adm1":"Malanje","name_en":"Mueto","iso":"AO"},"geometry":{"type":"Point","coordinates":[17.46841,-8.14291]}},{"type":"Feature","properties":{"country_en":"Angola","name":"Mufuana","name_adm0":"Angola","name_adm1":"Moxico","name_en":"Mufuana","iso":"AO"},"geometry":{"type":"Point","coordinates":[21.75,-14.55]}},{"type":"Feature","properties":{"country_en":"Angola","name":"Muinda","name_adm0":"Angola","name_adm1":"Lunda Norte","name_en":"Muinda","iso":"AO"},"geometry":{"type":"Point","coordinates":[21.649999999999995,-7.6499999999999995]}},{"type":"Feature","properties":{"country_en":"Angola","name":"Aquepa","name_adm0":"Angola","name_adm1":"Cuanza Sul","name_en":"Aquepa","iso":"AO"},"geometry":{"type":"Point","coordinates":[14.449999999999998,-11.48333]}},{"type":"Feature","properties":{"country_en":"Angola","name":"Assango","name_adm0":"Angola","name_adm1":"Cuanza Sul","name_en":"Assango","iso":"AO"},"geometry":{"type":"Point","coordinates":[14.47795,-11.29327]}},{"type":"Feature","properties":{"country_en":"Angola","name":"Uíge","name_adm0":"Angola","name_adm1":"Uige","name_en":"Uige","iso":"AO"},"geometry":{"type":"Point","coordinates":[15.061309999999999,-7.608740000000001]}},{"type":"Feature","properties":{"country_en":"Angola","name":"Mungo","name_adm0":"Angola","name_adm1":"Lunda Norte","name_en":"Mungo","iso":"AO"},"geometry":{"type":"Point","coordinates":[19.93333,-7.7333300000000005]}},{"type":"Feature","properties":{"country_en":"Angola","name":"Saingue","name_adm0":"Angola","name_adm1":"Moxico","name_en":"Saingue","iso":"AO"},"geometry":{"type":"Point","coordinates":[14.59943,-10.85554]}},{"type":"Feature","properties":{"country_en":"Angola","name":"Caxito","name_adm0":"Angola","name_adm1":"Malanje","name_en":"Caxito","iso":"AO"},"geometry":{"type":"Point","coordinates":[15.808280000000002,-8.74977]}},{"type":"Feature","properties":{"country_en":"Angola","name":"Caluquembe","name_adm0":"Angola","name_adm1":"Huila","name_en":"Caluquembe","iso":"AO"},"geometry":{"type":"Point","coordinates":[14.683329999999998,-13.78333]}},{"type":"Feature","properties":{"country_en":"Angola","name":"Luemba","name_adm0":"Angola","name_adm1":"Lunda Norte","name_en":"Luemba","iso":"AO"},"geometry":{"type":"Point","coordinates":[14.22969,-9.80018]}},{"type":"Feature","properties":{"country_en":"Angola","name":"Macocola","name_adm0":"Angola","name_adm1":"Uige","name_en":"Macocola","iso":"AO"},"geometry":{"type":"Point","coordinates":[16.13525,-6.983059999999999]}},{"type":"Feature","properties":{"country_en":"Angola","name":"Munene","name_adm0":"Angola","name_adm1":"Moxico","name_en":"Munene","iso":"AO"},"geometry":{"type":"Point","coordinates":[21.93333,-14.38333]}},{"type":"Feature","properties":{"country_en":"Angola","name":"Nauxindo","name_adm0":"Angola","name_adm1":"Cunene","name_en":"Nauxindo","iso":"AO"},"geometry":{"type":"Point","coordinates":[16.58333,-16.05]}},{"type":"Feature","properties":{"country_en":"Angola","name":"Ganja","name_adm0":"Angola","name_adm1":"Cuanza Sul","name_en":"Ganja","iso":"AO"},"geometry":{"type":"Point","coordinates":[14.340559999999998,-11.28185]}},{"type":"Feature","properties":{"country_en":"Angola","name":"Guerengue","name_adm0":"Angola","name_adm1":"Huambo","name_en":"Guerengue","iso":"AO"},"geometry":{"type":"Point","coordinates":[16.01667,-13.433329999999998]}},{"type":"Feature","properties":{"country_en":"Angola","name":"Mepala","name_adm0":"Angola","name_adm1":"Zaire","name_en":"Mepala","iso":"AO"},"geometry":{"type":"Point","coordinates":[13.739869999999998,-6.14027]}},{"type":"Feature","properties":{"country_en":"Angola","name":"Milezi","name_adm0":"Angola","name_adm1":"Cuando Cubango","name_en":"Milezi","iso":"AO"},"geometry":{"type":"Point","coordinates":[19.48333,-17.03333]}},{"type":"Feature","properties":{"country_en":"Angola","name":"Nambuangongo","name_adm0":"Angola","name_adm1":"Bengo","name_en":"Nambuangongo","iso":"AO"},"geometry":{"type":"Point","coordinates":[14.19973,-8.01728]}},{"type":"Feature","properties":{"country_en":"Angola","name":"Namuxinda","name_adm0":"Angola","name_adm1":"Lunda Norte","name_en":"Namuxinda","iso":"AO"},"geometry":{"type":"Point","coordinates":[19.9747,-7.15122]}},{"type":"Feature","properties":{"country_en":"Angola","name":"Salucala","name_adm0":"Angola","name_adm1":"Lunda Norte","name_en":"Salucala","iso":"AO"},"geometry":{"type":"Point","coordinates":[18.7132,-8.05255]}},{"type":"Feature","properties":{"country_en":"Angola","name":"Samba Gunze","name_adm0":"Angola","name_adm1":"Bie","name_en":"Samba Gunze","iso":"AO"},"geometry":{"type":"Point","coordinates":[17.633329999999997,-12.38333]}},{"type":"Feature","properties":{"country_en":"Angola","name":"Sangueve","name_adm0":"Angola","name_adm1":"Huila","name_en":"Sangueve","iso":"AO"},"geometry":{"type":"Point","coordinates":[15.83333,-13.88333]}},{"type":"Feature","properties":{"country_en":"Angola","name":"Sanhumbo","name_adm0":"Angola","name_adm1":"Moxico","name_en":"Sanhumbo","iso":"AO"},"geometry":{"type":"Point","coordinates":[21.73333,-14.63333]}},{"type":"Feature","properties":{"country_en":"Angola","name":"Tango","name_adm0":"Angola","name_adm1":"Cuanza Norte","name_en":"Tango","iso":"AO"},"geometry":{"type":"Point","coordinates":[15.634899999999998,-8.0942]}},{"type":"Feature","properties":{"country_en":"Angola","name":"Tchica","name_adm0":"Angola","name_adm1":"Cunene","name_en":"Tchica","iso":"AO"},"geometry":{"type":"Point","coordinates":[14.949999999999998,-16.31667]}},{"type":"Feature","properties":{"country_en":"Angola","name":"Tchiengo","name_adm0":"Angola","name_adm1":"Bie","name_en":"Tchiengo","iso":"AO"},"geometry":{"type":"Point","coordinates":[17.15,-13.31667]}},{"type":"Feature","properties":{"country_en":"Angola","name":"Beira Alta","name_adm0":"Angola","name_adm1":"Cuanza Norte","name_en":"Beira Alta","iso":"AO"},"geometry":{"type":"Point","coordinates":[15.64717,-8.92894]}},{"type":"Feature","properties":{"country_en":"Angola","name":"Chicala","name_adm0":"Angola","name_adm1":"Bie","name_en":"Chicala","iso":"AO"},"geometry":{"type":"Point","coordinates":[16.68333,-10.71667]}},{"type":"Feature","properties":{"country_en":"Angola","name":"Chicala","name_adm0":"Angola","name_adm1":"Huambo","name_en":"Chicala","iso":"AO"},"geometry":{"type":"Point","coordinates":[15.233329999999999,-12.049999999999999]}},{"type":"Feature","properties":{"country_en":"Angola","name":"Chicundo","name_adm0":"Angola","name_adm1":"Bie","name_en":"Chicundo","iso":"AO"},"geometry":{"type":"Point","coordinates":[17,-13.33333]}},{"type":"Feature","properties":{"country_en":"Angola","name":"Dungo","name_adm0":"Angola","name_adm1":"Moxico","name_en":"Dungo","iso":"AO"},"geometry":{"type":"Point","coordinates":[14.366670000000001,-9.78333]}},{"type":"Feature","properties":{"country_en":"Angola","name":"Ediva","name_adm0":"Angola","name_adm1":"Cunene","name_en":"Ediva","iso":"AO"},"geometry":{"type":"Point","coordinates":[14.249999999999998,-16.33333]}},{"type":"Feature","properties":{"country_en":"Angola","name":"Fazenda Capa","name_adm0":"Angola","name_adm1":"Huambo","name_en":"Fazenda Capa","iso":"AO"},"geometry":{"type":"Point","coordinates":[15.299999999999999,-12.16667]}},{"type":"Feature","properties":{"country_en":"Angola","name":"Jamba","name_adm0":"Angola","name_adm1":"Cuanza Sul","name_en":"Jamba","iso":"AO"},"geometry":{"type":"Point","coordinates":[14.51212,-11.47192]}},{"type":"Feature","properties":{"country_en":"Angola","name":"Pambangala","name_adm0":"Angola","name_adm1":"Cuanza Sul","name_en":"Pambangala","iso":"AO"},"geometry":{"type":"Point","coordinates":[15.249999999999998,-11.7]}},{"type":"Feature","properties":{"country_en":"Angola","name":"Porto Rico","name_adm0":"Angola","name_adm1":"Zaire","name_en":"Porto Rico","iso":"AO"},"geometry":{"type":"Point","coordinates":[12.51667,-6.13333]}},{"type":"Feature","properties":{"country_en":"Angola","name":"Quihita","name_adm0":"Angola","name_adm1":"Huila","name_en":"Quihita","iso":"AO"},"geometry":{"type":"Point","coordinates":[13.96667,-15.383329999999999]}},{"type":"Feature","properties":{"country_en":"Angola","name":"Santa Isabel","name_adm0":"Angola","name_adm1":"Cuanza Sul","name_en":"Santa Isabel","iso":"AO"},"geometry":{"type":"Point","coordinates":[14.29736,-11.39971]}},{"type":"Feature","properties":{"country_en":"Angola","name":"Cela","name_adm0":"Angola","name_adm1":"Cuanza Sul","name_en":"Cela","iso":"AO"},"geometry":{"type":"Point","coordinates":[15.12078,-11.36343]}},{"type":"Feature","properties":{"country_en":"Angola","name":"Quibala","name_adm0":"Angola","name_adm1":"Cuanza Sul","name_en":"Quibala","iso":"AO"},"geometry":{"type":"Point","coordinates":[14.979949999999999,-10.73366]}},{"type":"Feature","properties":{"country_en":"Angola","name":"Luano","name_adm0":"Angola","name_adm1":"Cunene","name_en":"Luano","iso":"AO"},"geometry":{"type":"Point","coordinates":[13.983329999999999,-16.65]}},{"type":"Feature","properties":{"country_en":"Angola","name":"Nankova","name_adm0":"Angola","name_adm1":"Cuando Cubango","name_en":"Nankova","iso":"AO"},"geometry":{"type":"Point","coordinates":[18.98333,-16.41667]}},{"type":"Feature","properties":{"country_en":"Angola","name":"Sambungo","name_adm0":"Angola","name_adm1":"Bie","name_en":"Sambungo","iso":"AO"},"geometry":{"type":"Point","coordinates":[17.03343,-11.25166]}},{"type":"Feature","properties":{"country_en":"Angola","name":"Samuaco","name_adm0":"Angola","name_adm1":"Moxico","name_en":"Samuaco","iso":"AO"},"geometry":{"type":"Point","coordinates":[18.41667,-13.55]}},{"type":"Feature","properties":{"country_en":"Angola","name":"Utende","name_adm0":"Angola","name_adm1":"Cuanza Sul","name_en":"Utende","iso":"AO"},"geometry":{"type":"Point","coordinates":[14.1584,-11.31797]}},{"type":"Feature","properties":{"country_en":"Angola","name":"Cacombo","name_adm0":"Angola","name_adm1":"Benguela","name_en":"Cacombo","iso":"AO"},"geometry":{"type":"Point","coordinates":[14.883329999999999,-13.149999999999999]}},{"type":"Feature","properties":{"country_en":"Angola","name":"Camou","name_adm0":"Angola","name_adm1":"Moxico","name_en":"Camou","iso":"AO"},"geometry":{"type":"Point","coordinates":[13.98245,-10.41513]}},{"type":"Feature","properties":{"country_en":"Angola","name":"Cacaco","name_adm0":"Angola","name_adm1":"Moxico","name_en":"Cacaco","iso":"AO"},"geometry":{"type":"Point","coordinates":[21.63333,-14.21667]}},{"type":"Feature","properties":{"country_en":"Angola","name":"Canenga","name_adm0":"Angola","name_adm1":"Moxico","name_en":"Canenga","iso":"AO"},"geometry":{"type":"Point","coordinates":[23.28333,-12.66667]}},{"type":"Feature","properties":{"country_en":"Angola","name":"Toto","name_adm0":"Angola","name_adm1":"Uige","name_en":"Toto","iso":"AO"},"geometry":{"type":"Point","coordinates":[14.26787,-7.15676]}},{"type":"Feature","properties":{"country_en":"Angola","name":"Cambonga","name_adm0":"Angola","name_adm1":"Bie","name_en":"Cambonga","iso":"AO"},"geometry":{"type":"Point","coordinates":[17,-12.83333]}},{"type":"Feature","properties":{"country_en":"Angola","name":"Cambungo","name_adm0":"Angola","name_adm1":"Lunda Norte","name_en":"Cambungo","iso":"AO"},"geometry":{"type":"Point","coordinates":[14.333329999999998,-10.33333]}},{"type":"Feature","properties":{"country_en":"Angola","name":"Bengo","name_adm0":"Angola","name_adm1":"Cuando Cubango","name_en":"Bengo","iso":"AO"},"geometry":{"type":"Point","coordinates":[19.316669999999995,-17.81667]}},{"type":"Feature","properties":{"country_en":"Angola","name":"Aldeia Nova","name_adm0":"Angola","name_adm1":"Cuanza Norte","name_en":"Aldeia Nova","iso":"AO"},"geometry":{"type":"Point","coordinates":[14.32172,-9.186859999999998]}},{"type":"Feature","properties":{"country_en":"Angola","name":"Anhara","name_adm0":"Angola","name_adm1":"Huila","name_en":"Anhara","iso":"AO"},"geometry":{"type":"Point","coordinates":[16.08333,-13.58333]}},{"type":"Feature","properties":{"country_en":"Angola","name":"Assongo","name_adm0":"Angola","name_adm1":"Huambo","name_en":"Assongo","iso":"AO"},"geometry":{"type":"Point","coordinates":[15.75,-12.049999999999999]}},{"type":"Feature","properties":{"country_en":"Angola","name":"Cafima","name_adm0":"Angola","name_adm1":"Cunene","name_en":"Cafima","iso":"AO"},"geometry":{"type":"Point","coordinates":[16.45,-16.65]}},{"type":"Feature","properties":{"country_en":"Angola","name":"Caiei","name_adm0":"Angola","name_adm1":"Bie","name_en":"Caiei","iso":"AO"},"geometry":{"type":"Point","coordinates":[17.24502,-11.408769999999999]}},{"type":"Feature","properties":{"country_en":"Angola","name":"Caio","name_adm0":"Angola","name_adm1":"Moxico","name_en":"Caio","iso":"AO"},"geometry":{"type":"Point","coordinates":[14.2,-10.45]}},{"type":"Feature","properties":{"country_en":"Angola","name":"Caiongo","name_adm0":"Angola","name_adm1":"Malanje","name_en":"Caiongo","iso":"AO"},"geometry":{"type":"Point","coordinates":[16.887439999999998,-8.77078]}},{"type":"Feature","properties":{"country_en":"Angola","name":"Calombeú","name_adm0":"Angola","name_adm1":"Huambo","name_en":"Calombeú","iso":"AO"},"geometry":{"type":"Point","coordinates":[15.6,-11.81667]}},{"type":"Feature","properties":{"country_en":"Angola","name":"Calombo","name_adm0":"Angola","name_adm1":"Moxico","name_en":"Calombo","iso":"AO"},"geometry":{"type":"Point","coordinates":[14.317,-10.49138]}},{"type":"Feature","properties":{"country_en":"Angola","name":"Calomboloca","name_adm0":"Angola","name_adm1":"Bengo","name_en":"Calomboloca","iso":"AO"},"geometry":{"type":"Point","coordinates":[13.833329999999998,-9.15]}},{"type":"Feature","properties":{"country_en":"Angola","name":"Caluimbe","name_adm0":"Angola","name_adm1":"Bie","name_en":"Caluimbe","iso":"AO"},"geometry":{"type":"Point","coordinates":[17.7,-11.83333]}},{"type":"Feature","properties":{"country_en":"Angola","name":"Calunga","name_adm0":"Angola","name_adm1":"Malanje","name_en":"Calunga","iso":"AO"},"geometry":{"type":"Point","coordinates":[16.597969999999997,-8.39312]}},{"type":"Feature","properties":{"country_en":"Angola","name":"Camagia","name_adm0":"Angola","name_adm1":"Lunda Sul","name_en":"Camagia","iso":"AO"},"geometry":{"type":"Point","coordinates":[20.19006,-9.4831]}},{"type":"Feature","properties":{"country_en":"Angola","name":"Camba","name_adm0":"Angola","name_adm1":"Cunene","name_en":"Camba","iso":"AO"},"geometry":{"type":"Point","coordinates":[15.249999999999998,-16.266669999999998]}},{"type":"Feature","properties":{"country_en":"Angola","name":"Cambacumba","name_adm0":"Angola","name_adm1":"Lunda Norte","name_en":"Cambacumba","iso":"AO"},"geometry":{"type":"Point","coordinates":[20.02533,-7.57093]}},{"type":"Feature","properties":{"country_en":"Angola","name":"Cambondo","name_adm0":"Angola","name_adm1":"Malanje","name_en":"Cambondo","iso":"AO"},"geometry":{"type":"Point","coordinates":[16.33278,-9.646939999999999]}},{"type":"Feature","properties":{"country_en":"Angola","name":"Cambondo","name_adm0":"Angola","name_adm1":"Lunda Norte","name_en":"Cambondo","iso":"AO"},"geometry":{"type":"Point","coordinates":[14.37038,-10.79258]}},{"type":"Feature","properties":{"country_en":"Angola","name":"Caneta","name_adm0":"Angola","name_adm1":"Moxico","name_en":"Caneta","iso":"AO"},"geometry":{"type":"Point","coordinates":[14.97521,-10.07855]}},{"type":"Feature","properties":{"country_en":"Angola","name":"Cangala","name_adm0":"Angola","name_adm1":"Bie","name_en":"Cangala","iso":"AO"},"geometry":{"type":"Point","coordinates":[16.55,-12.56667]}},{"type":"Feature","properties":{"country_en":"Angola","name":"Cangalongue","name_adm0":"Angola","name_adm1":"Huila","name_en":"Cangalongue","iso":"AO"},"geometry":{"type":"Point","coordinates":[13.46667,-15.266669999999998]}},{"type":"Feature","properties":{"country_en":"Angola","name":"Caria","name_adm0":"Angola","name_adm1":"Bie","name_en":"Caria","iso":"AO"},"geometry":{"type":"Point","coordinates":[16.83333,-12.71667]}},{"type":"Feature","properties":{"country_en":"Angola","name":"Cassalengue","name_adm0":"Angola","name_adm1":"Moxico","name_en":"Cassalengue","iso":"AO"},"geometry":{"type":"Point","coordinates":[23.75,-12.08333]}},{"type":"Feature","properties":{"country_en":"Angola","name":"Cassemene","name_adm0":"Angola","name_adm1":"Lunda Norte","name_en":"Cassemene","iso":"AO"},"geometry":{"type":"Point","coordinates":[18.97129,-8.52861]}},{"type":"Feature","properties":{"country_en":"Angola","name":"Cassimbas","name_adm0":"Angola","name_adm1":"Namibe","name_en":"Cassimbas","iso":"AO"},"geometry":{"type":"Point","coordinates":[13.6,-14.06667]}},{"type":"Feature","properties":{"country_en":"Angola","name":"Cassoca","name_adm0":"Angola","name_adm1":"Moxico","name_en":"Cassoca","iso":"AO"},"geometry":{"type":"Point","coordinates":[14.851250000000002,-9.74815]}},{"type":"Feature","properties":{"country_en":"Angola","name":"Cassombo","name_adm0":"Angola","name_adm1":"Lunda Norte","name_en":"Cassombo","iso":"AO"},"geometry":{"type":"Point","coordinates":[21.64901,-7.853919999999999]}},{"type":"Feature","properties":{"country_en":"Angola","name":"Cassule","name_adm0":"Angola","name_adm1":"Malanje","name_en":"Cassule","iso":"AO"},"geometry":{"type":"Point","coordinates":[14.999999999999998,-8.38333]}},{"type":"Feature","properties":{"country_en":"Angola","name":"Catolo","name_adm0":"Angola","name_adm1":"Moxico","name_en":"Catolo","iso":"AO"},"geometry":{"type":"Point","coordinates":[13.84026,-10.64135]}},{"type":"Feature","properties":{"country_en":"Angola","name":"Catuma","name_adm0":"Angola","name_adm1":"Malanje","name_en":"Catuma","iso":"AO"},"geometry":{"type":"Point","coordinates":[16.218839999999997,-8.42231]}},{"type":"Feature","properties":{"country_en":"Angola","name":"Cauina","name_adm0":"Angola","name_adm1":"Moxico","name_en":"Cauina","iso":"AO"},"geometry":{"type":"Point","coordinates":[22.56667,-11.68333]}},{"type":"Feature","properties":{"country_en":"Angola","name":"Caumbo","name_adm0":"Angola","name_adm1":"Lunda Sul","name_en":"Caumbo","iso":"AO"},"geometry":{"type":"Point","coordinates":[20.37425,-9.61219]}},{"type":"Feature","properties":{"country_en":"Angola","name":"Chaúa","name_adm0":"Angola","name_adm1":"Lunda Norte","name_en":"Chaúa","iso":"AO"},"geometry":{"type":"Point","coordinates":[19.4,-8.01667]}},{"type":"Feature","properties":{"country_en":"Angola","name":"Chaumbo","name_adm0":"Angola","name_adm1":"Lunda Norte","name_en":"Chaumbo","iso":"AO"},"geometry":{"type":"Point","coordinates":[20.1,-7.299999999999999]}},{"type":"Feature","properties":{"country_en":"Angola","name":"Chetequera","name_adm0":"Angola","name_adm1":"Cunene","name_en":"Chetequera","iso":"AO"},"geometry":{"type":"Point","coordinates":[14.933329999999998,-17.11667]}},{"type":"Feature","properties":{"country_en":"Angola","name":"Chiangalala Samucambo","name_adm0":"Angola","name_adm1":"Lunda Norte","name_en":"Chiangalala Samucambo","iso":"AO"},"geometry":{"type":"Point","coordinates":[21.01667,-7.68333]}},{"type":"Feature","properties":{"country_en":"Angola","name":"Chibungue","name_adm0":"Angola","name_adm1":"Huambo","name_en":"Chibungue","iso":"AO"},"geometry":{"type":"Point","coordinates":[15.27077,-12.15268]}},{"type":"Feature","properties":{"country_en":"Angola","name":"Chicai","name_adm0":"Angola","name_adm1":"Moxico","name_en":"Chicai","iso":"AO"},"geometry":{"type":"Point","coordinates":[14.350309999999999,-11.11212]}},{"type":"Feature","properties":{"country_en":"Angola","name":"Chicula","name_adm0":"Angola","name_adm1":"Lunda Norte","name_en":"Chicula","iso":"AO"},"geometry":{"type":"Point","coordinates":[21.68333,-7.56667]}},{"type":"Feature","properties":{"country_en":"Angola","name":"Chilombo","name_adm0":"Angola","name_adm1":"Moxico","name_en":"Chilombo","iso":"AO"},"geometry":{"type":"Point","coordinates":[14.463299999999998,-11.213919999999998]}},{"type":"Feature","properties":{"country_en":"Angola","name":"Chindumba","name_adm0":"Angola","name_adm1":"Bie","name_en":"Chindumba","iso":"AO"},"geometry":{"type":"Point","coordinates":[18.03333,-12]}},{"type":"Feature","properties":{"country_en":"Angola","name":"Chingo","name_adm0":"Angola","name_adm1":"Namibe","name_en":"Chingo","iso":"AO"},"geometry":{"type":"Point","coordinates":[12.81667,-14.21667]}},{"type":"Feature","properties":{"country_en":"Angola","name":"Chingombo","name_adm0":"Angola","name_adm1":"Lunda Norte","name_en":"Chingombo","iso":"AO"},"geometry":{"type":"Point","coordinates":[20.31667,-7.46667]}},{"type":"Feature","properties":{"country_en":"Angola","name":"Chingongo","name_adm0":"Angola","name_adm1":"Benguela","name_en":"Chingongo","iso":"AO"},"geometry":{"type":"Point","coordinates":[14.516099999999998,-12.31938]}},{"type":"Feature","properties":{"country_en":"Angola","name":"Chissonde","name_adm0":"Angola","name_adm1":"Huambo","name_en":"Chissonde","iso":"AO"},"geometry":{"type":"Point","coordinates":[15.666669999999998,-11.93333]}},{"type":"Feature","properties":{"country_en":"Angola","name":"Chiueca","name_adm0":"Angola","name_adm1":"Huambo","name_en":"Chiueca","iso":"AO"},"geometry":{"type":"Point","coordinates":[16.38333,-11.783329999999998]}},{"type":"Feature","properties":{"country_en":"Angola","name":"Chiuisse","name_adm0":"Angola","name_adm1":"Huambo","name_en":"Chiuisse","iso":"AO"},"geometry":{"type":"Point","coordinates":[16.18333,-13.18333]}},{"type":"Feature","properties":{"country_en":"Angola","name":"Chivinga","name_adm0":"Angola","name_adm1":"Bie","name_en":"Chivinga","iso":"AO"},"geometry":{"type":"Point","coordinates":[16.6065,-11.69113]}},{"type":"Feature","properties":{"country_en":"Angola","name":"Chivunda","name_adm0":"Angola","name_adm1":"Moxico","name_en":"Chivunda","iso":"AO"},"geometry":{"type":"Point","coordinates":[20.65,-11.85]}},{"type":"Feature","properties":{"country_en":"Angola","name":"Chivundo","name_adm0":"Angola","name_adm1":"Lunda Sul","name_en":"Chivundo","iso":"AO"},"geometry":{"type":"Point","coordinates":[21.16158,-10.22473]}},{"type":"Feature","properties":{"country_en":"Angola","name":"Choge","name_adm0":"Angola","name_adm1":"Lunda Sul","name_en":"Choge","iso":"AO"},"geometry":{"type":"Point","coordinates":[22.18481,-10.543489999999998]}},{"type":"Feature","properties":{"country_en":"Angola","name":"Colui","name_adm0":"Angola","name_adm1":"Huila","name_en":"Colui","iso":"AO"},"geometry":{"type":"Point","coordinates":[16,-14.51667]}},{"type":"Feature","properties":{"country_en":"Angola","name":"Combo","name_adm0":"Angola","name_adm1":"Malanje","name_en":"Combo","iso":"AO"},"geometry":{"type":"Point","coordinates":[17.11667,-7.716669999999999]}},{"type":"Feature","properties":{"country_en":"Angola","name":"Coporolo","name_adm0":"Angola","name_adm1":"Benguela","name_en":"Coporolo","iso":"AO"},"geometry":{"type":"Point","coordinates":[13.88333,-13.38333]}},{"type":"Feature","properties":{"country_en":"Angola","name":"Coruteva","name_adm0":"Angola","name_adm1":"Benguela","name_en":"Coruteva","iso":"AO"},"geometry":{"type":"Point","coordinates":[13.58944,-12.92944]}},{"type":"Feature","properties":{"country_en":"Angola","name":"Cosso","name_adm0":"Angola","name_adm1":"Malanje","name_en":"Cosso","iso":"AO"},"geometry":{"type":"Point","coordinates":[17.73662,-9.20416]}},{"type":"Feature","properties":{"country_en":"Angola","name":"Dialui","name_adm0":"Angola","name_adm1":"Moxico","name_en":"Dialui","iso":"AO"},"geometry":{"type":"Point","coordinates":[21.81667,-14.51667]}},{"type":"Feature","properties":{"country_en":"Angola","name":"Diama","name_adm0":"Angola","name_adm1":"Malanje","name_en":"Diama","iso":"AO"},"geometry":{"type":"Point","coordinates":[17.291589999999996,-9.86722]}},{"type":"Feature","properties":{"country_en":"Angola","name":"Donguena","name_adm0":"Angola","name_adm1":"Cunene","name_en":"Donguena","iso":"AO"},"geometry":{"type":"Point","coordinates":[14.65,-17.05]}},{"type":"Feature","properties":{"country_en":"Angola","name":"Dunge","name_adm0":"Angola","name_adm1":"Malanje","name_en":"Dunge","iso":"AO"},"geometry":{"type":"Point","coordinates":[16.45247,-7.93504]}},{"type":"Feature","properties":{"country_en":"Angola","name":"Gango","name_adm0":"Angola","name_adm1":"Bie","name_en":"Gango","iso":"AO"},"geometry":{"type":"Point","coordinates":[16.01433,-11.175069999999998]}},{"type":"Feature","properties":{"country_en":"Angola","name":"Hanja","name_adm0":"Angola","name_adm1":"Benguela","name_en":"Hanja","iso":"AO"},"geometry":{"type":"Point","coordinates":[13.88333,-13.7]}},{"type":"Feature","properties":{"country_en":"Angola","name":"Himba","name_adm0":"Angola","name_adm1":"Cuanza Sul","name_en":"Himba","iso":"AO"},"geometry":{"type":"Point","coordinates":[14.31667,-11.916669999999998]}},{"type":"Feature","properties":{"country_en":"Angola","name":"Icoca","name_adm0":"Angola","name_adm1":"Uige","name_en":"Icoca","iso":"AO"},"geometry":{"type":"Point","coordinates":[16.1959,-6.19901]}},{"type":"Feature","properties":{"country_en":"Angola","name":"Jimbe","name_adm0":"Angola","name_adm1":"Moxico","name_en":"Jimbe","iso":"AO"},"geometry":{"type":"Point","coordinates":[23.983329999999995,-11.099999999999998]}},{"type":"Feature","properties":{"country_en":"Angola","name":"Lengue","name_adm0":"Angola","name_adm1":"Cuanza Sul","name_en":"Lengue","iso":"AO"},"geometry":{"type":"Point","coordinates":[14.266669999999998,-11.53333]}},{"type":"Feature","properties":{"country_en":"Angola","name":"Licaveca","name_adm0":"Angola","name_adm1":"Cuando Cubango","name_en":"Licaveca","iso":"AO"},"geometry":{"type":"Point","coordinates":[18.68333,-14.16667]}},{"type":"Feature","properties":{"country_en":"Angola","name":"Matete","name_adm0":"Angola","name_adm1":"Malanje","name_en":"Matete","iso":"AO"},"geometry":{"type":"Point","coordinates":[15.89202,-9.46769]}},{"type":"Feature","properties":{"country_en":"Angola","name":"Matunto","name_adm0":"Angola","name_adm1":"Huila","name_en":"Matunto","iso":"AO"},"geometry":{"type":"Point","coordinates":[15.266669999999998,-15.366669999999997]}},{"type":"Feature","properties":{"country_en":"Angola","name":"Maua","name_adm0":"Angola","name_adm1":"Cuanza Norte","name_en":"Maua","iso":"AO"},"geometry":{"type":"Point","coordinates":[15.3122,-8.28099]}},{"type":"Feature","properties":{"country_en":"Angola","name":"Maué","name_adm0":"Angola","name_adm1":"Cuando Cubango","name_en":"Maué","iso":"AO"},"geometry":{"type":"Point","coordinates":[19.3,-16.91667]}},{"type":"Feature","properties":{"country_en":"Angola","name":"Minganja","name_adm0":"Angola","name_adm1":"Moxico","name_en":"Minganja","iso":"AO"},"geometry":{"type":"Point","coordinates":[18.35,-13.35]}},{"type":"Feature","properties":{"country_en":"Angola","name":"Mingungo","name_adm0":"Angola","name_adm1":"Bie","name_en":"Mingungo","iso":"AO"},"geometry":{"type":"Point","coordinates":[17.35686,-11.85221]}},{"type":"Feature","properties":{"country_en":"Angola","name":"Miramar","name_adm0":"Angola","name_adm1":"Namibe","name_en":"Miramar","iso":"AO"},"geometry":{"type":"Point","coordinates":[12.28,-15.01694]}},{"type":"Feature","properties":{"country_en":"Angola","name":"Mombo","name_adm0":"Angola","name_adm1":"Lunda Sul","name_en":"Mombo","iso":"AO"},"geometry":{"type":"Point","coordinates":[20.206,-10.88423]}},{"type":"Feature","properties":{"country_en":"Angola","name":"Muangimba","name_adm0":"Angola","name_adm1":"Lunda Sul","name_en":"Muangimba","iso":"AO"},"geometry":{"type":"Point","coordinates":[19.0393,-10.43891]}},{"type":"Feature","properties":{"country_en":"Angola","name":"Mucolo","name_adm0":"Angola","name_adm1":"Bengo","name_en":"Mucolo","iso":"AO"},"geometry":{"type":"Point","coordinates":[13.686699999999998,-9.56944]}},{"type":"Feature","properties":{"country_en":"Angola","name":"Mucondo","name_adm0":"Angola","name_adm1":"Bengo","name_en":"Mucondo","iso":"AO"},"geometry":{"type":"Point","coordinates":[14.53874,-8.24977]}},{"type":"Feature","properties":{"country_en":"Angola","name":"Mucongo","name_adm0":"Angola","name_adm1":"Moxico","name_en":"Mucongo","iso":"AO"},"geometry":{"type":"Point","coordinates":[13.87105,-10.81305]}},{"type":"Feature","properties":{"country_en":"Angola","name":"Mucunha","name_adm0":"Angola","name_adm1":"Cuando Cubango","name_en":"Mucunha","iso":"AO"},"geometry":{"type":"Point","coordinates":[18.4,-14.01667]}},{"type":"Feature","properties":{"country_en":"Angola","name":"N'harea","name_adm0":"Angola","name_adm1":"Bie","name_en":"N'harea","iso":"AO"},"geometry":{"type":"Point","coordinates":[16.96496,-11.47512]}},{"type":"Feature","properties":{"country_en":"Angola","name":"Naginga","name_adm0":"Angola","name_adm1":"Lunda Norte","name_en":"Naginga","iso":"AO"},"geometry":{"type":"Point","coordinates":[20.05596,-7.36147]}},{"type":"Feature","properties":{"country_en":"Angola","name":"Olivença-a-Nova","name_adm0":"Angola","name_adm1":"Huila","name_en":"Olivença-a-Nova","iso":"AO"},"geometry":{"type":"Point","coordinates":[13.983329999999999,-14.96667]}},{"type":"Feature","properties":{"country_en":"Angola","name":"Ompupa","name_adm0":"Angola","name_adm1":"Cunene","name_en":"Ompupa","iso":"AO"},"geometry":{"type":"Point","coordinates":[13.48333,-16.266669999999998]}},{"type":"Feature","properties":{"country_en":"Angola","name":"Omupanda","name_adm0":"Angola","name_adm1":"Cunene","name_en":"Omupanda","iso":"AO"},"geometry":{"type":"Point","coordinates":[15.766669999999998,-17.13333]}},{"type":"Feature","properties":{"country_en":"Angola","name":"Quibiri","name_adm0":"Angola","name_adm1":"Zaire","name_en":"Quibiri","iso":"AO"},"geometry":{"type":"Point","coordinates":[13.5,-7.716669999999999]}},{"type":"Feature","properties":{"country_en":"Angola","name":"Quicua","name_adm0":"Angola","name_adm1":"Uige","name_en":"Quicua","iso":"AO"},"geometry":{"type":"Point","coordinates":[16.617009999999997,-6.99619]}},{"type":"Feature","properties":{"country_en":"Angola","name":"Quicute","name_adm0":"Angola","name_adm1":"Uige","name_en":"Quicute","iso":"AO"},"geometry":{"type":"Point","coordinates":[16.33339,-7.46531]}},{"type":"Feature","properties":{"country_en":"Angola","name":"Quicuto","name_adm0":"Angola","name_adm1":"Malanje","name_en":"Quicuto","iso":"AO"},"geometry":{"type":"Point","coordinates":[17.08831,-7.415260000000001]}},{"type":"Feature","properties":{"country_en":"Angola","name":"Quifuapo","name_adm0":"Angola","name_adm1":"Lunda Norte","name_en":"Quifuapo","iso":"AO"},"geometry":{"type":"Point","coordinates":[18.9801,-8.65594]}},{"type":"Feature","properties":{"country_en":"Angola","name":"Quihuhu","name_adm0":"Angola","name_adm1":"Malanje","name_en":"Quihuhu","iso":"AO"},"geometry":{"type":"Point","coordinates":[16.59221,-7.7537]}},{"type":"Feature","properties":{"country_en":"Angola","name":"Quissanga","name_adm0":"Angola","name_adm1":"Cuanza Sul","name_en":"Quissanga","iso":"AO"},"geometry":{"type":"Point","coordinates":[14.59316,-10.852499999999997]}},{"type":"Feature","properties":{"country_en":"Angola","name":"Quissecula","name_adm0":"Angola","name_adm1":"Cuanza Sul","name_en":"Quissecula","iso":"AO"},"geometry":{"type":"Point","coordinates":[15.24598,-10.977109999999998]}},{"type":"Feature","properties":{"country_en":"Angola","name":"Quitamba","name_adm0":"Angola","name_adm1":"Lunda Norte","name_en":"Quitamba","iso":"AO"},"geometry":{"type":"Point","coordinates":[17.73333,-9.25]}},{"type":"Feature","properties":{"country_en":"Angola","name":"Quitexe","name_adm0":"Angola","name_adm1":"Uige","name_en":"Quitexe","iso":"AO"},"geometry":{"type":"Point","coordinates":[15.040610000000001,-7.94014]}},{"type":"Feature","properties":{"country_en":"Angola","name":"Quitota","name_adm0":"Angola","name_adm1":"Malanje","name_en":"Quitota","iso":"AO"},"geometry":{"type":"Point","coordinates":[15.42139,-9.5999]}},{"type":"Feature","properties":{"country_en":"Angola","name":"Quixocota","name_adm0":"Angola","name_adm1":"Cuanza Sul","name_en":"Quixocota","iso":"AO"},"geometry":{"type":"Point","coordinates":[15.129579999999999,-11.47542]}},{"type":"Feature","properties":{"country_en":"Angola","name":"Quizela","name_adm0":"Angola","name_adm1":"Malanje","name_en":"Quizela","iso":"AO"},"geometry":{"type":"Point","coordinates":[16.43223,-8.41671]}},{"type":"Feature","properties":{"country_en":"Angola","name":"Sacaluila","name_adm0":"Angola","name_adm1":"Lunda Sul","name_en":"Sacaluila","iso":"AO"},"geometry":{"type":"Point","coordinates":[21.53354,-10.56863]}},{"type":"Feature","properties":{"country_en":"Angola","name":"Sacambunge","name_adm0":"Angola","name_adm1":"Lunda Sul","name_en":"Sacambunge","iso":"AO"},"geometry":{"type":"Point","coordinates":[22.2291,-10.413549999999999]}},{"type":"Feature","properties":{"country_en":"Angola","name":"Sacandica","name_adm0":"Angola","name_adm1":"Uige","name_en":"Sacandica","iso":"AO"},"geometry":{"type":"Point","coordinates":[15.9571,-5.97786]}},{"type":"Feature","properties":{"country_en":"Angola","name":"Sacapanga","name_adm0":"Angola","name_adm1":"Moxico","name_en":"Sacapanga","iso":"AO"},"geometry":{"type":"Point","coordinates":[19.283329999999996,-13.5]}},{"type":"Feature","properties":{"country_en":"Angola","name":"Sacariata","name_adm0":"Angola","name_adm1":"Moxico","name_en":"Sacariata","iso":"AO"},"geometry":{"type":"Point","coordinates":[21.56667,-13.96667]}},{"type":"Feature","properties":{"country_en":"Angola","name":"Sacarimbua","name_adm0":"Angola","name_adm1":"Moxico","name_en":"Sacarimbua","iso":"AO"},"geometry":{"type":"Point","coordinates":[14.63355,-9.94895]}},{"type":"Feature","properties":{"country_en":"Angola","name":"Sacassongo","name_adm0":"Angola","name_adm1":"Lunda Sul","name_en":"Sacassongo","iso":"AO"},"geometry":{"type":"Point","coordinates":[21.06667,-9.06667]}},{"type":"Feature","properties":{"country_en":"Angola","name":"Sachanga","name_adm0":"Angola","name_adm1":"Moxico","name_en":"Sachanga","iso":"AO"},"geometry":{"type":"Point","coordinates":[14.41537,-10.66911]}},{"type":"Feature","properties":{"country_en":"Angola","name":"Sacuunda","name_adm0":"Angola","name_adm1":"Moxico","name_en":"Sacuunda","iso":"AO"},"geometry":{"type":"Point","coordinates":[23.21667,-11.099999999999998]}},{"type":"Feature","properties":{"country_en":"Angola","name":"Sadumba","name_adm0":"Angola","name_adm1":"Lunda Norte","name_en":"Sadumba","iso":"AO"},"geometry":{"type":"Point","coordinates":[13.76667,-10.5]}},{"type":"Feature","properties":{"country_en":"Angola","name":"São Lucas","name_adm0":"Angola","name_adm1":"Cuanza Sul","name_en":"São Lucas","iso":"AO"},"geometry":{"type":"Point","coordinates":[16.11964,-10.94475]}},{"type":"Feature","properties":{"country_en":"Angola","name":"São Nicolau","name_adm0":"Angola","name_adm1":"Namibe","name_en":"São Nicolau","iso":"AO"},"geometry":{"type":"Point","coordinates":[12.38333,-14.266669999999998]}},{"type":"Feature","properties":{"country_en":"Angola","name":"Saputo","name_adm0":"Angola","name_adm1":"Malanje","name_en":"Saputo","iso":"AO"},"geometry":{"type":"Point","coordinates":[18.25681,-10.98048]}},{"type":"Feature","properties":{"country_en":"Angola","name":"Saquisengo","name_adm0":"Angola","name_adm1":"Moxico","name_en":"Saquisengo","iso":"AO"},"geometry":{"type":"Point","coordinates":[20.7,-12.45]}},{"type":"Feature","properties":{"country_en":"Angola","name":"Sesse","name_adm0":"Angola","name_adm1":"Lunda Sul","name_en":"Sesse","iso":"AO"},"geometry":{"type":"Point","coordinates":[18.60304,-10.42717]}},{"type":"Feature","properties":{"country_en":"Angola","name":"Sunginge","name_adm0":"Angola","name_adm1":"Malanje","name_en":"Sunginge","iso":"AO"},"geometry":{"type":"Point","coordinates":[16.7972,-8.82435]}},{"type":"Feature","properties":{"country_en":"Angola","name":"Tambe","name_adm0":"Angola","name_adm1":"Huila","name_en":"Tambe","iso":"AO"},"geometry":{"type":"Point","coordinates":[14.533329999999998,-13.66667]}},{"type":"Feature","properties":{"country_en":"Angola","name":"Tambor","name_adm0":"Angola","name_adm1":"Namibe","name_en":"Tambor","iso":"AO"},"geometry":{"type":"Point","coordinates":[12.43333,-16.06667]}},{"type":"Feature","properties":{"country_en":"Angola","name":"Tende","name_adm0":"Angola","name_adm1":"Huambo","name_en":"Tende","iso":"AO"},"geometry":{"type":"Point","coordinates":[15.716669999999999,-11.53333]}},{"type":"Feature","properties":{"country_en":"Angola","name":"Tentativa","name_adm0":"Angola","name_adm1":"Bengo","name_en":"Tentativa","iso":"AO"},"geometry":{"type":"Point","coordinates":[13.61667,-8.6]}},{"type":"Feature","properties":{"country_en":"Angola","name":"Xaundo","name_adm0":"Angola","name_adm1":"Lunda Norte","name_en":"Xaundo","iso":"AO"},"geometry":{"type":"Point","coordinates":[19.41667,-7.6499999999999995]}},{"type":"Feature","properties":{"country_en":"Angola","name":"Xinge","name_adm0":"Angola","name_adm1":"Lunda Norte","name_en":"Xinge","iso":"AO"},"geometry":{"type":"Point","coordinates":[19.136439999999997,-9.77609]}},{"type":"Feature","properties":{"country_en":"Angola","name":"Musserra","name_adm0":"Angola","name_adm1":"Zaire","name_en":"Musserra","iso":"AO"},"geometry":{"type":"Point","coordinates":[13.03642,-7.61302]}},{"type":"Feature","properties":{"country_en":"Angola","name":"Cangoa","name_adm0":"Angola","name_adm1":"Moxico","name_en":"Cangoa","iso":"AO"},"geometry":{"type":"Point","coordinates":[18.5,-13.13333]}},{"type":"Feature","properties":{"country_en":"Angola","name":"Catengue","name_adm0":"Angola","name_adm1":"Benguela","name_en":"Catengue","iso":"AO"},"geometry":{"type":"Point","coordinates":[14.13333,-12.3]}},{"type":"Feature","properties":{"country_en":"Angola","name":"Cazombo","name_adm0":"Angola","name_adm1":"Moxico","name_en":"Cazombo","iso":"AO"},"geometry":{"type":"Point","coordinates":[22.91667,-11.9]}},{"type":"Feature","properties":{"country_en":"Angola","name":"Cauende","name_adm0":"Angola","name_adm1":"Bie","name_en":"Cauende","iso":"AO"},"geometry":{"type":"Point","coordinates":[16.58333,-13.28333]}},{"type":"Feature","properties":{"country_en":"Angola","name":"Dengue","name_adm0":"Angola","name_adm1":"Cuanza Sul","name_en":"Dengue","iso":"AO"},"geometry":{"type":"Point","coordinates":[13.789659999999998,-11.4973]}},{"type":"Feature","properties":{"country_en":"Angola","name":"Dombo","name_adm0":"Angola","name_adm1":"Malanje","name_en":"Dombo","iso":"AO"},"geometry":{"type":"Point","coordinates":[15.33333,-9.78333]}},{"type":"Feature","properties":{"country_en":"Angola","name":"Dondeiro","name_adm0":"Angola","name_adm1":"Bie","name_en":"Dondeiro","iso":"AO"},"geometry":{"type":"Point","coordinates":[17,-11.98333]}},{"type":"Feature","properties":{"country_en":"Angola","name":"Luahanda","name_adm0":"Angola","name_adm1":"Huambo","name_en":"Luahanda","iso":"AO"},"geometry":{"type":"Point","coordinates":[15.966669999999999,-11.76667]}},{"type":"Feature","properties":{"country_en":"Angola","name":"Luanda","name_adm0":"Angola","name_adm1":"Uige","name_en":"Luanda","iso":"AO"},"geometry":{"type":"Point","coordinates":[14.81667,-7.05]}},{"type":"Feature","properties":{"country_en":"Angola","name":"Lubalo","name_adm0":"Angola","name_adm1":"Lunda Norte","name_en":"Lubalo","iso":"AO"},"geometry":{"type":"Point","coordinates":[19.18333,-8.01667]}},{"type":"Feature","properties":{"country_en":"Angola","name":"Lucunga","name_adm0":"Angola","name_adm1":"Uige","name_en":"Lucunga","iso":"AO"},"geometry":{"type":"Point","coordinates":[15.28333,-7.56667]}},{"type":"Feature","properties":{"country_en":"Angola","name":"Mangando","name_adm0":"Angola","name_adm1":"Malanje","name_en":"Mangando","iso":"AO"},"geometry":{"type":"Point","coordinates":[17.127129999999998,-8.04728]}},{"type":"Feature","properties":{"country_en":"Angola","name":"Marimba","name_adm0":"Angola","name_adm1":"Malanje","name_en":"Marimba","iso":"AO"},"geometry":{"type":"Point","coordinates":[17.48348,-8.18202]}},{"type":"Feature","properties":{"country_en":"Angola","name":"Massango","name_adm0":"Angola","name_adm1":"Cuanza Sul","name_en":"Massango","iso":"AO"},"geometry":{"type":"Point","coordinates":[14.900000000000002,-11.35]}},{"type":"Feature","properties":{"country_en":"Angola","name":"Muaximbundo","name_adm0":"Angola","name_adm1":"Lunda Sul","name_en":"Muaximbundo","iso":"AO"},"geometry":{"type":"Point","coordinates":[20.83333,-10.98333]}},{"type":"Feature","properties":{"country_en":"Angola","name":"Mufuma","name_adm0":"Angola","name_adm1":"Malanje","name_en":"Mufuma","iso":"AO"},"geometry":{"type":"Point","coordinates":[15.823079999999997,-9.21829]}},{"type":"Feature","properties":{"country_en":"Angola","name":"Mutumbo","name_adm0":"Angola","name_adm1":"Bie","name_en":"Mutumbo","iso":"AO"},"geometry":{"type":"Point","coordinates":[17.45,-13.166669999999998]}},{"type":"Feature","properties":{"country_en":"Angola","name":"Nehone","name_adm0":"Angola","name_adm1":"Cunene","name_en":"Nehone","iso":"AO"},"geometry":{"type":"Point","coordinates":[16.38333,-16.533329999999996]}},{"type":"Feature","properties":{"country_en":"Angola","name":"Quimbianda","name_adm0":"Angola","name_adm1":"Uige","name_en":"Quimbianda","iso":"AO"},"geometry":{"type":"Point","coordinates":[15.862819999999997,-6.94808]}},{"type":"Feature","properties":{"country_en":"Angola","name":"Quimbuco","name_adm0":"Angola","name_adm1":"Uige","name_en":"Quimbuco","iso":"AO"},"geometry":{"type":"Point","coordinates":[15.87442,-7.00945]}},{"type":"Feature","properties":{"country_en":"Angola","name":"Quissongo","name_adm0":"Angola","name_adm1":"Cuanza Sul","name_en":"Quissongo","iso":"AO"},"geometry":{"type":"Point","coordinates":[14.78333,-10.7]}},{"type":"Feature","properties":{"country_en":"Angola","name":"Quizenga","name_adm0":"Angola","name_adm1":"Malanje","name_en":"Quizenga","iso":"AO"},"geometry":{"type":"Point","coordinates":[17.24489,-8.86048]}},{"type":"Feature","properties":{"country_en":"Angola","name":"Rianguira","name_adm0":"Angola","name_adm1":"Cuanza Sul","name_en":"Rianguira","iso":"AO"},"geometry":{"type":"Point","coordinates":[14.38333,-11.6]}},{"type":"Feature","properties":{"country_en":"Angola","name":"Samucumbi","name_adm0":"Angola","name_adm1":"Moxico","name_en":"Samucumbi","iso":"AO"},"geometry":{"type":"Point","coordinates":[19.99762,-11.34592]}},{"type":"Feature","properties":{"country_en":"Angola","name":"Sandála","name_adm0":"Angola","name_adm1":"Cuando Cubango","name_en":"Sandála","iso":"AO"},"geometry":{"type":"Point","coordinates":[18.83333,-17.11667]}},{"type":"Feature","properties":{"country_en":"Angola","name":"Songo","name_adm0":"Angola","name_adm1":"Uige","name_en":"Songo","iso":"AO"},"geometry":{"type":"Point","coordinates":[15.099999999999998,-6.56667]}},{"type":"Feature","properties":{"country_en":"Angola","name":"Sunza","name_adm0":"Angola","name_adm1":"Uige","name_en":"Sunza","iso":"AO"},"geometry":{"type":"Point","coordinates":[15.716669999999999,-6.05]}},{"type":"Feature","properties":{"country_en":"Angola","name":"Tapalo","name_adm0":"Angola","name_adm1":"Moxico","name_en":"Tapalo","iso":"AO"},"geometry":{"type":"Point","coordinates":[19.73333,-14.13333]}},{"type":"Feature","properties":{"country_en":"Angola","name":"Quicombo","name_adm0":"Angola","name_adm1":"Cuanza Sul","name_en":"Quicombo","iso":"AO"},"geometry":{"type":"Point","coordinates":[13.81671,-11.31944]}},{"type":"Feature","properties":{"country_en":"Angola","name":"Cassongo","name_adm0":"Angola","name_adm1":"Cuanza Sul","name_en":"Cassongo","iso":"AO"},"geometry":{"type":"Point","coordinates":[14.31234,-11.10466]}},{"type":"Feature","properties":{"country_en":"Angola","name":"Namba","name_adm0":"Angola","name_adm1":"Cuanza Sul","name_en":"Namba","iso":"AO"},"geometry":{"type":"Point","coordinates":[14.46667,-11.31667]}},{"type":"Feature","properties":{"country_en":"Angola","name":"Palmeirinhas","name_adm0":"Angola","name_adm1":"Luanda","name_en":"Palmeirinhas","iso":"AO"},"geometry":{"type":"Point","coordinates":[13.02298,-9.119359999999999]}},{"type":"Feature","properties":{"country_en":"Angola","name":"Bambangando","name_adm0":"Angola","name_adm1":"Cuando Cubango","name_en":"Bambangando","iso":"AO"},"geometry":{"type":"Point","coordinates":[22.08333,-17.16667]}},{"type":"Feature","properties":{"country_en":"Angola","name":"Capulo","name_adm0":"Angola","name_adm1":"Bengo","name_en":"Capulo","iso":"AO"},"geometry":{"type":"Point","coordinates":[13.17043,-7.95746]}},{"type":"Feature","properties":{"country_en":"Angola","name":"Muxima","name_adm0":"Angola","name_adm1":"Bengo","name_en":"Muxima","iso":"AO"},"geometry":{"type":"Point","coordinates":[13.79777,-9.70928]}},{"type":"Feature","properties":{"country_en":"Angola","name":"Pimbe","name_adm0":"Angola","name_adm1":"Lunda Sul","name_en":"Pimbe","iso":"AO"},