{"type":"FeatureCollection","features":[{"type":"Feature","properties":{"country_en":"American Samoa","name":"Tula","name_adm0":"American Samoa","name_adm1":"Eastern","name_adm2":"Vaifanua","name_en":"Tula","iso":"AS"},"geometry":{"type":"Point","coordinates":[-170.56417,-14.258059999999999]}},{"type":"Feature","properties":{"country_en":"American Samoa","name":"Tualauta","name_adm0":"American Samoa","name_adm1":"Western","name_adm2":"Tualauta","name_en":"Tualauta","iso":"AS"},"geometry":{"type":"Point","coordinates":[-170.712497,-14.327407000000001]}},{"type":"Feature","properties":{"country_en":"American Samoa","name":"Leone","name_adm0":"American Samoa","name_adm1":"Western","name_adm2":"Lealataua","name_en":"Leone","iso":"AS"},"geometry":{"type":"Point","coordinates":[-170.785,-14.343889999999998]}},{"type":"Feature","properties":{"country_en":"American Samoa","name":"Fagatogo","name_adm0":"American Samoa","name_adm1":"Eastern","name_adm2":"Ma Oputasi","name_en":"Fagatogo","iso":"AS"},"geometry":{"type":"Point","coordinates":[-170.69,-14.2825]}},{"type":"Feature","properties":{"country_en":"American Samoa","name":"Ituau","name_adm0":"American Samoa","name_adm1":"Eastern","name_adm2":"Ituau","name_en":"Ituau","iso":"AS"},"geometry":{"type":"Point","coordinates":[-170.702377,-14.30996]}},{"type":"Feature","properties":{"country_en":"American Samoa","name":"Lealataua","name_adm0":"American Samoa","name_adm1":"Western","name_adm2":"Lealataua","name_en":"Lealataua","iso":"AS"},"geometry":{"type":"Point","coordinates":[-170.85250799999997,-14.310961]}},{"type":"Feature","properties":{"country_en":"American Samoa","name":"Eastern","name_adm0":"American Samoa","name_adm1":"Eastern","name_en":"Eastern","iso":"AS"},"geometry":{"type":"Point","coordinates":[-170.702377,-14.30996]}},{"type":"Feature","properties":{"country_en":"American Samoa","name":"Matuu","name_adm0":"American Samoa","name_adm1":"Eastern","name_adm2":"Ituau","name_en":"Matuu","iso":"AS"},"geometry":{"type":"Point","coordinates":[-170.68389,-14.30361]}},{"type":"Feature","properties":{"country_en":"American Samoa","name":"Swains","name_adm0":"American Samoa","name_adm1":"Swains","name_en":"Swains","iso":"AS"},"geometry":{"type":"Point","coordinates":[-170.702377,-14.30996]}},{"type":"Feature","properties":{"country_en":"American Samoa","name":"Vaifanua","name_adm0":"American Samoa","name_adm1":"Eastern","name_adm2":"Vaifanua","name_en":"Vaifanua","iso":"AS"},"geometry":{"type":"Point","coordinates":[-170.702377,-14.30996]}},{"type":"Feature","properties":{"country_en":"American Samoa","name":"Olosega","name_adm0":"American Samoa","name_adm1":"Manua","name_adm2":"Olosega","name_en":"Olosega","iso":"AS"},"geometry":{"type":"Point","coordinates":[-170.702377,-14.30996]}},{"type":"Feature","properties":{"country_en":"American Samoa","name":"Faleasao","name_adm0":"American Samoa","name_adm1":"Manua","name_adm2":"Faleasao","name_en":"Faleasao","iso":"AS"},"geometry":{"type":"Point","coordinates":[-170.702377,-14.30996]}},{"type":"Feature","properties":{"country_en":"American Samoa","name":"Vaifanua","name_adm0":"American Samoa","name_adm1":"Eastern","name_adm2":"Vaifanua","name_en":"Vaifanua","iso":"AS"},"geometry":{"type":"Point","coordinates":[-170.721702,-14.237429]}},{"type":"Feature","properties":{"country_en":"American Samoa","name":"Utulei","name_adm0":"American Samoa","name_adm1":"Eastern","name_adm2":"Ma Oputasi","name_en":"Utulei","iso":"AS"},"geometry":{"type":"Point","coordinates":[-170.68306,-14.28694]}},{"type":"Feature","properties":{"country_en":"American Samoa","name":"Auto","name_adm0":"American Samoa","name_adm1":"Eastern","name_adm2":"Sua","name_en":"Auto","iso":"AS"},"geometry":{"type":"Point","coordinates":[-170.62694,-14.28306]}},{"type":"Feature","properties":{"country_en":"American Samoa","name":"Masefau","name_adm0":"American Samoa","name_adm1":"Eastern","name_adm2":"Sua","name_en":"Masefau","iso":"AS"},"geometry":{"type":"Point","coordinates":[-170.63056,-14.25917]}},{"type":"Feature","properties":{"country_en":"American Samoa","name":"Faganeanea","name_adm0":"American Samoa","name_adm1":"Eastern","name_adm2":"Ituau","name_en":"Faganeanea","iso":"AS"},"geometry":{"type":"Point","coordinates":[-170.68889,-14.30611]}},{"type":"Feature","properties":{"country_en":"American Samoa","name":"Fagasa","name_adm0":"American Samoa","name_adm1":"Eastern","name_adm2":"Ituau","name_en":"Fagasa","iso":"AS"},"geometry":{"type":"Point","coordinates":[-170.71861,-14.29083]}},{"type":"Feature","properties":{"country_en":"American Samoa","name":"Tualatai","name_adm0":"American Samoa","name_adm1":"Western","name_adm2":"Tualatai","name_en":"Tualatai","iso":"AS"},"geometry":{"type":"Point","coordinates":[-171.796646,-13.909406999999998]}},{"type":"Feature","properties":{"country_en":"American Samoa","name":"Sili","name_adm0":"American Samoa","name_adm1":"Manua","name_adm2":"Olosega","name_en":"Sili","iso":"AS"},"geometry":{"type":"Point","coordinates":[-170.79556,-14.33556]}},{"type":"Feature","properties":{"country_en":"American Samoa","name":"Failolo","name_adm0":"American Samoa","name_adm1":"Western","name_adm2":"Lealataua","name_en":"Failolo","iso":"AS"},"geometry":{"type":"Point","coordinates":[-170.82583,-14.333609999999998]}},{"type":"Feature","properties":{"country_en":"American Samoa","name":"Pago Pago","name_adm0":"American Samoa","name_adm1":"Eastern","name_adm2":"Ma Oputasi","name_en":"Pago Pago","iso":"AS"},"geometry":{"type":"Point","coordinates":[-170.686,-14.280733]}},{"type":"Feature","properties":{"country_en":"American Samoa","name":"American Samoa","name_adm0":"American Samoa","name_en":"American Samoa","iso":"AS"},"geometry":{"type":"Point","coordinates":[-170.702377,-14.30996]}},{"type":"Feature","properties":{"country_en":"American Samoa","name":"Fagitua","name_adm0":"American Samoa","name_adm1":"Eastern","name_adm2":"Sua","name_en":"Fagitua","iso":"AS"},"geometry":{"type":"Point","coordinates":[-170.61194,-14.27194]}},{"type":"Feature","properties":{"country_en":"American Samoa","name":"Amanave","name_adm0":"American Samoa","name_adm1":"Western","name_adm2":"Lealataua","name_en":"Amanave","iso":"AS"},"geometry":{"type":"Point","coordinates":[-170.82944,-14.329999999999998]}},{"type":"Feature","properties":{"country_en":"American Samoa","name":"Alofau","name_adm0":"American Samoa","name_adm1":"Eastern","name_adm2":"Sa Ole","name_en":"Alofau","iso":"AS"},"geometry":{"type":"Point","coordinates":[-170.60222,-14.27917]}},{"type":"Feature","properties":{"country_en":"American Samoa","name":"Faleasao","name_adm0":"American Samoa","name_adm1":"Manua","name_adm2":"Faleasao","name_en":"Faleasao","iso":"AS"},"geometry":{"type":"Point","coordinates":[-171.58658,-13.92067]}},{"type":"Feature","properties":{"country_en":"American Samoa","name":"Maloata","name_adm0":"American Samoa","name_adm1":"Western","name_adm2":"Lealataua","name_en":"Maloata","iso":"AS"},"geometry":{"type":"Point","coordinates":[-170.81472,-14.30944]}},{"type":"Feature","properties":{"country_en":"American Samoa","name":"Fagali I","name_adm0":"American Samoa","name_adm1":"Western","name_adm2":"Lealataua","name_en":"Fagali I","iso":"AS"},"geometry":{"type":"Point","coordinates":[-170.82472,-14.31222]}},{"type":"Feature","properties":{"country_en":"American Samoa","name":"Agugulu","name_adm0":"American Samoa","name_adm1":"Western","name_adm2":"Lealataua","name_en":"Agugulu","iso":"AS"},"geometry":{"type":"Point","coordinates":[-170.82167,-14.33556]}},{"type":"Feature","properties":{"country_en":"American Samoa","name":"Vailoatal","name_adm0":"American Samoa","name_adm1":"Western","name_adm2":"Tualatai","name_en":"Vailoatal","iso":"AS"},"geometry":{"type":"Point","coordinates":[-171.79125999999997,-13.831229999999998]}},{"type":"Feature","properties":{"country_en":"American Samoa","name":"Sa Ole","name_adm0":"American Samoa","name_adm1":"Eastern","name_adm2":"Sa Ole","name_en":"Sa Ole","iso":"AS"},"geometry":{"type":"Point","coordinates":[-170.702377,-14.30996]}},{"type":"Feature","properties":{"country_en":"American Samoa","name":"Ma Oputasi","name_adm0":"American Samoa","name_adm1":"Eastern","name_adm2":"Ma Oputasi","name_en":"Ma Oputasi","iso":"AS"},"geometry":{"type":"Point","coordinates":[-170.656814,-14.287673]}},{"type":"Feature","properties":{"country_en":"American Samoa","name":"Fagamalo","name_adm0":"American Samoa","name_adm1":"Western","name_adm2":"Lealataua","name_en":"Fagamalo","iso":"AS"},"geometry":{"type":"Point","coordinates":[-170.80889,-14.30361]}},{"type":"Feature","properties":{"country_en":"American Samoa","name":"Poloa","name_adm0":"American Samoa","name_adm1":"Western","name_adm2":"Lealataua","name_en":"Poloa","iso":"AS"},"geometry":{"type":"Point","coordinates":[-170.83278,-14.321669999999997]}},{"type":"Feature","properties":{"country_en":"American Samoa","name":"Western","name_adm0":"American Samoa","name_adm1":"Western","name_en":"Western","iso":"AS"},"geometry":{"type":"Point","coordinates":[-171.796646,-13.909406999999998]}},{"type":"Feature","properties":{"country_en":"American Samoa","name":"Ili'ili","name_adm0":"American Samoa","name_adm1":"Western","name_adm2":"Tualauta","name_en":"Ili'ili","iso":"AS"},"geometry":{"type":"Point","coordinates":[-170.74694,-14.35167]}},{"type":"Feature","properties":{"country_en":"American Samoa","name":"Seetga","name_adm0":"American Samoa","name_adm1":"Western","name_adm2":"Lealataua","name_en":"Seetga","iso":"AS"},"geometry":{"type":"Point","coordinates":[-170.81055999999998,-14.33056]}},{"type":"Feature","properties":{"country_en":"American Samoa","name":"Amouli","name_adm0":"American Samoa","name_adm1":"Eastern","name_adm2":"Sa Ole","name_en":"Amouli","iso":"AS"},"geometry":{"type":"Point","coordinates":[-170.58249999999998,-14.27806]}},{"type":"Feature","properties":{"country_en":"American Samoa","name":"Nu' Uuli","name_adm0":"American Samoa","name_adm1":"Eastern","name_adm2":"Ituau","name_en":"Nu' Uuli","iso":"AS"},"geometry":{"type":"Point","coordinates":[-170.6975,-14.31583]}},{"type":"Feature","properties":{"country_en":"American Samoa","name":"Sua","name_adm0":"American Samoa","name_adm1":"Eastern","name_adm2":"Sua","name_en":"Sua","iso":"AS"},"geometry":{"type":"Point","coordinates":[-170.702377,-14.30996]}},{"type":"Feature","properties":{"country_en":"American Samoa","name":"Afono","name_adm0":"American Samoa","name_adm1":"Eastern","name_adm2":"Sua","name_en":"Afono","iso":"AS"},"geometry":{"type":"Point","coordinates":[-170.65083,-14.26417]}},{"type":"Feature","properties":{"country_en":"American Samoa","name":"Fagaalu","name_adm0":"American Samoa","name_adm1":"Eastern","name_adm2":"Ma Oputasi","name_en":"Fagaalu","iso":"AS"},"geometry":{"type":"Point","coordinates":[-170.68361,-14.296389999999999]}},{"type":"Feature","properties":{"country_en":"American Samoa","name":"Vatia","name_adm0":"American Samoa","name_adm1":"Eastern","name_adm2":"Vaifanua","name_en":"Vatia","iso":"AS"},"geometry":{"type":"Point","coordinates":[-170.67528,-14.255]}}]}