{"type":"FeatureCollection","features":[{"type":"Feature","properties":{"country_en":"Austria","name":"Hipping","name_adm0":"Österreich","name_adm1":"Oberösterreich","name_adm2":"Vöcklabruck","name_en":"Hipping","iso":"AT"},"geometry":{"type":"Point","coordinates":[13.46581,47.9497]}},{"type":"Feature","properties":{"country_en":"Austria","name":"Hochburg","name_adm0":"Österreich","name_adm1":"Oberösterreich","name_adm2":"Braunau am Inn","name_en":"Hochburg-Ach","iso":"AT"},"geometry":{"type":"Point","coordinates":[12.87735,48.13001]}},{"type":"Feature","properties":{"country_en":"Austria","name":"Holzhausen","name_adm0":"Österreich","name_adm1":"Oberösterreich","name_adm2":"Wels-Land","name_en":"Holzhausen","iso":"AT"},"geometry":{"type":"Point","coordinates":[14.09683,48.22295999999999]}},{"type":"Feature","properties":{"country_en":"Austria","name":"Waldwinkl","name_adm0":"Österreich","name_adm1":"Salzburg","name_adm2":"Salzburg-Umgebung","name_en":"Winkl","iso":"AT"},"geometry":{"type":"Point","coordinates":[13.4,47.816669999999995]}},{"type":"Feature","properties":{"country_en":"Austria","name":"Wallnstorf","name_adm0":"Österreich","name_adm1":"Oberösterreich","name_adm2":"Wels-Land","name_en":"Wallnstorf","iso":"AT"},"geometry":{"type":"Point","coordinates":[13.93333,48.13333]}},{"type":"Feature","properties":{"country_en":"Austria","name":"Weyer Markt","name_adm0":"Österreich","name_adm1":"Oberösterreich","name_adm2":"Steyr-Land","name_en":"Weyer","iso":"AT"},"geometry":{"type":"Point","coordinates":[14.66409,47.85717]}},{"type":"Feature","properties":{"country_en":"Austria","name":"Wildenau","name_adm0":"Österreich","name_adm1":"Oberösterreich","name_adm2":"Braunau am Inn","name_en":"Wildenau","iso":"AT"},"geometry":{"type":"Point","coordinates":[13.31723,48.2062]}},{"type":"Feature","properties":{"country_en":"Austria","name":"St. Georgen bei Salzburg","name_adm0":"Österreich","name_adm1":"Salzburg","name_adm2":"Salzburg-Umgebung","name_en":"Skt Georgen","iso":"AT"},"geometry":{"type":"Point","coordinates":[12.88499,47.99078]}},{"type":"Feature","properties":{"country_en":"Austria","name":"Wiener Neudorf","name_adm0":"Österreich","name_adm1":"Niederösterreich","name_adm2":"Mödling","name_en":"Wiener Neudorf","iso":"AT"},"geometry":{"type":"Point","coordinates":[16.31384,48.08278]}},{"type":"Feature","properties":{"country_en":"Austria","name":"St. Gilgen","name_adm0":"Österreich","name_adm1":"Salzburg","name_adm2":"Salzburg-Umgebung","name_en":"St. Gilgen","iso":"AT"},"geometry":{"type":"Point","coordinates":[13.36667,47.76667]}},{"type":"Feature","properties":{"country_en":"Austria","name":"Netzberg","name_adm0":"Österreich","name_adm1":"Oberösterreich","name_adm2":"Freistadt","name_en":"Netzberg","iso":"AT"},"geometry":{"type":"Point","coordinates":[14.49964,48.37769]}},{"type":"Feature","properties":{"country_en":"Austria","name":"Ulrichsberg","name_adm0":"Österreich","name_adm1":"Oberösterreich","name_adm2":"Rohrbach","name_en":"Ulrichsberg","iso":"AT"},"geometry":{"type":"Point","coordinates":[13.910750999999998,48.677077]}},{"type":"Feature","properties":{"country_en":"Austria","name":"Obsteig","name_adm0":"Österreich","name_adm1":"Tirol","name_adm2":"Imst","name_en":"Obsteig","iso":"AT"},"geometry":{"type":"Point","coordinates":[10.93333,47.3]}},{"type":"Feature","properties":{"country_en":"Austria","name":"Badersdorf","name_adm0":"Österreich","name_adm1":"Burgenland","name_adm2":"Oberwart","name_en":"Badersdorf","iso":"AT"},"geometry":{"type":"Point","coordinates":[15.98333,47.06667]}},{"type":"Feature","properties":{"country_en":"Austria","name":"Deutsch Schützen","name_adm0":"Österreich","name_adm1":"Burgenland","name_adm2":"Oberwart","name_en":"Deutsch Schützen","iso":"AT"},"geometry":{"type":"Point","coordinates":[16.42872,47.16258]}},{"type":"Feature","properties":{"country_en":"Austria","name":"Duel","name_adm0":"Österreich","name_adm1":"Kärnten","name_adm2":"Villach Land","name_en":"Duel","iso":"AT"},"geometry":{"type":"Point","coordinates":[14.01667,46.58333]}},{"type":"Feature","properties":{"country_en":"Austria","name":"Feffernitz","name_adm0":"Österreich","name_adm1":"Kärnten","name_adm2":"Villach Land","name_en":"Feffernitz","iso":"AT"},"geometry":{"type":"Point","coordinates":[13.7025,46.68667]}},{"type":"Feature","properties":{"country_en":"Austria","name":"St. Martin am Techelsberg","name_adm0":"Österreich","name_adm1":"Kärnten","name_adm2":"Klagenfurt Land","name_en":"Techelsberg","iso":"AT"},"geometry":{"type":"Point","coordinates":[14.101939999999999,46.658609999999996]}},{"type":"Feature","properties":{"country_en":"Austria","name":"Srejach","name_adm0":"Österreich","name_adm1":"Kärnten","name_adm2":"Völkermarkt","name_en":"Srejach","iso":"AT"},"geometry":{"type":"Point","coordinates":[14.596970000000002,46.62273999999999]}},{"type":"Feature","properties":{"country_en":"Austria","name":"St. Jakob","name_adm0":"Österreich","name_adm1":"Kärnten","name_adm2":"Villach Land","name_en":"St. Jakob","iso":"AT"},"geometry":{"type":"Point","coordinates":[14.057219999999997,46.54778]}},{"type":"Feature","properties":{"country_en":"Austria","name":"Gainfarn","name_adm0":"Österreich","name_adm1":"Niederösterreich","name_adm2":"Baden","name_en":"Gainfarn","iso":"AT"},"geometry":{"type":"Point","coordinates":[16.19368,47.962799999999994]}},{"type":"Feature","properties":{"country_en":"Austria","name":"Großwetzdorf","name_adm0":"Österreich","name_adm1":"Niederösterreich","name_adm2":"Hollabrunn","name_en":"Großwetzdorf","iso":"AT"},"geometry":{"type":"Point","coordinates":[15.93333,48.5]}},{"type":"Feature","properties":{"country_en":"Austria","name":"Gerasdorf am Steinfelde","name_adm0":"Österreich","name_adm1":"Niederösterreich","name_adm2":"Neunkirchen","name_en":"Gerasdorf","iso":"AT"},"geometry":{"type":"Point","coordinates":[16.07643,47.78271]}},{"type":"Feature","properties":{"country_en":"Austria","name":"Grub an der March","name_adm0":"Österreich","name_adm1":"Niederösterreich","name_adm2":"Gänserndorf","name_en":"Grub","iso":"AT"},"geometry":{"type":"Point","coordinates":[16.83333,48.41667]}},{"type":"Feature","properties":{"country_en":"Austria","name":"Joching","name_adm0":"Österreich","name_adm1":"Niederösterreich","name_adm2":"Krems Land","name_en":"Joching","iso":"AT"},"geometry":{"type":"Point","coordinates":[15.45,48.38333]}},{"type":"Feature","properties":{"country_en":"Austria","name":"Karlstein","name_adm0":"Österreich","name_adm1":"Niederösterreich","name_adm2":"Waidhofen an der Thaya","name_en":"Karlstein","iso":"AT"},"geometry":{"type":"Point","coordinates":[15.399999999999999,48.88333]}},{"type":"Feature","properties":{"country_en":"Austria","name":"Klein-Harras","name_adm0":"Österreich","name_adm1":"Niederösterreich","name_adm2":"Gänserndorf","name_en":"Klein-Harras","iso":"AT"},"geometry":{"type":"Point","coordinates":[16.62722,48.46167]}},{"type":"Feature","properties":{"country_en":"Austria","name":"Langfeld","name_adm0":"Österreich","name_adm1":"Niederösterreich","name_adm2":"Gmünd","name_en":"Langfeld","iso":"AT"},"geometry":{"type":"Point","coordinates":[14.849999999999998,48.68332999999999]}},{"type":"Feature","properties":{"country_en":"Austria","name":"Lauterbach","name_adm0":"Österreich","name_adm1":"Niederösterreich","name_adm2":"Gmünd","name_en":"Lauterbach","iso":"AT"},"geometry":{"type":"Point","coordinates":[14.766670000000001,48.68332999999999]}},{"type":"Feature","properties":{"country_en":"Austria","name":"Mold","name_adm0":"Österreich","name_adm1":"Niederösterreich","name_adm2":"Horn","name_en":"Mold","iso":"AT"},"geometry":{"type":"Point","coordinates":[15.700750000000001,48.64227]}},{"type":"Feature","properties":{"country_en":"Austria","name":"Neuhaus","name_adm0":"Österreich","name_adm1":"Niederösterreich","name_adm2":"Baden","name_en":"Neuhaus","iso":"AT"},"geometry":{"type":"Point","coordinates":[16.04588,47.99520999999999]}},{"type":"Feature","properties":{"country_en":"Austria","name":"Möllersdorf","name_adm0":"Österreich","name_adm1":"Niederösterreich","name_adm2":"Baden","name_en":"Möllersdorf","iso":"AT"},"geometry":{"type":"Point","coordinates":[16.30508,48.025749999999995]}},{"type":"Feature","properties":{"country_en":"Austria","name":"Münichreith am Ostrong","name_adm0":"Österreich","name_adm1":"Niederösterreich","name_adm2":"Melk","name_en":"Münichreith am Ostrong","iso":"AT"},"geometry":{"type":"Point","coordinates":[15.116669999999997,48.24999999999999]}},{"type":"Feature","properties":{"country_en":"Austria","name":"Nappersdorf","name_adm0":"Österreich","name_adm1":"Niederösterreich","name_adm2":"Hollabrunn","name_en":"Nappersdorf","iso":"AT"},"geometry":{"type":"Point","coordinates":[16.18333,48.61667]}},{"type":"Feature","properties":{"country_en":"Austria","name":"Windischgarsten","name_adm0":"Österreich","name_adm1":"Oberösterreich","name_adm2":"Kirchdorf an der Krems","name_en":"Windischgarsten","iso":"AT"},"geometry":{"type":"Point","coordinates":[14.328059999999999,47.722119]}},{"type":"Feature","properties":{"country_en":"Austria","name":"Ramingdorf","name_adm0":"Österreich","name_adm1":"Niederösterreich","name_adm2":"Amstetten","name_en":"Ramingdorf","iso":"AT"},"geometry":{"type":"Point","coordinates":[14.449999999999998,48.06667]}},{"type":"Feature","properties":{"country_en":"Austria","name":"Trübensee","name_adm0":"Österreich","name_adm1":"Niederösterreich","name_adm2":"Tulln","name_en":"Trübensee","iso":"AT"},"geometry":{"type":"Point","coordinates":[16.03333,48.35]}},{"type":"Feature","properties":{"country_en":"Austria","name":"Ulrichs","name_adm0":"Österreich","name_adm1":"Niederösterreich","name_adm2":"Gmünd","name_en":"Ulrichs","iso":"AT"},"geometry":{"type":"Point","coordinates":[14.933329999999998,48.71667]}},{"type":"Feature","properties":{"country_en":"Austria","name":"Unserfrau","name_adm0":"Österreich","name_adm1":"Niederösterreich","name_adm2":"Gmünd","name_en":"Unserfrau","iso":"AT"},"geometry":{"type":"Point","coordinates":[14.900000000000002,48.71667]}},{"type":"Feature","properties":{"country_en":"Austria","name":"Weinling","name_adm0":"Österreich","name_adm1":"Niederösterreich","name_adm2":"Melk","name_en":"Weinling","iso":"AT"},"geometry":{"type":"Point","coordinates":[15.166669999999998,48.33333]}},{"type":"Feature","properties":{"country_en":"Austria","name":"Weinzierl bei Krems","name_adm0":"Österreich","name_adm1":"Niederösterreich","name_adm2":"Krems an der Donau Stadt","name_en":"Weinzierl","iso":"AT"},"geometry":{"type":"Point","coordinates":[15.882969999999998,48.28593]}},{"type":"Feature","properties":{"country_en":"Austria","name":"Zöfing","name_adm0":"Österreich","name_adm1":"Niederösterreich","name_adm2":"Tulln","name_en":"Zöfing","iso":"AT"},"geometry":{"type":"Point","coordinates":[16.02167,48.28057]}},{"type":"Feature","properties":{"country_en":"Austria","name":"Ampfelwang","name_adm0":"Österreich","name_adm1":"Oberösterreich","name_adm2":"Vöcklabruck","name_en":"Ampflwang","iso":"AT"},"geometry":{"type":"Point","coordinates":[13.566669999999998,48.08332999999999]}},{"type":"Feature","properties":{"country_en":"Austria","name":"Karling","name_adm0":"Österreich","name_adm1":"Oberösterreich","name_adm2":"Eferding","name_en":"Karling","iso":"AT"},"geometry":{"type":"Point","coordinates":[13.99607,48.35123]}},{"type":"Feature","properties":{"country_en":"Austria","name":"Kickendorf","name_adm0":"Österreich","name_adm1":"Oberösterreich","name_adm2":"Grieskirchen","name_en":"Kickendorf","iso":"AT"},"geometry":{"type":"Point","coordinates":[13.83505,48.24674]}},{"type":"Feature","properties":{"country_en":"Austria","name":"Kirchberg bei Mattighofen","name_adm0":"Österreich","name_adm1":"Oberösterreich","name_adm2":"Braunau am Inn","name_en":"Kirchberg","iso":"AT"},"geometry":{"type":"Point","coordinates":[13.115189999999998,48.0389]}},{"type":"Feature","properties":{"country_en":"Austria","name":"Oberlebing","name_adm0":"Österreich","name_adm1":"Oberösterreich","name_adm2":"Perg","name_en":"Oberlebing","iso":"AT"},"geometry":{"type":"Point","coordinates":[14.63336,48.28833]}},{"type":"Feature","properties":{"country_en":"Austria","name":"Untergriesbach","name_adm0":"Österreich","name_adm1":"Oberösterreich","name_adm2":"Schärding","name_en":"Untergriesbach","iso":"AT"},"geometry":{"type":"Point","coordinates":[13.66725,48.57434]}},{"type":"Feature","properties":{"country_en":"Austria","name":"Lengdorf","name_adm0":"Österreich","name_adm1":"Salzburg","name_adm2":"Zell am See","name_en":"Lengdorf","iso":"AT"},"geometry":{"type":"Point","coordinates":[12.616669999999997,47.28333]}},{"type":"Feature","properties":{"country_en":"Austria","name":"Mitterhofen","name_adm0":"Österreich","name_adm1":"Salzburg","name_adm2":"Zell am See","name_en":"Mitterhofen","iso":"AT"},"geometry":{"type":"Point","coordinates":[12.8,47.38333]}},{"type":"Feature","properties":{"country_en":"Austria","name":"Litzelsdorf","name_adm0":"Österreich","name_adm1":"Salzburg","name_adm2":"Tamsweg","name_en":"Litzldorf","iso":"AT"},"geometry":{"type":"Point","coordinates":[13.79728,47.13626]}},{"type":"Feature","properties":{"country_en":"Austria","name":"Krottendorf bei Ligist","name_adm0":"Österreich","name_adm1":"Steiermark","name_adm2":"Voitsberg","name_en":"Krottendorf","iso":"AT"},"geometry":{"type":"Point","coordinates":[15.21667,47.01667]}},{"type":"Feature","properties":{"country_en":"Austria","name":"Lichendorf","name_adm0":"Österreich","name_adm1":"Steiermark","name_adm2":"Radkersburg","name_en":"Lichendorf","iso":"AT"},"geometry":{"type":"Point","coordinates":[15.698329999999999,46.71139]}},{"type":"Feature","properties":{"country_en":"Austria","name":"Ludersdorf","name_adm0":"Österreich","name_adm1":"Steiermark","name_adm2":"Weiz","name_en":"Ludersdorf","iso":"AT"},"geometry":{"type":"Point","coordinates":[15.68942,47.10332]}},{"type":"Feature","properties":{"country_en":"Austria","name":"Ortgraben","name_adm0":"Österreich","name_adm1":"Steiermark","name_adm2":"Hartberg","name_en":"Ortgraben","iso":"AT"},"geometry":{"type":"Point","coordinates":[16.05,47.45]}},{"type":"Feature","properties":{"country_en":"Austria","name":"Ottendorf bei Gleisdorf","name_adm0":"Österreich","name_adm1":"Steiermark","name_adm2":"Fürstenfeld","name_en":"Ottendorf","iso":"AT"},"geometry":{"type":"Point","coordinates":[15.899999999999999,47.05]}},{"type":"Feature","properties":{"country_en":"Austria","name":"Stein an der Enns","name_adm0":"Österreich","name_adm1":"Steiermark","name_adm2":"Liezen","name_en":"Stein","iso":"AT"},"geometry":{"type":"Point","coordinates":[13.93333,47.43333]}},{"type":"Feature","properties":{"country_en":"Austria","name":"Tober","name_adm0":"Österreich","name_adm1":"Steiermark","name_adm2":"Weiz","name_en":"Tober","iso":"AT"},"geometry":{"type":"Point","coordinates":[15.483329999999999,47.28333]}},{"type":"Feature","properties":{"country_en":"Austria","name":"Unterpurkla","name_adm0":"Österreich","name_adm1":"Steiermark","name_adm2":"Radkersburg","name_en":"Unterpurkla","iso":"AT"},"geometry":{"type":"Point","coordinates":[15.907779999999999,46.73389]}},{"type":"Feature","properties":{"country_en":"Austria","name":"Weinzettel","name_adm0":"Österreich","name_adm1":"Steiermark","name_adm2":"Graz-Umgebung","name_en":"Weinzettl","iso":"AT"},"geometry":{"type":"Point","coordinates":[15.33333,46.93333]}},{"type":"Feature","properties":{"country_en":"Austria","name":"Unterburg","name_adm0":"Österreich","name_adm1":"Steiermark","name_adm2":"Liezen","name_en":"Unterburg","iso":"AT"},"geometry":{"type":"Point","coordinates":[14.074949999999998,47.52769]}},{"type":"Feature","properties":{"country_en":"Austria","name":"Auland","name_adm0":"Österreich","name_adm1":"Tirol","name_adm2":"Innsbruck-Land","name_en":"Auland","iso":"AT"},"geometry":{"type":"Point","coordinates":[11.2,47.31667]}},{"type":"Feature","properties":{"country_en":"Austria","name":"Durchholzen","name_adm0":"Österreich","name_adm1":"Tirol","name_adm2":"Kufstein","name_en":"Durchholzen","iso":"AT"},"geometry":{"type":"Point","coordinates":[12.28333,47.63333]}},{"type":"Feature","properties":{"country_en":"Austria","name":"Iselsberg","name_adm0":"Österreich","name_adm1":"Tirol","name_adm2":"Lienz","name_en":"Iselsberg","iso":"AT"},"geometry":{"type":"Point","coordinates":[12.849439999999998,46.83806]}},{"type":"Feature","properties":{"country_en":"Austria","name":"Krößbach","name_adm0":"Österreich","name_adm1":"Tirol","name_adm2":"Innsbruck-Land","name_en":"Krößbach","iso":"AT"},"geometry":{"type":"Point","coordinates":[11.28333,47.08333]}},{"type":"Feature","properties":{"country_en":"Austria","name":"Hart im Zillertal","name_adm0":"Österreich","name_adm1":"Tirol","name_adm2":"Schwaz","name_en":"Hart","iso":"AT"},"geometry":{"type":"Point","coordinates":[11.87201,47.35231999999999]}},{"type":"Feature","properties":{"country_en":"Austria","name":"Lehn","name_adm0":"Österreich","name_adm1":"Tirol","name_adm2":"Imst","name_en":"Lehn","iso":"AT"},"geometry":{"type":"Point","coordinates":[10.95,47.08333]}},{"type":"Feature","properties":{"country_en":"Austria","name":"Lähn","name_adm0":"Österreich","name_adm1":"Tirol","name_adm2":"Reutte","name_en":"Lähn","iso":"AT"},"geometry":{"type":"Point","coordinates":[10.83333,47.41667]}},{"type":"Feature","properties":{"country_en":"Austria","name":"Niederhart","name_adm0":"Österreich","name_adm1":"Tirol","name_adm2":"Schwaz","name_en":"Niederhart","iso":"AT"},"geometry":{"type":"Point","coordinates":[11.86667,47.35]}},{"type":"Feature","properties":{"country_en":"Austria","name":"Oberletzen","name_adm0":"Österreich","name_adm1":"Tirol","name_adm2":"Reutte","name_en":"Oberletzen","iso":"AT"},"geometry":{"type":"Point","coordinates":[10.7,47.51667]}},{"type":"Feature","properties":{"country_en":"Austria","name":"Unterleins","name_adm0":"Österreich","name_adm1":"Tirol","name_adm2":"Imst","name_en":"Leins","iso":"AT"},"geometry":{"type":"Point","coordinates":[10.75,47.18333]}},{"type":"Feature","properties":{"country_en":"Austria","name":"Stadl an der Mur","name_adm0":"Österreich","name_adm1":"Steiermark","name_adm2":"Murau","name_en":"Stadl an der Mur","iso":"AT"},"geometry":{"type":"Point","coordinates":[13.96667,47.08333]}},{"type":"Feature","properties":{"country_en":"Austria","name":"Uttenhofen","name_adm0":"Österreich","name_adm1":"Salzburg","name_adm2":"Zell am See","name_en":"Uttenhofen","iso":"AT"},"geometry":{"type":"Point","coordinates":[12.63406,48.25988]}},{"type":"Feature","properties":{"country_en":"Austria","name":"Schmieding","name_adm0":"Österreich","name_adm1":"Salzburg","name_adm2":"Zell am See","name_en":"Schmieding","iso":"AT"},"geometry":{"type":"Point","coordinates":[13.01139,47.88861]}},{"type":"Feature","properties":{"country_en":"Austria","name":"Offensee","name_adm0":"Österreich","name_adm1":"Oberösterreich","name_adm2":"Gmunden","name_en":"Offensee","iso":"AT"},"geometry":{"type":"Point","coordinates":[13.838481,47.753059]}},{"type":"Feature","properties":{"country_en":"Austria","name":"Iselsberg-stronach","name_adm0":"Österreich","name_adm1":"Tirol","name_adm2":"Lienz","name_en":"Iselsberg-stronach","iso":"AT"},"geometry":{"type":"Point","coordinates":[12.85142,46.85719]}},{"type":"Feature","properties":{"country_en":"Austria","name":"Kirchberg Linak","name_adm0":"Österreich","name_adm1":"Steiermark","name_adm2":"Graz-Umgebung","name_en":"Kirchberg Linak","iso":"AT"},"geometry":{"type":"Point","coordinates":[15.367254999999998,47.069902]}},{"type":"Feature","properties":{"country_en":"Austria","name":"Rohrmoos-untertal","name_adm0":"Österreich","name_adm1":"Steiermark","name_adm2":"Liezen","name_en":"Rohrmoos-untertal","iso":"AT"},"geometry":{"type":"Point","coordinates":[13.672227,47.383647999999994]}},{"type":"Feature","properties":{"country_en":"Austria","name":"Tirol","name_adm0":"Österreich","name_adm1":"Tirol","name_en":"Tyrol","iso":"AT"},"geometry":{"type":"Point","coordinates":[11.33333,47.25]}},{"type":"Feature","properties":{"country_en":"Austria","name":"Urfahr","name_adm0":"Österreich","name_adm1":"Oberösterreich","name_adm2":"Linz Stadt","name_en":"Urfahr","iso":"AT"},"geometry":{"type":"Point","coordinates":[14.266669999999998,48.316669999999995]}},{"type":"Feature","properties":{"country_en":"Austria","name":"Elixhausen","name_adm0":"Österreich","name_adm1":"Salzburg","name_adm2":"Salzburg-Umgebung","name_en":"Elixhausen","iso":"AT"},"geometry":{"type":"Point","coordinates":[12.692399999999997,47.90053]}},{"type":"Feature","properties":{"country_en":"Austria","name":"Forstau","name_adm0":"Österreich","name_adm1":"Salzburg","name_adm2":"Skt. Johann im Pongau","name_en":"Forstau","iso":"AT"},"geometry":{"type":"Point","coordinates":[14.266669999999998,47.93333]}},{"type":"Feature","properties":{"country_en":"Austria","name":"Oberschoderlee","name_adm0":"Österreich","name_adm1":"Niederösterreich","name_adm2":"Mistelbach","name_en":"Oberschoderlee","iso":"AT"},"geometry":{"type":"Point","coordinates":[16.33389,48.648059999999994]}},{"type":"Feature","properties":{"country_en":"Austria","name":"Pfaffendorf","name_adm0":"Österreich","name_adm1":"Oberösterreich","name_adm2":"Wels-Land","name_en":"Pfaffendorf","iso":"AT"},"geometry":{"type":"Point","coordinates":[13.91719,48.192069999999994]}},{"type":"Feature","properties":{"country_en":"Austria","name":"Pfannberg","name_adm0":"Österreich","name_adm1":"Steiermark","name_adm2":"Graz-Umgebung","name_en":"Pfannberg","iso":"AT"},"geometry":{"type":"Point","coordinates":[15.349999999999998,47.25]}},{"type":"Feature","properties":{"country_en":"Austria","name":"Völkendorf","name_adm0":"Österreich","name_adm1":"Kärnten","name_adm2":"Villach Stadt","name_en":"Völkendorf","iso":"AT"},"geometry":{"type":"Point","coordinates":[13.833329999999998,46.61667]}},{"type":"Feature","properties":{"country_en":"Austria","name":"Aichereben","name_adm0":"Österreich","name_adm1":"Oberösterreich","name_adm2":"Vöcklabruck","name_en":"Aichereben","iso":"AT"},"geometry":{"type":"Point","coordinates":[13.49748,47.84404]}},{"type":"Feature","properties":{"country_en":"Austria","name":"Lilienfeld","name_adm0":"Österreich","name_adm1":"Niederösterreich","name_adm2":"Lilienfeld","name_en":"Lilienfeld","iso":"AT"},"geometry":{"type":"Point","coordinates":[15.58722,47.9939]}},{"type":"Feature","properties":{"country_en":"Austria","name":"Gallneukirchen","name_adm0":"Österreich","name_adm1":"Oberösterreich","name_adm2":"Urfahr-Umgebung","name_en":"Gallneukirchen","iso":"AT"},"geometry":{"type":"Point","coordinates":[14.416039999999999,48.353629999999995]}},{"type":"Feature","properties":{"country_en":"Austria","name":"Rauris","name_adm0":"Österreich","name_adm1":"Salzburg","name_adm2":"Zell am See","name_en":"Rauris","iso":"AT"},"geometry":{"type":"Point","coordinates":[12.99459,47.22656]}},{"type":"Feature","properties":{"country_en":"Austria","name":"Zell am See","name_adm0":"Österreich","name_adm1":"Salzburg","name_adm2":"Zell am See","name_en":"Zell am See","iso":"AT"},"geometry":{"type":"Point","coordinates":[12.8185,47.32489]}},{"type":"Feature","properties":{"country_en":"Austria","name":"Zeltweg","name_adm0":"Österreich","name_adm1":"Steiermark","name_adm2":"Judenburg","name_en":"Zeltweg","iso":"AT"},"geometry":{"type":"Point","coordinates":[14.749999999999998,47.18333]}},{"type":"Feature","properties":{"country_en":"Austria","name":"Kitzeck im Sausal","name_adm0":"Österreich","name_adm1":"Steiermark","name_adm2":"Leibnitz","name_en":"Kitzeck im Sausal","iso":"AT"},"geometry":{"type":"Point","coordinates":[15.45524,46.77931999999999]}},{"type":"Feature","properties":{"country_en":"Austria","name":"Spielberg bei Knittelfeld","name_adm0":"Österreich","name_adm1":"Steiermark","name_adm2":"Knittelfeld","name_en":"Spielberg bei Knittelfeld","iso":"AT"},"geometry":{"type":"Point","coordinates":[14.78333,47.21666999999999]}},{"type":"Feature","properties":{"country_en":"Austria","name":"Schwendau","name_adm0":"Österreich","name_adm1":"Tirol","name_adm2":"Schwaz","name_en":"Schwendau","iso":"AT"},"geometry":{"type":"Point","coordinates":[11.820859999999998,47.18524]}},{"type":"Feature","properties":{"country_en":"Austria","name":"Riezlern","name_adm0":"Österreich","name_adm1":"Vorarlberg","name_adm2":"Bregenz","name_en":"Kirche","iso":"AT"},"geometry":{"type":"Point","coordinates":[10.18227,47.35051]}},{"type":"Feature","properties":{"country_en":"Austria","name":"Loipersdorf bei Fürstenfeld","name_adm0":"Österreich","name_adm1":"Steiermark","name_adm2":"Fürstenfeld","name_en":"Loipersdorf bei Fürstenfeld","iso":"AT"},"geometry":{"type":"Point","coordinates":[16.099999999999998,47]}},{"type":"Feature","properties":{"country_en":"Austria","name":"Grimmenstein","name_adm0":"Österreich","name_adm1":"Niederösterreich","name_adm2":"Neunkirchen","name_en":"Grimmenstein","iso":"AT"},"geometry":{"type":"Point","coordinates":[16.13333,47.61667]}},{"type":"Feature","properties":{"country_en":"Austria","name":"Falkenstein","name_adm0":"Österreich","name_adm1":"Niederösterreich","name_adm2":"Mistelbach","name_en":"Falkenstein","iso":"AT"},"geometry":{"type":"Point","coordinates":[16.58333,48.71667]}},{"type":"Feature","properties":{"country_en":"Austria","name":"Litschau","name_adm0":"Österreich","name_adm1":"Niederösterreich","name_adm2":"Gmünd","name_en":"Litschau","iso":"AT"},"geometry":{"type":"Point","coordinates":[15.05,48.93333]}},{"type":"Feature","properties":{"country_en":"Austria","name":"Schrattenthal","name_adm0":"Österreich","name_adm1":"Niederösterreich","name_adm2":"Hollabrunn","name_en":"Schrattenthal","iso":"AT"},"geometry":{"type":"Point","coordinates":[15.899999999999999,48.7]}},{"type":"Feature","properties":{"country_en":"Austria","name":"Waidhofen an der Ybbs","name_adm0":"Österreich","name_adm1":"Niederösterreich","name_adm2":"Waidhofen an der Ybbs Stadt","name_en":"Waidhofen an der Ybbs","iso":"AT"},"geometry":{"type":"Point","coordinates":[14.77996,47.9563]}},{"type":"Feature","properties":{"country_en":"Austria","name":"Hellmonsödt","name_adm0":"Österreich","name_adm1":"Oberösterreich","name_adm2":"Urfahr-Umgebung","name_en":"Hellmonsödt","iso":"AT"},"geometry":{"type":"Point","coordinates":[14.3,48.43333]}},{"type":"Feature","properties":{"country_en":"Austria","name":"Herzogsdorf","name_adm0":"Österreich","name_adm1":"Oberösterreich","name_adm2":"Urfahr-Umgebung","name_en":"Herzogsdorf","iso":"AT"},"geometry":{"type":"Point","coordinates":[14.1128,48.43011]}},{"type":"Feature","properties":{"country_en":"Austria","name":"Pennewang","name_adm0":"Österreich","name_adm1":"Oberösterreich","name_adm2":"Wels-Land","name_en":"Pennewang","iso":"AT"},"geometry":{"type":"Point","coordinates":[13.85447,48.12948]}},{"type":"Feature","properties":{"country_en":"Austria","name":"Gmunden","name_adm0":"Österreich","name_adm1":"Oberösterreich","name_adm2":"Gmunden","name_en":"Gmunden","iso":"AT"},"geometry":{"type":"Point","coordinates":[13.79909,47.919219999999996]}},{"type":"Feature","properties":{"country_en":"Austria","name":"Grieskirchen","name_adm0":"Österreich","name_adm1":"Oberösterreich","name_adm2":"Grieskirchen","name_en":"Grieskirchen","iso":"AT"},"geometry":{"type":"Point","coordinates":[13.82792,48.23359]}},{"type":"Feature","properties":{"country_en":"Austria","name":"Freistadt","name_adm0":"Österreich","name_adm1":"Oberösterreich","name_adm2":"Freistadt","name_en":"Freistadt","iso":"AT"},"geometry":{"type":"Point","coordinates":[14.501440000000002,48.50398]}},{"type":"Feature","properties":{"country_en":"Austria","name":"St. Lorenz","name_adm0":"Österreich","name_adm1":"Oberösterreich","name_adm2":"Vöcklabruck","name_en":"St. Lorenz","iso":"AT"},"geometry":{"type":"Point","coordinates":[13.36667,47.816669999999995]}},{"type":"Feature","properties":{"country_en":"Austria","name":"Wolfsegg am Hausruck","name_adm0":"Österreich","name_adm1":"Oberösterreich","name_adm2":"Vöcklabruck","name_en":"Wolfsegg am Hausruck","iso":"AT"},"geometry":{"type":"Point","coordinates":[13.672739999999997,48.10669]}},{"type":"Feature","properties":{"country_en":"Austria","name":"St. Ruprecht an der Raab","name_adm0":"Österreich","name_adm1":"Steiermark","name_adm2":"Weiz","name_en":"St. Ruprecht an der Raab","iso":"AT"},"geometry":{"type":"Point","coordinates":[15.662560000000001,47.15336]}},{"type":"Feature","properties":{"country_en":"Austria","name":"Seggauberg","name_adm0":"Österreich","name_adm1":"Steiermark","name_adm2":"Leibnitz","name_en":"Seggauberg","iso":"AT"},"geometry":{"type":"Point","coordinates":[15.524,46.758129999999994]}},{"type":"Feature","properties":{"country_en":"Austria","name":"Vorderlanersbach","name_adm0":"Österreich","name_adm1":"Tirol","name_adm2":"Schwaz","name_en":"Vorderlanersbach","iso":"AT"},"geometry":{"type":"Point","coordinates":[11.74353,47.16223]}},{"type":"Feature","properties":{"country_en":"Austria","name":"Ramsau","name_adm0":"Österreich","name_adm1":"Steiermark","name_adm2":"Liezen","name_en":"Ramsau am Dachstein","iso":"AT"},"geometry":{"type":"Point","coordinates":[13.65545,47.4215]}},{"type":"Feature","properties":{"country_en":"Austria","name":"Reisenberg","name_adm0":"Österreich","name_adm1":"Niederösterreich","name_adm2":"Baden","name_en":"Reisenberg","iso":"AT"},"geometry":{"type":"Point","coordinates":[15.483329999999999,48.58333]}},{"type":"Feature","properties":{"country_en":"Austria","name":"Hirschwang","name_adm0":"Österreich","name_adm1":"Niederösterreich","name_adm2":"Neunkirchen","name_en":"Hirschwang an der Rax","iso":"AT"},"geometry":{"type":"Point","coordinates":[15.81139,47.70526]}},{"type":"Feature","properties":{"country_en":"Austria","name":"Maria Ellend","name_adm0":"Österreich","name_adm1":"Niederösterreich","name_adm2":"Bruck an der Leitha","name_en":"Maria Ellend","iso":"AT"},"geometry":{"type":"Point","coordinates":[16.68333,48.1]}},{"type":"Feature","properties":{"country_en":"Austria","name":"Yspertal","name_adm0":"Österreich","name_adm1":"Niederösterreich","name_adm2":"Melk","name_en":"Yspertal","iso":"AT"},"geometry":{"type":"Point","coordinates":[15.059831,48.34309999999999]}},{"type":"Feature","properties":{"country_en":"Austria","name":"Trimmelkam","name_adm0":"Österreich","name_adm1":"Oberösterreich","name_adm2":"Braunau am Inn","name_en":"Trimmelkamm","iso":"AT"},"geometry":{"type":"Point","coordinates":[12.86667,48.03333]}},{"type":"Feature","properties":{"country_en":"Austria","name":"Neuhofen","name_adm0":"Österreich","name_adm1":"Salzburg","name_adm2":"Salzburg-Umgebung","name_en":"Neuhofen","iso":"AT"},"geometry":{"type":"Point","coordinates":[13.17862,47.85533]}},{"type":"Feature","properties":{"country_en":"Austria","name":"Seekirchen Markt","name_adm0":"Österreich","name_adm1":"Salzburg","name_adm2":"Salzburg-Umgebung","name_en":"Seekirchen","iso":"AT"},"geometry":{"type":"Point","coordinates":[13.142502,47.903843]}},{"type":"Feature","properties":{"country_en":"Austria","name":"St. Nikolai im Sölktal","name_adm0":"Österreich","name_adm1":"Steiermark","name_adm2":"Liezen","name_en":"Skt Nikolai","iso":"AT"},"geometry":{"type":"Point","coordinates":[14.055762,47.311413]}},{"type":"Feature","properties":{"country_en":"Austria","name":"Rosenau","name_adm0":"Österreich","name_adm1":"Niederösterreich","name_adm2":"Amstetten","name_en":"Rosenau am Sonntagberg","iso":"AT"},"geometry":{"type":"Point","coordinates":[14.73927,48.00778]}},{"type":"Feature","properties":{"country_en":"Austria","name":"Rustenfeld","name_adm0":"Österreich","name_adm1":"Niederösterreich","name_adm2":"Wien-Umgebung","name_en":"Rustenfeld","iso":"AT"},"geometry":{"type":"Point","coordinates":[16.39111,48.11806]}},{"type":"Feature","properties":{"country_en":"Austria","name":"Gmundnerberg","name_adm0":"Österreich","name_adm1":"Oberösterreich","name_adm2":"Gmunden","name_en":"Gmundnerberg","iso":"AT"},"geometry":{"type":"Point","coordinates":[13.74475,47.90898]}},{"type":"Feature","properties":{"country_en":"Austria","name":"Schwelzer-Siedlung","name_adm0":"Österreich","name_adm1":"Salzburg","name_adm2":"Salzburg-Umgebung","name_en":"Schweizersiedlung","iso":"AT"},"geometry":{"type":"Point","coordinates":[12.993059999999998,47.77611]}},{"type":"Feature","properties":{"country_en":"Austria","name":"Loig","name_adm0":"Österreich","name_adm1":"Salzburg","name_adm2":"Salzburg-Umgebung","name_en":"Loig","iso":"AT"},"geometry":{"type":"Point","coordinates":[12.99694,47.78806]}},{"type":"Feature","properties":{"country_en":"Austria","name":"Mils bei Solbad Hall","name_adm0":"Österreich","name_adm1":"Tirol","name_adm2":"Innsbruck-Land","name_en":"Mils","iso":"AT"},"geometry":{"type":"Point","coordinates":[11.53333,47.28333]}},{"type":"Feature","properties":{"country_en":"Austria","name":"Stans","name_adm0":"Österreich","name_adm1":"Tirol","name_adm2":"Schwaz","name_en":"Stans","iso":"AT"},"geometry":{"type":"Point","coordinates":[11.71667,47.36667]}},{"type":"Feature","properties":{"country_en":"Austria","name":"Luising","name_adm0":"Österreich","name_adm1":"Burgenland","name_adm2":"Güssing","name_en":"Luising","iso":"AT"},"geometry":{"type":"Point","coordinates":[16.48333,47.01667]}},{"type":"Feature","properties":{"country_en":"Austria","name":"St. Martin am Silberberg","name_adm0":"Österreich","name_adm1":"Kärnten","name_adm2":"Skt. Veit an der Glan","name_en":"Skt Martin","iso":"AT"},"geometry":{"type":"Point","coordinates":[14.547219999999998,46.98694]}},{"type":"Feature","properties":{"country_en":"Austria","name":"Lehen","name_adm0":"Österreich","name_adm1":"Niederösterreich","name_adm2":"Melk","name_en":"Lehen","iso":"AT"},"geometry":{"type":"Point","coordinates":[15.26413,48.22999]}},{"type":"Feature","properties":{"country_en":"Austria","name":"Lichteck","name_adm0":"Österreich","name_adm1":"Niederösterreich","name_adm2":"Zwettl","name_en":"Lichteck","iso":"AT"},"geometry":{"type":"Point","coordinates":[15.05,48.41667]}},{"type":"Feature","properties":{"country_en":"Austria","name":"Ybbs an der Donau","name_adm0":"Österreich","name_adm1":"Niederösterreich","name_adm2":"Melk","name_en":"Ybbs an der Donau","iso":"AT"},"geometry":{"type":"Point","coordinates":[15.085068999999999,48.17712]}},{"type":"Feature","properties":{"country_en":"Austria","name":"Marbach an der Donau","name_adm0":"Österreich","name_adm1":"Niederösterreich","name_adm2":"Melk","name_en":"Marbach an der Donau","iso":"AT"},"geometry":{"type":"Point","coordinates":[15.148943999999998,48.214235]}},{"type":"Feature","properties":{"country_en":"Austria","name":"St. Oswald","name_adm0":"Österreich","name_adm1":"Oberösterreich","name_adm2":"Freistadt","name_en":"St. Oswald","iso":"AT"},"geometry":{"type":"Point","coordinates":[15.03333,48.26667]}},{"type":"Feature","properties":{"country_en":"Austria","name":"Lasaberg","name_adm0":"Österreich","name_adm1":"Salzburg","name_adm2":"Tamsweg","name_en":"Lasaberg","iso":"AT"},"geometry":{"type":"Point","coordinates":[13.833329999999998,47.099999999999994]}},{"type":"Feature","properties":{"country_en":"Austria","name":"Erlsberg","name_adm0":"Österreich","name_adm1":"Steiermark","name_adm2":"Liezen","name_en":"Erlsberg","iso":"AT"},"geometry":{"type":"Point","coordinates":[14.13333,47.46667]}},{"type":"Feature","properties":{"country_en":"Austria","name":"Jenbach","name_adm0":"Österreich","name_adm1":"Tirol","name_adm2":"Schwaz","name_en":"Jenbach","iso":"AT"},"geometry":{"type":"Point","coordinates":[11.77245,47.39173]}},{"type":"Feature","properties":{"country_en":"Austria","name":"Forchtenstein","name_adm0":"Österreich","name_adm1":"Burgenland","name_adm2":"Mattersburg","name_en":"Forchtenstein","iso":"AT"},"geometry":{"type":"Point","coordinates":[16.34525,47.71160999999999]}},{"type":"Feature","properties":{"country_en":"Austria","name":"Lüsens","name_adm0":"Österreich","name_adm1":"Tirol","name_adm2":"Innsbruck-Land","name_en":"Lüsens","iso":"AT"},"geometry":{"type":"Point","coordinates":[11.13333,47.13333]}},{"type":"Feature","properties":{"country_en":"Austria","name":"Salzburg","name_adm0":"Österreich","name_adm1":"Salzburg","name_adm2":"Salzburg Stadt","name_en":"Salzburg","iso":"AT"},"geometry":{"type":"Point","coordinates":[13.045443,47.79873299999999]}},{"type":"Feature","properties":{"country_en":"Austria","name":"Hardegg","name_adm0":"Österreich","name_adm1":"Niederösterreich","name_adm2":"Hollabrunn","name_en":"Hardegg","iso":"AT"},"geometry":{"type":"Point","coordinates":[15.85,48.85]}},{"type":"Feature","properties":{"country_en":"Austria","name":"Redlham","name_adm0":"Österreich","name_adm1":"Oberösterreich","name_adm2":"Vöcklabruck","name_en":"Redlham","iso":"AT"},"geometry":{"type":"Point","coordinates":[13.73333,48.01667]}},{"type":"Feature","properties":{"country_en":"Austria","name":"Gösseling","name_adm0":"Österreich","name_adm1":"Kärnten","name_adm2":"Klagenfurt Stadt","name_en":"Gösseling","iso":"AT"},"geometry":{"type":"Point","coordinates":[14.483330000000002,46.76666999999999]}},{"type":"Feature","properties":{"country_en":"Austria","name":"Neustift im Mühlkreis","name_adm0":"Österreich","name_adm1":"Oberösterreich","name_adm2":"Rohrbach","name_en":"Neustift im Mühlkreis","iso":"AT"},"geometry":{"type":"Point","coordinates":[13.756429999999998,48.52882999999999]}},{"type":"Feature","properties":{"country_en":"Austria","name":"Scheibbs","name_adm0":"Österreich","name_adm1":"Niederösterreich","name_adm2":"Scheibbs","name_en":"Scheibbs","iso":"AT"},"geometry":{"type":"Point","coordinates":[15.16817,48.00473999999999]}},{"type":"Feature","properties":{"country_en":"Austria","name":"Gupf","name_adm0":"Österreich","name_adm1":"Kärnten","name_adm2":"Klagenfurt Land","name_en":"Gupf","iso":"AT"},"geometry":{"type":"Point","coordinates":[14.38333,46.51667]}},{"type":"Feature","properties":{"country_en":"Austria","name":"Wartberg ob der Aist","name_adm0":"Österreich","name_adm1":"Oberösterreich","name_adm2":"Freistadt","name_en":"Wartberg ob der Aist","iso":"AT"},"geometry":{"type":"Point","coordinates":[14.518405,48.34006999999999]}},{"type":"Feature","properties":{"country_en":"Austria","name":"Weißenkirchen im Attergau","name_adm0":"Österreich","name_adm1":"Oberösterreich","name_adm2":"Vöcklabruck","name_en":"Weißenkirchen im Attergau","iso":"AT"},"geometry":{"type":"Point","coordinates":[13.3991785,47.967767]}},{"type":"Feature","properties":{"country_en":"Austria","name":"Miedlingsdorf","name_adm0":"Österreich","name_adm1":"Burgenland","name_adm2":"Oberwart","name_en":"Miedlingsdorf","iso":"AT"},"geometry":{"type":"Point","coordinates":[16.31667,47.26666999999999]}},{"type":"Feature","properties":{"country_en":"Austria","name":"Buchhalm","name_adm0":"Österreich","name_adm1":"Kärnten","name_adm2":"Völkermarkt","name_en":"Buchhalm","iso":"AT"},"geometry":{"type":"Point","coordinates":[14.640559999999999,46.60639]}},{"type":"Feature","properties":{"country_en":"Austria","name":"Buchheim","name_adm0":"Österreich","name_adm1":"Kärnten","name_adm2":"Villach Land","name_en":"Buchheim","iso":"AT"},"geometry":{"type":"Point","coordinates":[13.99361,46.56917]}},{"type":"Feature","properties":{"country_en":"Austria","name":"Buchholz","name_adm0":"Österreich","name_adm1":"Kärnten","name_adm2":"Villach Land","name_en":"Buchholz","iso":"AT"},"geometry":{"type":"Point","coordinates":[13.855,46.703889999999994]}},{"type":"Feature","properties":{"country_en":"Austria","name":"Althodis","name_adm0":"Österreich","name_adm1":"Burgenland","name_adm2":"Oberwart","name_en":"Althodis","iso":"AT"},"geometry":{"type":"Point","coordinates":[16.37675,47.31421]}},{"type":"Feature","properties":{"country_en":"Austria","name":"Dobersdorf","name_adm0":"Österreich","name_adm1":"Burgenland","name_adm2":"Jennersdorf","name_en":"Dobersdorf","iso":"AT"},"geometry":{"type":"Point","coordinates":[16.13333,47.01667]}},{"type":"Feature","properties":{"country_en":"Austria","name":"Agsdorf","name_adm0":"Österreich","name_adm1":"Kärnten","name_adm2":"Feldkirchen","name_en":"Agsdorf","iso":"AT"},"geometry":{"type":"Point","coordinates":[14.15,46.73333]}},{"type":"Feature","properties":{"country_en":"Austria","name":"Innerfragant","name_adm0":"Österreich","name_adm1":"Kärnten","name_adm2":"Spittal an der Drau","name_en":"Innerfragant","iso":"AT"},"geometry":{"type":"Point","coordinates":[13.05833,46.96528]}},{"type":"Feature","properties":{"country_en":"Austria","name":"Kaltschach","name_adm0":"Österreich","name_adm1":"Kärnten","name_adm2":"Villach Land","name_en":"Kaltschach","iso":"AT"},"geometry":{"type":"Point","coordinates":[13.95,46.61667]}},{"type":"Feature","properties":{"country_en":"Austria","name":"Ludmannsdorf","name_adm0":"Österreich","name_adm1":"Kärnten","name_adm2":"Klagenfurt Land","name_en":"Ludmannsdorf","iso":"AT"},"geometry":{"type":"Point","coordinates":[14.06667,47.099999999999994]}},{"type":"Feature","properties":{"country_en":"Austria","name":"Mallenitzen","name_adm0":"Österreich","name_adm1":"Kärnten","name_adm2":"Villach Land","name_en":"Mallenitzen","iso":"AT"},"geometry":{"type":"Point","coordinates":[13.987779999999999,46.54917]}},{"type":"Feature","properties":{"country_en":"Austria","name":"Kamp","name_adm0":"Österreich","name_adm1":"Kärnten","name_adm2":"Wolfsberg","name_en":"Kamp","iso":"AT"},"geometry":{"type":"Point","coordinates":[14.92194,46.88444]}},{"type":"Feature","properties":{"country_en":"Austria","name":"Oberberg","name_adm0":"Österreich","name_adm1":"Kärnten","name_adm2":"Spittal an der Drau","name_en":"Oberberg","iso":"AT"},"geometry":{"type":"Point","coordinates":[13.11667,46.76666999999999]}},{"type":"Feature","properties":{"country_en":"Austria","name":"Kleindiex","name_adm0":"Österreich","name_adm1":"Kärnten","name_adm2":"Völkermarkt","name_en":"Kleindiex","iso":"AT"},"geometry":{"type":"Point","coordinates":[14.733329999999999,46.63333]}},{"type":"Feature","properties":{"country_en":"Austria","name":"Reinfelsdorf","name_adm0":"Österreich","name_adm1":"Kärnten","name_adm2":"Wolfsberg","name_en":"Reinfelsdorf","iso":"AT"},"geometry":{"type":"Point","coordinates":[14.81667,46.81667]}},{"type":"Feature","properties":{"country_en":"Austria","name":"Remschenig","name_adm0":"Österreich","name_adm1":"Kärnten","name_adm2":"Völkermarkt","name_en":"Remschenig","iso":"AT"},"geometry":{"type":"Point","coordinates":[14.63333,46.46667]}},{"type":"Feature","properties":{"country_en":"Austria","name":"Reßnig","name_adm0":"Österreich","name_adm1":"Kärnten","name_adm2":"Klagenfurt Land","name_en":"Reßnig","iso":"AT"},"geometry":{"type":"Point","coordinates":[14.28333,46.53333]}},{"type":"Feature","properties":{"country_en":"Austria","name":"Rottenstein","name_adm0":"Österreich","name_adm1":"Kärnten","name_adm2":"Klagenfurt Land","name_en":"Rottenstein","iso":"AT"},"geometry":{"type":"Point","coordinates":[14.41667,46.56667]}},{"type":"Feature","properties":{"country_en":"Austria","name":"Ruden","name_adm0":"Österreich","name_adm1":"Kärnten","name_adm2":"Völkermarkt","name_en":"Ruden","iso":"AT"},"geometry":{"type":"Point","coordinates":[15.58333,46.983329999999995]}},{"type":"Feature","properties":{"country_en":"Austria","name":"St. Johann im Rosental","name_adm0":"Österreich","name_adm1":"Kärnten","name_adm2":"Klagenfurt Land","name_en":"Skt Johann","iso":"AT"},"geometry":{"type":"Point","coordinates":[14.2,46.53333]}},{"type":"Feature","properties":{"country_en":"Austria","name":"Weissberg","name_adm0":"Österreich","name_adm1":"Kärnten","name_adm2":"Skt. Veit an der Glan","name_en":"Weisberg","iso":"AT"},"geometry":{"type":"Point","coordinates":[14.10778,46.90028]}},{"type":"Feature","properties":{"country_en":"Austria","name":"Mösern","name_adm0":"Österreich","name_adm1":"Kärnten","name_adm2":"Wolfsberg","name_en":"Mösern","iso":"AT"},"geometry":{"type":"Point","coordinates":[14.866669999999997,46.76666999999999]}},{"type":"Feature","properties":{"country_en":"Austria","name":"Winkl","name_adm0":"Österreich","name_adm1":"Kärnten","name_adm2":"Villach Land","name_en":"Winkl","iso":"AT"},"geometry":{"type":"Point","coordinates":[14.01667,46.55]}},{"type":"Feature","properties":{"country_en":"Austria","name":"Zojach","name_adm0":"Österreich","name_adm1":"Kärnten","name_adm2":"Skt. Veit an der Glan","name_en":"Zojach","iso":"AT"},"geometry":{"type":"Point","coordinates":[14.21667,46.78333]}},{"type":"Feature","properties":{"country_en":"Austria","name":"Allentsteig","name_adm0":"Österreich","name_adm1":"Niederösterreich","name_adm2":"Zwettl","name_en":"Allentsteig","iso":"AT"},"geometry":{"type":"Point","coordinates":[15.33333,47.73333]}},{"type":"Feature","properties":{"country_en":"Austria","name":"Allhang","name_adm0":"Österreich","name_adm1":"Niederösterreich","name_adm2":"Wien-Umgebung","name_en":"Allhang","iso":"AT"},"geometry":{"type":"Point","coordinates":[16.13565,48.2416]}},{"type":"Feature","properties":{"country_en":"Austria","name":"Aschelberg","name_adm0":"Österreich","name_adm1":"Niederösterreich","name_adm2":"Melk","name_en":"Aschelberg","iso":"AT"},"geometry":{"type":"Point","coordinates":[15.2,48.33333]}},{"type":"Feature","properties":{"country_en":"Austria","name":"Asperhofen","name_adm0":"Österreich","name_adm1":"Niederösterreich","name_adm2":"Skt. Pölten Land","name_en":"Asperhofen","iso":"AT"},"geometry":{"type":"Point","coordinates":[16.266669999999998,48.71667]}},{"type":"Feature","properties":{"country_en":"Austria","name":"Pogöriach","name_adm0":"Österreich","name_adm1":"Kärnten","name_adm2":"Villach Land","name_en":"Pogöriach","iso":"AT"},"geometry":{"type":"Point","coordinates":[13.9,46.55]}},{"type":"Feature","properties":{"country_en":"Austria","name":"Pogöriach","name_adm0":"Österreich","name_adm1":"Kärnten","name_adm2":"Villach Land","name_en":"Pogöriach","iso":"AT"},"geometry":{"type":"Point","coordinates":[13.65611,46.68861]}},{"type":"Feature","properties":{"country_en":"Austria","name":"Bruck am Ostrong","name_adm0":"Österreich","name_adm1":"Niederösterreich","name_adm2":"Melk","name_en":"Bruck","iso":"AT"},"geometry":{"type":"Point","coordinates":[15.166669999999998,48.28333]}},{"type":"Feature","properties":{"country_en":"Austria","name":"Etzelsreith","name_adm0":"Österreich","name_adm1":"Niederösterreich","name_adm2":"Horn","name_en":"Etzelsreith","iso":"AT"},"geometry":{"type":"Point","coordinates":[15.6,48.74999999999999]}},{"type":"Feature","properties":{"country_en":"Austria","name":"Etzen","name_adm0":"Österreich","name_adm1":"Niederösterreich","name_adm2":"Zwettl","name_en":"Etzen","iso":"AT"},"geometry":{"type":"Point","coordinates":[15.03333,48.56667]}},{"type":"Feature","properties":{"country_en":"Austria","name":"St. Marxen","name_adm0":"Österreich","name_adm1":"Kärnten","name_adm2":"Völkermarkt","name_en":"St. Marxen","iso":"AT"},"geometry":{"type":"Point","coordinates":[14.616669999999997,46.63333]}},{"type":"Feature","properties":{"country_en":"Austria","name":"Gallbrunn","name_adm0":"Österreich","name_adm1":"Niederösterreich","name_adm2":"Bruck an der Leitha","name_en":"Gallbrunn","iso":"AT"},"geometry":{"type":"Point","coordinates":[16.63333,48.05]}},{"type":"Feature","properties":{"country_en":"Austria","name":"Garmanns","name_adm0":"Österreich","name_adm1":"Niederösterreich","name_adm2":"Mistelbach","name_en":"Garmanns","iso":"AT"},"geometry":{"type":"Point","coordinates":[16.46667,48.55]}},{"type":"Feature","properties":{"country_en":"Austria","name":"St. Ulrich","name_adm0":"Österreich","name_adm1":"Kärnten","name_adm2":"Wolfsberg","name_en":"St. Ulrich","iso":"AT"},"geometry":{"type":"Point","coordinates":[14.900000000000002,46.76666999999999]}},{"type":"Feature","properties":{"country_en":"Austria","name":"Guntrams","name_adm0":"Österreich","name_adm1":"Niederösterreich","name_adm2":"Neunkirchen","name_en":"Guntrams","iso":"AT"},"geometry":{"type":"Point","coordinates":[16.149999999999995,47.71667]}},{"type":"Feature","properties":{"country_en":"Austria","name":"Teuchl","name_adm0":"Österreich","name_adm1":"Kärnten","name_adm2":"Spittal an der Drau","name_en":"Teuchl","iso":"AT"},"geometry":{"type":"Point","coordinates":[13.23389,46.87472]}},{"type":"Feature","properties":{"country_en":"Austria","name":"Tratten","name_adm0":"Österreich","name_adm1":"Kärnten","name_adm2":"Hermagor","name_en":"Tratten","iso":"AT"},"geometry":{"type":"Point","coordinates":[13.53861,46.62583]}},{"type":"Feature","properties":{"country_en":"Austria","name":"Hohenruppersdorf","name_adm0":"Österreich","name_adm1":"Niederösterreich","name_adm2":"Gänserndorf","name_en":"Hohenruppersdorf","iso":"AT"},"geometry":{"type":"Point","coordinates":[16.516669999999998,48.74999999999999]}},{"type":"Feature","properties":{"country_en":"Austria","name":"Hirschengarten","name_adm0":"Österreich","name_adm1":"Niederösterreich","name_adm2":"Wien-Umgebung","name_en":"Hirschengarten","iso":"AT"},"geometry":{"type":"Point","coordinates":[16.14304,48.25846]}},{"type":"Feature","properties":{"country_en":"Austria","name":"Hüttendorf","name_adm0":"Österreich","name_adm1":"Niederösterreich","name_adm2":"Mistelbach","name_en":"Hüttendorf","iso":"AT"},"geometry":{"type":"Point","coordinates":[16.533329999999996,48.55]}},{"type":"Feature","properties":{"country_en":"Austria","name":"Isper","name_adm0":"Österreich","name_adm1":"Niederösterreich","name_adm2":"Melk","name_en":"Ysper","iso":"AT"},"geometry":{"type":"Point","coordinates":[15.05,48.28333]}},{"type":"Feature","properties":{"country_en":"Austria","name":"Vorderkrems","name_adm0":"Österreich","name_adm1":"Kärnten","name_adm2":"Spittal an der Drau","name_en":"Vorderkrems","iso":"AT"},"geometry":{"type":"Point","coordinates":[13.66,46.96278]}},{"type":"Feature","properties":{"country_en":"Austria","name":"Waidisch","name_adm0":"Österreich","name_adm1":"Kärnten","name_adm2":"Klagenfurt Land","name_en":"Waidisch","iso":"AT"},"geometry":{"type":"Point","coordinates":[14.350000000000001,46.5]}},{"type":"Feature","properties":{"country_en":"Austria","name":"Karlsdorf","name_adm0":"Österreich","name_adm1":"Niederösterreich","name_adm2":"Hollabrunn","name_en":"Karlsdorf","iso":"AT"},"geometry":{"type":"Point","coordinates":[16.01667,48.7]}},{"type":"Feature","properties":{"country_en":"Austria","name":"Karlstift","name_adm0":"Österreich","name_adm1":"Niederösterreich","name_adm2":"Gmünd","name_en":"Karlstift","iso":"AT"},"geometry":{"type":"Point","coordinates":[14.749999999999998,48.58333]}},{"type":"Feature","properties":{"country_en":"Austria","name":"Kettlasbrunn","name_adm0":"Österreich","name_adm1":"Niederösterreich","name_adm2":"Mistelbach","name_en":"Kettlasbrunn","iso":"AT"},"geometry":{"type":"Point","coordinates":[16.65,48.55]}},{"type":"Feature","properties":{"country_en":"Austria","name":"Watzelsdorf","name_adm0":"Österreich","name_adm1":"Kärnten","name_adm2":"Völkermarkt","name_en":"Watzelsdorf","iso":"AT"},"geometry":{"type":"Point","coordinates":[14.66667,46.65]}},{"type":"Feature","properties":{"country_en":"Austria","name":"Kogelsbach","name_adm0":"Österreich","name_adm1":"Niederösterreich","name_adm2":"Amstetten","name_en":"Kogelsbach","iso":"AT"},"geometry":{"type":"Point","coordinates":[14.916670000000002,47.83333]}},{"type":"Feature","properties":{"country_en":"Austria","name":"Weindorf","name_adm0":"Österreich","name_adm1":"Kärnten","name_adm2":"Skt. Veit an der Glan","name_en":"Weindorf","iso":"AT"},"geometry":{"type":"Point","coordinates":[14.464619999999998,46.78602]}},{"type":"Feature","properties":{"country_en":"Austria","name":"Zelsach","name_adm0":"Österreich","name_adm1":"Kärnten","name_adm2":"Spittal an der Drau","name_en":"Zelsach","iso":"AT"},"geometry":{"type":"Point","coordinates":[13.47,46.855]}},{"type":"Feature","properties":{"country_en":"Austria","name":"Srallach","name_adm0":"Österreich","name_adm1":"Kärnten","name_adm2":"Klagenfurt Land","name_en":"Sallach","iso":"AT"},"geometry":{"type":"Point","coordinates":[14.03333,46.7]}},{"type":"Feature","properties":{"country_en":"Austria","name":"Matzles","name_adm0":"Österreich","name_adm1":"Niederösterreich","name_adm2":"Waidhofen an der Thaya","name_en":"Matzles","iso":"AT"},"geometry":{"type":"Point","coordinates":[15.332369999999997,48.80811]}},{"type":"Feature","properties":{"country_en":"Austria","name":"Anzendorf","name_adm0":"Österreich","name_adm1":"Niederösterreich","name_adm2":"Melk","name_en":"Anzendorf","iso":"AT"},"geometry":{"type":"Point","coordinates":[15.354419999999998,48.191379999999995]}},{"type":"Feature","properties":{"country_en":"Austria","name":"Ardagger Stift","name_adm0":"Österreich","name_adm1":"Niederösterreich","name_adm2":"Amstetten","name_en":"Stift Ardagger","iso":"AT"},"geometry":{"type":"Point","coordinates":[14.833329999999998,48.15]}},{"type":"Feature","properties":{"country_en":"Austria","name":"Attenreith","name_adm0":"Österreich","name_adm1":"Niederösterreich","name_adm2":"Krems Land","name_en":"Attenreith","iso":"AT"},"geometry":{"type":"Point","coordinates":[15.33333,48.46667]}},{"type":"Feature","properties":{"country_en":"Austria","name":"Böhmhöf","name_adm0":"Österreich","name_adm1":"Niederösterreich","name_adm2":"Zwettl","name_en":"Böhmhöf","iso":"AT"},"geometry":{"type":"Point","coordinates":[15.1613,48.57127]}},{"type":"Feature","properties":{"country_en":"Austria","name":"Ochsenburg","name_adm0":"Österreich","name_adm1":"Niederösterreich","name_adm2":"Skt. Pölten Stadt","name_en":"Ochsenburg","iso":"AT"},"geometry":{"type":"Point","coordinates":[15.633329999999999,48.13333]}},{"type":"Feature","properties":{"country_en":"Austria","name":"Neuwald","name_adm0":"Österreich","name_adm1":"Niederösterreich","name_adm2":"Lilienfeld","name_en":"Neuwald","iso":"AT"},"geometry":{"type":"Point","coordinates":[15.513730000000002,47.74821]}},{"type":"Feature","properties":{"country_en":"Austria","name":"Niederfladnitz","name_adm0":"Österreich","name_adm1":"Niederösterreich","name_adm2":"Hollabrunn","name_en":"Niederfladnitz","iso":"AT"},"geometry":{"type":"Point","coordinates":[15.88333,48.78333]}},{"type":"Feature","properties":{"country_en":"Austria","name":"Orthof","name_adm0":"Österreich","name_adm1":"Niederösterreich","name_adm2":"Neunkirchen","name_en":"Orthof","iso":"AT"},"geometry":{"type":"Point","coordinates":[15.79336,47.662609999999994]}},{"type":"Feature","properties":{"country_en":"Austria","name":"Oyenhausen","name_adm0":"Österreich","name_adm1":"Niederösterreich","name_adm2":"Baden","name_en":"Oeynhausen","iso":"AT"},"geometry":{"type":"Point","coordinates":[16.29187,47.98532999999999]}},{"type":"Feature","properties":{"country_en":"Austria","name":"Pielach","name_adm0":"Österreich","name_adm1":"Niederösterreich","name_adm2":"Melk","name_en":"Pielach","iso":"AT"},"geometry":{"type":"Point","coordinates":[15.3718,48.22722]}},{"type":"Feature","properties":{"country_en":"Austria","name":"Roggenreith","name_adm0":"Österreich","name_adm1":"Niederösterreich","name_adm2":"Zwettl","name_en":"Roggenreith","iso":"AT"},"geometry":{"type":"Point","coordinates":[15.18333,48.38333]}},{"type":"Feature","properties":{"country_en":"Austria","name":"Enzersdorf bei Staatz","name_adm0":"Österreich","name_adm1":"Niederösterreich","name_adm2":"Mistelbach","name_en":"Ernsdorf","iso":"AT"},"geometry":{"type":"Point","coordinates":[16.5,48.66667]}},{"type":"Feature","properties":{"country_en":"Austria","name":"Eppenberg","name_adm0":"Österreich","name_adm1":"Niederösterreich","name_adm2":"Krems Land","name_en":"Eppenberg","iso":"AT"},"geometry":{"type":"Point","coordinates":[15.349999999999998,48.48333]}},{"type":"Feature","properties":{"country_en":"Austria","name":"Schlag","name_adm0":"Österreich","name_adm1":"Niederösterreich","name_adm2":"Gmünd","name_en":"Schlag","iso":"AT"},"geometry":{"type":"Point","coordinates":[14.999999999999998,48.95]}},{"type":"Feature","properties":{"country_en":"Austria","name":"Schönbichl","name_adm0":"Österreich","name_adm1":"Niederösterreich","name_adm2":"Amstetten","name_en":"Pittersberg","iso":"AT"},"geometry":{"type":"Point","coordinates":[14.900000000000002,48.1]}},{"type":"Feature","properties":{"country_en":"Austria","name":"Totzenbach","name_adm0":"Österreich","name_adm1":"Niederösterreich","name_adm2":"Skt. Pölten Land","name_en":"Totzenbach","iso":"AT"},"geometry":{"type":"Point","coordinates":[15.81001,48.20305]}},{"type":"Feature","properties":{"country_en":"Austria","name":"Tradigistdorf","name_adm0":"Österreich","name_adm1":"Niederösterreich","name_adm2":"Skt. Pölten Land","name_en":"Tradigistdorf","iso":"AT"},"geometry":{"type":"Point","coordinates":[15.461879999999999,48.03138]}},{"type":"Feature","properties":{"country_en":"Austria","name":"Tresdorf","name_adm0":"Österreich","name_adm1":"Niederösterreich","name_adm2":"Korneuburg","name_en":"Tresdorf","iso":"AT"},"geometry":{"type":"Point","coordinates":[16.35,48.38333]}},{"type":"Feature","properties":{"country_en":"Austria","name":"Untermixnitz","name_adm0":"Österreich","name_adm1":"Niederösterreich","name_adm2":"Horn","name_en":"Untermixnitz","iso":"AT"},"geometry":{"type":"Point","coordinates":[15.83333,48.74999999999999]}},{"type":"Feature","properties":{"country_en":"Austria","name":"Unterparschenbrunn","name_adm0":"Österreich","name_adm1":"Niederösterreich","name_adm2":"Korneuburg","name_en":"Unterparschenbrunn","iso":"AT"},"geometry":{"type":"Point","coordinates":[16.11667,48.45]}},{"type":"Feature","properties":{"country_en":"Austria","name":"Watzmanns","name_adm0":"Österreich","name_adm1":"Niederösterreich","name_adm2":"Gmünd","name_en":"Watzmanns","iso":"AT"},"geometry":{"type":"Point","coordinates":[14.883329999999999,48.633329999999994]}},{"type":"Feature","properties":{"country_en":"Austria","name":"Wilfleinsdorf","name_adm0":"Österreich","name_adm1":"Niederösterreich","name_adm2":"Bruck an der Leitha","name_en":"Wilfleinsdorf","iso":"AT"},"geometry":{"type":"Point","coordinates":[16.71667,48.01667]}},{"type":"Feature","properties":{"country_en":"Austria","name":"Grossharmanns","name_adm0":"Österreich","name_adm1":"Niederösterreich","name_adm2":"Waidhofen an der Thaya","name_en":"Grossharmanns","iso":"AT"},"geometry":{"type":"Point","coordinates":[15.299999999999999,48.916669999999996]}},{"type":"Feature","properties":{"country_en":"Austria","name":"Gruberau","name_adm0":"Österreich","name_adm1":"Niederösterreich","name_adm2":"Mödling","name_en":"Gruberau","iso":"AT"},"geometry":{"type":"Point","coordinates":[16.09995,48.11677]}},{"type":"Feature","properties":{"country_en":"Austria","name":"Altenhof","name_adm0":"Österreich","name_adm1":"Oberösterreich","name_adm2":"Rohrbach","name_en":"Altenhof","iso":"AT"},"geometry":{"type":"Point","coordinates":[13.78333,48.5]}},{"type":"Feature","properties":{"country_en":"Austria","name":"Baumgartenberg","name_adm0":"Österreich","name_adm1":"Oberösterreich","name_adm2":"Perg","name_en":"Baumgartenberg","iso":"AT"},"geometry":{"type":"Point","coordinates":[14.74365,48.20866]}},{"type":"Feature","properties":{"country_en":"Austria","name":"Bichlwimm","name_adm0":"Österreich","name_adm1":"Oberösterreich","name_adm2":"Wels-Land","name_en":"Bichlwimm","iso":"AT"},"geometry":{"type":"Point","coordinates":[13.96667,48.16667]}},{"type":"Feature","properties":{"country_en":"Austria","name":"Heinreichs bei Weitra","name_adm0":"Österreich","name_adm1":"Niederösterreich","name_adm2":"Gmünd","name_en":"Heinreichs","iso":"AT"},"geometry":{"type":"Point","coordinates":[14.833329999999998,48.73333]}},{"type":"Feature","properties":{"country_en":"Austria","name":"Heinrichsberg","name_adm0":"Österreich","name_adm1":"Niederösterreich","name_adm2":"Melk","name_en":"Heinrichsberg","iso":"AT"},"geometry":{"type":"Point","coordinates":[15.381889999999999,48.10537]}},{"type":"Feature","properties":{"country_en":"Austria","name":"Enzenkirchen","name_adm0":"Österreich","name_adm1":"Oberösterreich","name_adm2":"Schärding","name_en":"Enzenkirchen","iso":"AT"},"geometry":{"type":"Point","coordinates":[13.64828,48.38812]}},{"type":"Feature","properties":{"country_en":"Austria","name":"Holzing","name_adm0":"Österreich","name_adm1":"Niederösterreich","name_adm2":"Melk","name_en":"Holzing","iso":"AT"},"geometry":{"type":"Point","coordinates":[15.133329999999999,48.15]}},{"type":"Feature","properties":{"country_en":"Austria","name":"Hypolz","name_adm0":"Österreich","name_adm1":"Niederösterreich","name_adm2":"Zwettl","name_en":"Hypolz","iso":"AT"},"geometry":{"type":"Point","coordinates":[14.973209999999998,48.56633]}},{"type":"Feature","properties":{"country_en":"Austria","name":"Fürling","name_adm0":"Österreich","name_adm1":"Oberösterreich","name_adm2":"Freistadt","name_en":"Fürling","iso":"AT"},"geometry":{"type":"Point","coordinates":[14.629579999999999,48.45015]}},{"type":"Feature","properties":{"country_en":"Austria","name":"Gaflenz","name_adm0":"Österreich","name_adm1":"Oberösterreich","name_adm2":"Steyr-Land","name_en":"Gaflenz","iso":"AT"},"geometry":{"type":"Point","coordinates":[14.71667,47.88333]}},{"type":"Feature","properties":{"country_en":"Austria","name":"Kamp","name_adm0":"Österreich","name_adm1":"Niederösterreich","name_adm2":"Krems Land","name_en":"Kamp","iso":"AT"},"geometry":{"type":"Point","coordinates":[15.75,48.43333]}},{"type":"Feature","properties":{"country_en":"Austria","name":"Gerersdorf","name_adm0":"Österreich","name_adm1":"Oberösterreich","name_adm2":"Linz-Land","name_en":"Gerersdorf","iso":"AT"},"geometry":{"type":"Point","coordinates":[14.1655,48.22341]}},{"type":"Feature","properties":{"country_en":"Austria","name":"Grasberg","name_adm0":"Österreich","name_adm1":"Oberösterreich","name_adm2":"Gmunden","name_en":"Grasberg","iso":"AT"},"geometry":{"type":"Point","coordinates":[13.72995,47.88065999999999]}},{"type":"Feature","properties":{"country_en":"Austria","name":"Greinerschlag","name_adm0":"Österreich","name_adm1":"Oberösterreich","name_adm2":"Freistadt","name_en":"Greinerschlag","iso":"AT"},"geometry":{"type":"Point","coordinates":[14.82081,48.4464]}},{"type":"Feature","properties":{"country_en":"Austria","name":"Julbach","name_adm0":"Österreich","name_adm1":"Oberösterreich","name_adm2":"Rohrbach","name_en":"Julbach","iso":"AT"},"geometry":{"type":"Point","coordinates":[13.86518,48.66087]}},{"type":"Feature","properties":{"country_en":"Austria","name":"Kallham","name_adm0":"Österreich","name_adm1":"Oberösterreich","name_adm2":"Grieskirchen","name_en":"Kallham","iso":"AT"},"geometry":{"type":"Point","coordinates":[13.71085,48.28491]}},{"type":"Feature","properties":{"country_en":"Austria","name":"kasten","name_adm0":"Österreich","name_adm1":"Oberösterreich","name_adm2":"Vöcklabruck","name_en":"kasten","iso":"AT"},"geometry":{"type":"Point","coordinates":[13.66667,47.93333]}},{"type":"Feature","properties":{"country_en":"Austria","name":"Kematen am Innbach","name_adm0":"Österreich","name_adm1":"Oberösterreich","name_adm2":"Grieskirchen","name_en":"Kematen","iso":"AT"},"geometry":{"type":"Point","coordinates":[13.858739999999997,48.17645]}},{"type":"Feature","properties":{"country_en":"Austria","name":"Kniewas","name_adm0":"Österreich","name_adm1":"Oberösterreich","name_adm2":"Kirchdorf an der Krems","name_en":"Kniewas","iso":"AT"},"geometry":{"type":"Point","coordinates":[14.16667,47.78333]}},{"type":"Feature","properties":{"country_en":"Austria","name":"Lauterbach","name_adm0":"Österreich","name_adm1":"Oberösterreich","name_adm2":"Kirchdorf an der Krems","name_en":"Lauterbach","iso":"AT"},"geometry":{"type":"Point","coordinates":[14.09756,47.905269999999994]}},{"type":"Feature","properties":{"country_en":"Austria","name":"Mettmach","name_adm0":"Österreich","name_adm1":"Oberösterreich","name_adm2":"Ried im Innkreis","name_en":"Mettmach","iso":"AT"},"geometry":{"type":"Point","coordinates":[13.343669999999998,48.17313]}},{"type":"Feature","properties":{"country_en":"Austria","name":"Kurzschwarza","name_adm0":"Österreich","name_adm1":"Niederösterreich","name_adm2":"Gmünd","name_en":"Kurzschwarza","iso":"AT"},"geometry":{"type":"Point","coordinates":[15.116669999999997,48.76667]}},{"type":"Feature","properties":{"country_en":"Austria","name":"Leitsberg","name_adm0":"Österreich","name_adm1":"Niederösterreich","name_adm2":"Skt. Pölten Land","name_en":"Leitsberg","iso":"AT"},"geometry":{"type":"Point","coordinates":[15.896869999999998,48.15985]}},{"type":"Feature","properties":{"country_en":"Austria","name":"Pichlern","name_adm0":"Österreich","name_adm1":"Oberösterreich","name_adm2":"Steyr-Land","name_en":"Pichlern","iso":"AT"},"geometry":{"type":"Point","coordinates":[14.32197,48.02541]}},{"type":"Feature","properties":{"country_en":"Austria","name":"Pöndorf","name_adm0":"Österreich","name_adm1":"Oberösterreich","name_adm2":"Vöcklabruck","name_en":"Pöndorf","iso":"AT"},"geometry":{"type":"Point","coordinates":[13.37036,47.99584]}},{"type":"Feature","properties":{"country_en":"Austria","name":"Meires","name_adm0":"Österreich","name_adm1":"Niederösterreich","name_adm2":"Waidhofen an der Thaya","name_en":"Meires","iso":"AT"},"geometry":{"type":"Point","coordinates":[15.28333,48.78333]}},{"type":"Feature","properties":{"country_en":"Austria","name":"Puchkirchen","name_adm0":"Österreich","name_adm1":"Oberösterreich","name_adm2":"Vöcklabruck","name_en":"Puchkirchen","iso":"AT"},"geometry":{"type":"Point","coordinates":[13.566669999999998,48.03333]}},{"type":"Feature","properties":{"country_en":"Austria","name":"Rading","name_adm0":"Österreich","name_adm1":"Oberösterreich","name_adm2":"Kirchdorf an der Krems","name_en":"Rading","iso":"AT"},"geometry":{"type":"Point","coordinates":[14.30832,47.7354]}},{"type":"Feature","properties":{"country_en":"Austria","name":"Radingdorf","name_adm0":"Österreich","name_adm1":"Oberösterreich","name_adm2":"Freistadt","name_en":"Radingdorf","iso":"AT"},"geometry":{"type":"Point","coordinates":[14.47457,48.36138]}},{"type":"Feature","properties":{"country_en":"Austria","name":"Regau","name_adm0":"Österreich","name_adm1":"Oberösterreich","name_adm2":"Kirchdorf an der Krems","name_en":"Regau","iso":"AT"},"geometry":{"type":"Point","coordinates":[14.13743,48.07498]}},{"type":"Feature","properties":{"country_en":"Austria","name":"St. Martin","name_adm0":"Österreich","name_adm1":"Oberösterreich","name_adm2":"Linz-Land","name_en":"Sankt Martin bei Traun","iso":"AT"},"geometry":{"type":"Point","coordinates":[14.26781,48.23091]}},{"type":"Feature","properties":{"country_en":"Austria","name":"Mühlbach","name_adm0":"Österreich","name_adm1":"Niederösterreich","name_adm2":"Gmünd","name_en":"Mühlbach","iso":"AT"},"geometry":{"type":"Point","coordinates":[14.866669999999997,48.633329999999994]}},{"type":"Feature","properties":{"country_en":"Austria","name":"Steinbach an der Steyr","name_adm0":"Österreich","name_adm1":"Oberösterreich","name_adm2":"Kirchdorf an der Krems","name_en":"Steinbach","iso":"AT"},"geometry":{"type":"Point","coordinates":[14.26935,47.97079]}},{"type":"Feature","properties":{"country_en":"Austria","name":"Dorf","name_adm0":"Österreich","name_adm1":"Salzburg","name_adm2":"Skt. Johann im Pongau","name_en":"Dorf","iso":"AT"},"geometry":{"type":"Point","coordinates":[13.25,47.45]}},{"type":"Feature","properties":{"country_en":"Austria","name":"Patzmannsdorf","name_adm0":"Österreich","name_adm1":"Niederösterreich","name_adm2":"Mistelbach","name_en":"Patzmannsdorf","iso":"AT"},"geometry":{"type":"Point","coordinates":[16.266669999999998,48.633329999999994]}},{"type":"Feature","properties":{"country_en":"Austria","name":"Hinterkleinarl","name_adm0":"Österreich","name_adm1":"Salzburg","name_adm2":"Skt. Johann im Pongau","name_en":"Hinterkleinarl","iso":"AT"},"geometry":{"type":"Point","coordinates":[13.326069999999998,47.25698]}},{"type":"Feature","properties":{"country_en":"Austria","name":"Hagenau","name_adm0":"Österreich","name_adm1":"Salzburg","name_adm2":"Salzburg-Umgebung","name_en":"Hagenau","iso":"AT"},"geometry":{"type":"Point","coordinates":[13.033329999999998,47.83333]}},{"type":"Feature","properties":{"country_en":"Austria","name":"Irrsdorf","name_adm0":"Österreich","name_adm1":"Salzburg","name_adm2":"Salzburg-Umgebung","name_en":"Irrsdorf","iso":"AT"},"geometry":{"type":"Point","coordinates":[13.28333,47.96667]}},{"type":"Feature","properties":{"country_en":"Austria","name":"Unteresch","name_adm0":"Österreich","name_adm1":"Salzburg","name_adm2":"Salzburg-Umgebung","name_en":"Unteresch","iso":"AT"},"geometry":{"type":"Point","coordinates":[12.63887,46.9844]}},{"type":"Feature","properties":{"country_en":"Austria","name":"Unterweißburg","name_adm0":"Österreich","name_adm1":"Salzburg","name_adm2":"Tamsweg","name_en":"Unterweißburg","iso":"AT"},"geometry":{"type":"Point","coordinates":[13.6,47.099999999999994]}},{"type":"Feature","properties":{"country_en":"Austria","name":"Dobrein","name_adm0":"Österreich","name_adm1":"Steiermark","name_adm2":"Mürzzuschlag","name_en":"Dobrein","iso":"AT"},"geometry":{"type":"Point","coordinates":[15.46667,47.68333]}},{"type":"Feature","properties":{"country_en":"Austria","name":"Erdwegen","name_adm0":"Österreich","name_adm1":"Steiermark","name_adm2":"Hartberg","name_en":"Erdwegen","iso":"AT"},"geometry":{"type":"Point","coordinates":[15.95,47.35]}},{"type":"Feature","properties":{"country_en":"Austria","name":"Sarning","name_adm0":"Österreich","name_adm1":"Niederösterreich","name_adm2":"Waidhofen an der Thaya","name_en":"Sarning","iso":"AT"},"geometry":{"type":"Point","coordinates":[15.21667,48.83333]}},{"type":"Feature","properties":{"country_en":"Austria","name":"Furrach","name_adm0":"Österreich","name_adm1":"Steiermark","name_adm2":"Liezen","name_en":"Furrach","iso":"AT"},"geometry":{"type":"Point","coordinates":[14.15,47.43333]}},{"type":"Feature","properties":{"country_en":"Austria","name":"Furth","name_adm0":"Österreich","name_adm1":"Steiermark","name_adm2":"Deutschlandsberg","name_en":"Furth","iso":"AT"},"geometry":{"type":"Point","coordinates":[15.233329999999999,46.85]}},{"type":"Feature","properties":{"country_en":"Austria","name":"Großpesendorf","name_adm0":"Österreich","name_adm1":"Steiermark","name_adm2":"Weiz","name_en":"Großpesendorf","iso":"AT"},"geometry":{"type":"Point","coordinates":[15.766669999999998,47.14999999999999]}},{"type":"Feature","properties":{"country_en":"Austria","name":"Kittenberg","name_adm0":"Österreich","name_adm1":"Steiermark","name_adm2":"Leibnitz","name_en":"Kittenberg","iso":"AT"},"geometry":{"type":"Point","coordinates":[15.499999999999998,46.78333]}},{"type":"Feature","properties":{"country_en":"Austria","name":"Klaus","name_adm0":"Österreich","name_adm1":"Steiermark","name_adm2":"Liezen","name_en":"Klaus","iso":"AT"},"geometry":{"type":"Point","coordinates":[14.999999999999998,47.73333]}},{"type":"Feature","properties":{"country_en":"Austria","name":"Muggendorf","name_adm0":"Österreich","name_adm1":"Steiermark","name_adm2":"Feldbach","name_en":"Muggendorf","iso":"AT"},"geometry":{"type":"Point","coordinates":[15.86667,46.81667]}},{"type":"Feature","properties":{"country_en":"Austria","name":"Mürzhofen","name_adm0":"Österreich","name_adm1":"Steiermark","name_adm2":"Mürzzuschlag","name_en":"Mürzhofen","iso":"AT"},"geometry":{"type":"Point","coordinates":[15.316670000000002,47.23333]}},{"type":"Feature","properties":{"country_en":"Austria","name":"Neutillmitsch","name_adm0":"Österreich","name_adm1":"Steiermark","name_adm2":"Leibnitz","name_en":"Neutillmitsch","iso":"AT"},"geometry":{"type":"Point","coordinates":[15.53333,46.81667]}},{"type":"Feature","properties":{"country_en":"Austria","name":"Oberaich","name_adm0":"Österreich","name_adm1":"Steiermark","name_adm2":"Bruck an der Mur","name_en":"Oberaich","iso":"AT"},"geometry":{"type":"Point","coordinates":[14.41423,46.80165]}},{"type":"Feature","properties":{"country_en":"Austria","name":"Oberfahrenbach","name_adm0":"Österreich","name_adm1":"Steiermark","name_adm2":"Leibnitz","name_en":"Oberfahrenbach","iso":"AT"},"geometry":{"type":"Point","coordinates":[15.46667,46.71666999999999]}},{"type":"Feature","properties":{"country_en":"Austria","name":"Rettenbach","name_adm0":"Österreich","name_adm1":"Steiermark","name_adm2":"Leibnitz","name_en":"Rettenbach","iso":"AT"},"geometry":{"type":"Point","coordinates":[15.516669999999998,46.75]}},{"type":"Feature","properties":{"country_en":"Austria","name":"Pöllauberg","name_adm0":"Österreich","name_adm1":"Steiermark","name_adm2":"Hartberg","name_en":"Pöllauberg","iso":"AT"},"geometry":{"type":"Point","coordinates":[15.766669999999998,46.85]}},{"type":"Feature","properties":{"country_en":"Austria","name":"Preg","name_adm0":"Österreich","name_adm1":"Steiermark","name_adm2":"Knittelfeld","name_en":"Preg","iso":"AT"},"geometry":{"type":"Point","coordinates":[14.916670000000002,47.26666999999999]}},{"type":"Feature","properties":{"country_en":"Austria","name":"Waiden","name_adm0":"Österreich","name_adm1":"Niederösterreich","name_adm2":"Horn","name_en":"Waiden","iso":"AT"},"geometry":{"type":"Point","coordinates":[15.46667,48.68332999999999]}},{"type":"Feature","properties":{"country_en":"Austria","name":"Waidmannsfeld","name_adm0":"Österreich","name_adm1":"Niederösterreich","name_adm2":"Wiener Neustadt Land","name_en":"Waidmannsfeld","iso":"AT"},"geometry":{"type":"Point","coordinates":[15.981159999999997,47.87042]}},{"type":"Feature","properties":{"country_en":"Austria","name":"St. Erhard","name_adm0":"Österreich","name_adm1":"Steiermark","name_adm2":"Bruck an der Mur","name_en":"St. Erhard","iso":"AT"},"geometry":{"type":"Point","coordinates":[15.45,47.38333]}},{"type":"Feature","properties":{"country_en":"Austria","name":"Sommersgut","name_adm0":"Österreich","name_adm1":"Steiermark","name_adm2":"Hartberg","name_en":"Sommersgut","iso":"AT"},"geometry":{"type":"Point","coordinates":[15.799999999999999,47.43333]}},{"type":"Feature","properties":{"country_en":"Austria","name":"Wanzenau","name_adm0":"Österreich","name_adm1":"Niederösterreich","name_adm2":"Horn","name_en":"Wanzenau","iso":"AT"},"geometry":{"type":"Point","coordinates":[15.6,48.61667]}},{"type":"Feature","properties":{"country_en":"Austria","name":"Unterscheffau","name_adm0":"Österreich","name_adm1":"Salzburg","name_adm2":"Hallein","name_en":"Unterscheffau","iso":"AT"},"geometry":{"type":"Point","coordinates":[12.697999999999999,47.922]}},{"type":"Feature","properties":{"country_en":"Austria","name":"Angath","name_adm0":"Österreich","name_adm1":"Tirol","name_adm2":"Kufstein","name_en":"Angath","iso":"AT"},"geometry":{"type":"Point","coordinates":[12.066669999999998,47.5]}},{"type":"Feature","properties":{"country_en":"Austria","name":"Anras","name_adm0":"Österreich","name_adm1":"Tirol","name_adm2":"Lienz","name_en":"Anras","iso":"AT"},"geometry":{"type":"Point","coordinates":[12.56083,46.77389]}},{"type":"Feature","properties":{"country_en":"Austria","name":"Wenten","name_adm0":"Österreich","name_adm1":"Niederösterreich","name_adm2":"Amstetten","name_en":"Wenten","iso":"AT"},"geometry":{"type":"Point","coordinates":[14.766670000000001,47.76667]}},{"type":"Feature","properties":{"country_en":"Austria","name":"Breitenwang","name_adm0":"Österreich","name_adm1":"Tirol","name_adm2":"Reutte","name_en":"Breitenwang","iso":"AT"},"geometry":{"type":"Point","coordinates":[10.73333,47.483329999999995]}},{"type":"Feature","properties":{"country_en":"Austria","name":"Brennbichl","name_adm0":"Österreich","name_adm1":"Tirol","name_adm2":"Imst","name_en":"Brennbichl","iso":"AT"},"geometry":{"type":"Point","coordinates":[10.75,47.21666999999999]}},{"type":"Feature","properties":{"country_en":"Austria","name":"Bruggen","name_adm0":"Österreich","name_adm1":"Tirol","name_adm2":"Lienz","name_en":"Bruggen","iso":"AT"},"geometry":{"type":"Point","coordinates":[12.37972,46.91639]}},{"type":"Feature","properties":{"country_en":"Austria","name":"Wielands","name_adm0":"Österreich","name_adm1":"Niederösterreich","name_adm2":"Zwettl","name_en":"Wielands","iso":"AT"},"geometry":{"type":"Point","coordinates":[15.133329999999999,48.5]}},{"type":"Feature","properties":{"country_en":"Austria","name":"Habichen","name_adm0":"Österreich","name_adm1":"Tirol","name_adm2":"Imst","name_en":"Habichen","iso":"AT"},"geometry":{"type":"Point","coordinates":[10.9,47.18333]}},{"type":"Feature","properties":{"country_en":"Austria","name":"Kleinboden","name_adm0":"Österreich","name_adm1":"Tirol","name_adm2":"Schwaz","name_en":"Kleinboden","iso":"AT"},"geometry":{"type":"Point","coordinates":[11.85,47.33333]}},{"type":"Feature","properties":{"country_en":"Austria","name":"Pirchhütt","name_adm0":"Österreich","name_adm1":"Tirol","name_adm2":"Imst","name_en":"Untergurgl","iso":"AT"},"geometry":{"type":"Point","coordinates":[11.03333,46.88333]}},{"type":"Feature","properties":{"country_en":"Austria","name":"Rauth","name_adm0":"Österreich","name_adm1":"Tirol","name_adm2":"Reutte","name_en":"Rauth","iso":"AT"},"geometry":{"type":"Point","coordinates":[10.61667,47.46667]}},{"type":"Feature","properties":{"country_en":"Austria","name":"Reith bei Kitzbühel","name_adm0":"Österreich","name_adm1":"Tirol","name_adm2":"Kitzbühel","name_en":"Reith","iso":"AT"},"geometry":{"type":"Point","coordinates":[12.56667,47.46667]}},{"type":"Feature","properties":{"country_en":"Austria","name":"Rinnen","name_adm0":"Österreich","name_adm1":"Tirol","name_adm2":"Reutte","name_en":"Rinnen","iso":"AT"},"geometry":{"type":"Point","coordinates":[10.71899,47.40507]}},{"type":"Feature","properties":{"country_en":"Austria","name":"St. Gertraudi","name_adm0":"Österreich","name_adm1":"Tirol","name_adm2":"Kufstein","name_en":"St. Gertraudi","iso":"AT"},"geometry":{"type":"Point","coordinates":[11.85,47.41667]}},{"type":"Feature","properties":{"country_en":"Austria","name":"Stummerberg","name_adm0":"Österreich","name_adm1":"Tirol","name_adm2":"Schwaz","name_en":"Stummerberg","iso":"AT"},"geometry":{"type":"Point","coordinates":[11.916669999999998,47.28333]}},{"type":"Feature","properties":{"country_en":"Austria","name":"Brederis","name_adm0":"Österreich","name_adm1":"Vorarlberg","name_adm2":"Feldkirch","name_en":"Brederis","iso":"AT"},"geometry":{"type":"Point","coordinates":[9.60789,47.27772]}},{"type":"Feature","properties":{"country_en":"Austria","name":"Jetzmund","name_adm0":"Österreich","name_adm1":"Vorarlberg","name_adm2":"Bludenz","name_en":"Jetzmund","iso":"AT"},"geometry":{"type":"Point","coordinates":[9.866669999999997,47.099999999999994]}},{"type":"Feature","properties":{"country_en":"Austria","name":"Zöbring","name_adm0":"Österreich","name_adm1":"Niederösterreich","name_adm2":"Melk","name_en":"Zöbring","iso":"AT"},"geometry":{"type":"Point","coordinates":[15.149999999999999,48.316669999999995]}},{"type":"Feature","properties":{"country_en":"Austria","name":"Marul","name_adm0":"Österreich","name_adm1":"Vorarlberg","name_adm2":"Bludenz","name_en":"Marul","iso":"AT"},"geometry":{"type":"Point","coordinates":[9.866669999999997,47.2]}},{"type":"Feature","properties":{"country_en":"Austria","name":"Andling","name_adm0":"Österreich","name_adm1":"Oberösterreich","name_adm2":"Grieskirchen","name_en":"Andling","iso":"AT"},"geometry":{"type":"Point","coordinates":[13.809729999999998,48.36748]}},{"type":"Feature","properties":{"country_en":"Austria","name":"Eggerding","name_adm0":"Österreich","name_adm1":"Oberösterreich","name_adm2":"Schärding","name_en":"Eggerding","iso":"AT"},"geometry":{"type":"Point","coordinates":[13.477129999999999,48.34901]}},{"type":"Feature","properties":{"country_en":"Austria","name":"Eggerding","name_adm0":"Österreich","name_adm1":"Oberösterreich","name_adm2":"Grieskirchen","name_en":"Eggerding","iso":"AT"},"geometry":{"type":"Point","coordinates":[13.73333,48.13333]}},{"type":"Feature","properties":{"country_en":"Austria","name":"Freudenthal","name_adm0":"Österreich","name_adm1":"Oberösterreich","name_adm2":"Freistadt","name_en":"Freudenthal","iso":"AT"},"geometry":{"type":"Point","coordinates":[14.43552,48.53332]}},{"type":"Feature","properties":{"country_en":"Austria","name":"Freundorf","name_adm0":"Österreich","name_adm1":"Oberösterreich","name_adm2":"Rohrbach","name_en":"Freundorf","iso":"AT"},"geometry":{"type":"Point","coordinates":[13.89273,48.7041]}},{"type":"Feature","properties":{"country_en":"Austria","name":"Harrau","name_adm0":"Österreich","name_adm1":"Oberösterreich","name_adm2":"Rohrbach","name_en":"Harrau","iso":"AT"},"geometry":{"type":"Point","coordinates":[13.845689999999998,48.483729999999994]}},{"type":"Feature","properties":{"country_en":"Austria","name":"Heiligenberg","name_adm0":"Österreich","name_adm1":"Oberösterreich","name_adm2":"Grieskirchen","name_en":"Heiligenberg","iso":"AT"},"geometry":{"type":"Point","coordinates":[13.82037,48.35494]}},{"type":"Feature","properties":{"country_en":"Austria","name":"Heiligenleithen","name_adm0":"Österreich","name_adm1":"Oberösterreich","name_adm2":"Kirchdorf an der Krems","name_en":"Heiligenleithen","iso":"AT"},"geometry":{"type":"Point","coordinates":[14.0074,47.94273999999999]}},{"type":"Feature","properties":{"country_en":"Austria","name":"Innernsee","name_adm0":"Österreich","name_adm1":"Oberösterreich","name_adm2":"Grieskirchen","name_en":"Innernsee","iso":"AT"},"geometry":{"type":"Point","coordinates":[13.69317,48.21364]}},{"type":"Feature","properties":{"country_en":"Austria","name":"Radkersburg","name_adm0":"Österreich","name_adm1":"Steiermark","name_adm2":"Radkersburg","name_en":"Radkersburg","iso":"AT"},"geometry":{"type":"Point","coordinates":[15.994376999999998,46.775611]}},{"type":"Feature","properties":{"country_en":"Austria","name":"Lacken","name_adm0":"Österreich","name_adm1":"Oberösterreich","name_adm2":"Urfahr-Umgebung","name_en":"Lacken","iso":"AT"},"geometry":{"type":"Point","coordinates":[14.08944,48.38222]}},{"type":"Feature","properties":{"country_en":"Austria","name":"Loibersdorf","name_adm0":"Österreich","name_adm1":"Oberösterreich","name_adm2":"Steyr-Land","name_en":"Loibersdorf","iso":"AT"},"geometry":{"type":"Point","coordinates":[14.350000000000001,48.06667]}},{"type":"Feature","properties":{"country_en":"Austria","name":"Neuhofen im Innkreis","name_adm0":"Österreich","name_adm1":"Oberösterreich","name_adm2":"Ried im Innkreis","name_en":"Neuhofen","iso":"AT"},"geometry":{"type":"Point","coordinates":[13.4725,48.19052]}},{"type":"Feature","properties":{"country_en":"Austria","name":"Niederunterstetten","name_adm0":"Österreich","name_adm1":"Oberösterreich","name_adm2":"Grieskirchen","name_en":"Unterstetten","iso":"AT"},"geometry":{"type":"Point","coordinates":[13.76667,48.24999999999999]}},{"type":"Feature","properties":{"country_en":"Austria","name":"Niederwaldkirchen","name_adm0":"Österreich","name_adm1":"Oberösterreich","name_adm2":"Rohrbach","name_en":"Niederwaldkirchen","iso":"AT"},"geometry":{"type":"Point","coordinates":[14.085499999999998,48.45044]}},{"type":"Feature","properties":{"country_en":"Austria","name":"Nußbach","name_adm0":"Österreich","name_adm1":"Oberösterreich","name_adm2":"Kirchdorf an der Krems","name_en":"Nußbach","iso":"AT"},"geometry":{"type":"Point","coordinates":[14.16387,47.97246]}},{"type":"Feature","properties":{"country_en":"Austria","name":"Oberhörnbach","name_adm0":"Österreich","name_adm1":"Oberösterreich","name_adm2":"Perg","name_en":"Oberhörnbach","iso":"AT"},"geometry":{"type":"Point","coordinates":[14.793260000000002,48.22822]}},{"type":"Feature","properties":{"country_en":"Austria","name":"Piberschlag","name_adm0":"Österreich","name_adm1":"Oberösterreich","name_adm2":"Rohrbach","name_en":"Piberschlag","iso":"AT"},"geometry":{"type":"Point","coordinates":[14.17442,48.56337]}},{"type":"Feature","properties":{"country_en":"Austria","name":"Pühret","name_adm0":"Österreich","name_adm1":"Oberösterreich","name_adm2":"Vöcklabruck","name_en":"Pühret","iso":"AT"},"geometry":{"type":"Point","coordinates":[13.8329,48.20746]}},{"type":"Feature","properties":{"country_en":"Austria","name":"Rath","name_adm0":"Österreich","name_adm1":"Oberösterreich","name_adm2":"Linz-Land","name_en":"Rath","iso":"AT"},"geometry":{"type":"Point","coordinates":[14.166179999999999,48.09471]}},{"type":"Feature","properties":{"country_en":"Austria","name":"Rutzenham","name_adm0":"Österreich","name_adm1":"Oberösterreich","name_adm2":"Vöcklabruck","name_en":"Rutzenham","iso":"AT"},"geometry":{"type":"Point","coordinates":[12.79279,47.98714]}},{"type":"Feature","properties":{"country_en":"Austria","name":"Rutzing","name_adm0":"Österreich","name_adm1":"Oberösterreich","name_adm2":"Linz-Land","name_en":"Rutzing","iso":"AT"},"geometry":{"type":"Point","coordinates":[14.18524,48.20511]}},{"type":"Feature","properties":{"country_en":"Austria","name":"Sachsenberg","name_adm0":"Österreich","name_adm1":"Oberösterreich","name_adm2":"Schärding","name_en":"Sachsenberg","iso":"AT"},"geometry":{"type":"Point","coordinates":[13.45748,48.48857]}},{"type":"Feature","properties":{"country_en":"Austria","name":"Salaberg","name_adm0":"Österreich","name_adm1":"Oberösterreich","name_adm2":"Rohrbach","name_en":"Salaberg","iso":"AT"},"geometry":{"type":"Point","coordinates":[13.936409999999999,48.59523]}},{"type":"Feature","properties":{"country_en":"Austria","name":"Schönleithen","name_adm0":"Österreich","name_adm1":"Oberösterreich","name_adm2":"Eferding","name_en":"Schönleithen","iso":"AT"},"geometry":{"type":"Point","coordinates":[14.01667,48.4]}},{"type":"Feature","properties":{"country_en":"Austria","name":"Strass","name_adm0":"Österreich","name_adm1":"Oberösterreich","name_adm2":"Grieskirchen","name_en":"Strass","iso":"AT"},"geometry":{"type":"Point","coordinates":[13.6309,48.22196]}},{"type":"Feature","properties":{"country_en":"Austria","name":"Weeg","name_adm0":"Österreich","name_adm1":"Oberösterreich","name_adm2":"Schärding","name_en":"Weeg","iso":"AT"},"geometry":{"type":"Point","coordinates":[13.61667,48.51667]}},{"type":"Feature","properties":{"country_en":"Austria","name":"Zupfing","name_adm0":"Österreich","name_adm1":"Oberösterreich","name_adm2":"Grieskirchen","name_en":"Zupfing","iso":"AT"},"geometry":{"type":"Point","coordinates":[13.67094,48.24817]}},{"type":"Feature","properties":{"country_en":"Austria","name":"Aigelsbrunn","name_adm0":"Österreich","name_adm1":"Salzburg","name_adm2":"Salzburg-Umgebung","name_en":"Aigelsbrunn","iso":"AT"},"geometry":{"type":"Point","coordinates":[13.299999999999999,47.98333]}},{"type":"Feature","properties":{"country_en":"Austria","name":"Laderding","name_adm0":"Österreich","name_adm1":"Salzburg","name_adm2":"Skt. Johann im Pongau","name_en":"Laderding","iso":"AT"},"geometry":{"type":"Point","coordinates":[13.11667,47.2]}},{"type":"Feature","properties":{"country_en":"Austria","name":"Matzing","name_adm0":"Österreich","name_adm1":"Salzburg","name_adm2":"Salzburg-Umgebung","name_en":"Matzing","iso":"AT"},"geometry":{"type":"Point","coordinates":[13.06667,47.95]}},{"type":"Feature","properties":{"country_en":"Austria","name":"Obernberg","name_adm0":"Österreich","name_adm1":"Salzburg","name_adm2":"Salzburg-Umgebung","name_en":"Obernberg","iso":"AT"},"geometry":{"type":"Point","coordinates":[13.11667,47.96667]}},{"type":"Feature","properties":{"country_en":"Austria","name":"Viehausen","name_adm0":"Österreich","name_adm1":"Salzburg","name_adm2":"Salzburg-Umgebung","name_en":"Viehhausen","iso":"AT"},"geometry":{"type":"Point","coordinates":[12.98333,47.78333]}},{"type":"Feature","properties":{"country_en":"Austria","name":"Altenhof","name_adm0":"Österreich","name_adm1":"Steiermark","name_adm2":"Weiz","name_en":"Altenhof","iso":"AT"},"geometry":{"type":"Point","coordinates":[15.53333,47.21666999999999]}},{"type":"Feature","properties":{"country_en":"Austria","name":"Attendorf","name_adm0":"Österreich","name_adm1":"Steiermark","name_adm2":"Graz-Umgebung","name_en":"Attendorf","iso":"AT"},"geometry":{"type":"Point","coordinates":[14.63333,46.68333]}},{"type":"Feature","properties":{"country_en":"Austria","name":"Bodendorf","name_adm0":"Österreich","name_adm1":"Steiermark","name_adm2":"Murau","name_en":"Bodendorf","iso":"AT"},"geometry":{"type":"Point","coordinates":[14.05472,47.11]}},{"type":"Feature","properties":{"country_en":"Austria","name":"Gabraun","name_adm0":"Österreich","name_adm1":"Steiermark","name_adm2":"Bruck an der Mur","name_en":"Gabraun","iso":"AT"},"geometry":{"type":"Point","coordinates":[15.366669999999997,47.38333]}},{"type":"Feature","properties":{"country_en":"Austria","name":"Moos","name_adm0":"Österreich","name_adm1":"Steiermark","name_adm2":"Deutschlandsberg","name_en":"Moos","iso":"AT"},"geometry":{"type":"Point","coordinates":[15.249999999999998,46.76666999999999]}},{"type":"Feature","properties":{"country_en":"Austria","name":"Obertillmitsch","name_adm0":"Österreich","name_adm1":"Steiermark","name_adm2":"Leibnitz","name_en":"Ober Tilmitsch","iso":"AT"},"geometry":{"type":"Point","coordinates":[15.53333,46.8]}},{"type":"Feature","properties":{"country_en":"Austria","name":"Pöllau bei Gleisdorf","name_adm0":"Österreich","name_adm1":"Steiermark","name_adm2":"Weiz","name_en":"Pöllau bei Gleisdorf","iso":"AT"},"geometry":{"type":"Point","coordinates":[15.799999999999999,47.06667]}},{"type":"Feature","properties":{"country_en":"Austria","name":"Pöls an der Wieserbahn","name_adm0":"Österreich","name_adm1":"Steiermark","name_adm2":"Graz-Umgebung","name_en":"Pöls an der Wieserbahn","iso":"AT"},"geometry":{"type":"Point","coordinates":[15.399999999999999,46.88333]}},{"type":"Feature","properties":{"country_en":"Austria","name":"Schäffern","name_adm0":"Österreich","name_adm1":"Steiermark","name_adm2":"Hartberg","name_en":"Schäffern","iso":"AT"},"geometry":{"type":"Point","coordinates":[16.13333,46.9]}},{"type":"Feature","properties":{"country_en":"Austria","name":"Aich","name_adm0":"Österreich","name_adm1":"Oberösterreich","name_adm2":"Ried im Innkreis","name_en":"Aich","iso":"AT"},"geometry":{"type":"Point","coordinates":[13.73051,48.06040999999999]}},{"type":"Feature","properties":{"country_en":"Austria","name":"Aichberg","name_adm0":"Österreich","name_adm1":"Oberösterreich","name_adm2":"Schärding","name_en":"Aichberg-Buchen","iso":"AT"},"geometry":{"type":"Point","coordinates":[14.099719999999998,48.25694]}},{"type":"Feature","properties":{"country_en":"Austria","name":"Aichet","name_adm0":"Österreich","name_adm1":"Oberösterreich","name_adm2":"Vöcklabruck","name_en":"Aichet","iso":"AT"},"geometry":{"type":"Point","coordinates":[13.686559999999998,48.35613]}},{"type":"Feature","properties":{"country_en":"Austria","name":"Aigen","name_adm0":"Österreich","name_adm1":"Oberösterreich","name_adm2":"Braunau am Inn","name_en":"Aigen","iso":"AT"},"geometry":{"type":"Point","coordinates":[13.259729999999998,48.30729]}},{"type":"Feature","properties":{"country_en":"Austria","name":"Aigen","name_adm0":"Österreich","name_adm1":"Oberösterreich","name_adm2":"Vöcklabruck","name_en":"Aigen","iso":"AT"},"geometry":{"type":"Point","coordinates":[13.53333,47.7]}},{"type":"Feature","properties":{"country_en":"Austria","name":"Aigen","name_adm0":"Österreich","name_adm1":"Niederösterreich","name_adm2":"Amstetten","name_en":"Aigen","iso":"AT"},"geometry":{"type":"Point","coordinates":[15.3618,48.09241]}},{"type":"Feature","properties":{"country_en":"Austria","name":"An der Stadlhütte","name_adm0":"Österreich","name_adm1":"Niederösterreich","name_adm2":"Wien-Umgebung","name_en":"An der Stadlhütte","iso":"AT"},"geometry":{"type":"Point","coordinates":[16.12484,48.18193999999999]}},{"type":"Feature","properties":{"country_en":"Austria","name":"Anger","name_adm0":"Österreich","name_adm1":"Niederösterreich","name_adm2":"Scheibbs","name_en":"Anger","iso":"AT"},"geometry":{"type":"Point","coordinates":[14.63333,47.85]}},{"type":"Feature","properties":{"country_en":"Austria","name":"Anger","name_adm0":"Österreich","name_adm1":"Steiermark","name_adm2":"Liezen","name_en":"Anger","iso":"AT"},"geometry":{"type":"Point","coordinates":[13.81667,47.6]}},{"type":"Feature","properties":{"country_en":"Austria","name":"Atzmanning","name_adm0":"Österreich","name_adm1":"Oberösterreich","name_adm2":"Schärding","name_en":"Atzmanning","iso":"AT"},"geometry":{"type":"Point","coordinates":[12.50671,48.31609]}},{"type":"Feature","properties":{"country_en":"Austria","name":"Au","name_adm0":"Österreich","name_adm1":"Oberösterreich","name_adm2":"Steyr-Land","name_en":"Au","iso":"AT"},"geometry":{"type":"Point","coordinates":[14.733329999999999,48]}},{"type":"Feature","properties":{"country_en":"Austria","name":"Au","name_adm0":"Österreich","name_adm1":"Oberösterreich","name_adm2":"Urfahr-Umgebung","name_en":"Au","iso":"AT"},"geometry":{"type":"Point","coordinates":[14.09611,48.33667]}},{"type":"Feature","properties":{"country_en":"Austria","name":"Au","name_adm0":"Österreich","name_adm1":"Salzburg","name_adm2":"Salzburg-Umgebung","name_en":"Au","iso":"AT"},"geometry":{"type":"Point","coordinates":[13.06667,47.7]}},{"type":"Feature","properties":{"country_en":"Austria","name":"Aufeld","name_adm0":"Österreich","name_adm1":"Niederösterreich","name_adm2":"Bruck an der Leitha","name_en":"Aufeld","iso":"AT"},"geometry":{"type":"Point","coordinates":[16.516669999999998,48.43333]}},{"type":"Feature","properties":{"country_en":"Austria","name":"Badstuben","name_adm0":"Österreich","name_adm1":"Oberösterreich","name_adm2":"Vöcklabruck","name_en":"Badstuben","iso":"AT"},"geometry":{"type":"Point","coordinates":[13.65,47.58332999999999]}},{"type":"Feature","properties":{"country_en":"Austria","name":"Berg","name_adm0":"Österreich","name_adm1":"Oberösterreich","name_adm2":"Gmunden","name_en":"Berg","iso":"AT"},"geometry":{"type":"Point","coordinates":[14.05,47.93333]}},{"type":"Feature","properties":{"country_en":"Austria","name":"Bergen","name_adm0":"Österreich","name_adm1":"Burgenland","name_adm2":"Güssing","name_en":"Bergen","iso":"AT"},"geometry":{"type":"Point","coordinates":[15.666669999999998,46.91667]}},{"type":"Feature","properties":{"country_en":"Austria","name":"Bsuch","name_adm0":"Österreich","name_adm1":"Salzburg","name_adm2":"Zell am See","name_en":"Bsuch","iso":"AT"},"geometry":{"type":"Point","coordinates":[12.47883,48.08036]}},{"type":"Feature","properties":{"country_en":"Austria","name":"Dietenberg","name_adm0":"Österreich","name_adm1":"Steiermark","name_adm2":"Voitsberg","name_en":"Dietenberg","iso":"AT"},"geometry":{"type":"Point","coordinates":[15.48444,46.8475]}},{"type":"Feature","properties":{"country_en":"Austria","name":"Dolintschach","name_adm0":"Österreich","name_adm1":"Kärnten","name_adm2":"Villach Land","name_en":"Dolintschach","iso":"AT"},"geometry":{"type":"Point","coordinates":[14.01667,46.55]}},{"type":"Feature","properties":{"country_en":"Austria","name":"Dürnberg","name_adm0":"Österreich","name_adm1":"Steiermark","name_adm2":"Murau","name_en":"Dürnberg","iso":"AT"},"geometry":{"type":"Point","coordinates":[14.78333,47.28333]}},{"type":"Feature","properties":{"country_en":"Austria","name":"Dürwagersbach","name_adm0":"Österreich","name_adm1":"Steiermark","name_adm2":"Graz-Umgebung","name_en":"Dürwagersbach","iso":"AT"},"geometry":{"type":"Point","coordinates":[15.53333,47.03332999999999]}},{"type":"Feature","properties":{"country_en":"Austria","name":"Eberdorf","name_adm0":"Österreich","name_adm1":"Kärnten","name_adm2":"Skt. Veit an der Glan","name_en":"Eberdorf","iso":"AT"},"geometry":{"type":"Point","coordinates":[14.45131,46.895509999999994]}},{"type":"Feature","properties":{"country_en":"Austria","name":"Edelhof","name_adm0":"Österreich","name_adm1":"Niederösterreich","name_adm2":"Amstetten","name_en":"Edelhof","iso":"AT"},"geometry":{"type":"Point","coordinates":[15.22242,48.60641]}},{"type":"Feature","properties":{"country_en":"Austria","name":"Edelsgraben","name_adm0":"Österreich","name_adm1":"Steiermark","name_adm2":"Feldbach","name_en":"Edelsgraben","iso":"AT"},"geometry":{"type":"Point","coordinates":[15.93333,46.93333]}},{"type":"Feature","properties":{"country_en":"Austria","name":"Ehersdorf","name_adm0":"Österreich","name_adm1":"Oberösterreich","name_adm2":"Braunau am Inn","name_en":"Ehersdorf","iso":"AT"},"geometry":{"type":"Point","coordinates":[12.831709999999998,48.31333]}},{"type":"Feature","properties":{"country_en":"Austria","name":"Weinberg","name_adm0":"Österreich","name_adm1":"Steiermark","name_adm2":"Hartberg","name_en":"Weinberg","iso":"AT"},"geometry":{"type":"Point","coordinates":[15.816669999999998,47.2]}},{"type":"Feature","properties":{"country_en":"Austria","name":"Weinberg","name_adm0":"Österreich","name_adm1":"Steiermark","name_adm2":"Graz-Umgebung","name_en":"Weinberg","iso":"AT"},"geometry":{"type":"Point","coordinates":[15.46667,47.13333]}},{"type":"Feature","properties":{"country_en":"Austria","name":"Wernersdorf","name_adm0":"Österreich","name_adm1":"Steiermark","name_adm2":"Deutschlandsberg","name_en":"Wernersdorf","iso":"AT"},"geometry":{"type":"Point","coordinates":[15.766669999999998,47]}},{"type":"Feature","properties":{"country_en":"Austria","name":"Wetzelberg","name_adm0":"Österreich","name_adm1":"Steiermark","name_adm2":"Weiz","name_en":"Wetzelberg","iso":"AT"},"geometry":{"type":"Point","coordinates":[15.86667,47.46667]}},{"type":"Feature","properties":{"country_en":"Austria","name":"Windischbühel","name_adm0":"Österreich","name_adm1":"Steiermark","name_adm2":"Leoben","name_en":"Windischbühel","iso":"AT"},"geometry":{"type":"Point","coordinates":[14.96667,47.4]}},{"type":"Feature","properties":{"country_en":"Austria","name":"Eigelsberg","name_adm0":"Österreich","name_adm1":"Oberösterreich","name_adm2":"Braunau am Inn","name_en":"Eigelsberg","iso":"AT"},"geometry":{"type":"Point","coordinates":[12.938069999999998,49.09852]}},{"type":"Feature","properties":{"country_en":"Austria","name":"Etzelbach","name_adm0":"Österreich","name_adm1":"Oberösterreich","name_adm2":"Schärding","name_en":"Etzelbach","iso":"AT"},"geometry":{"type":"Point","coordinates":[14.30167,48.37333]}},{"type":"Feature","properties":{"country_en":"Austria","name":"Falkenberg","name_adm0":"Österreich","name_adm1":"Oberösterreich","name_adm2":"Rohrbach","name_en":"Falkenberg","iso":"AT"},"geometry":{"type":"Point","coordinates":[14.08333,47.5]}},{"type":"Feature","properties":{"country_en":"Austria","name":"Freundorf","name_adm0":"Österreich","name_adm1":"Oberösterreich","name_adm2":"Schärding","name_en":"Freundorf","iso":"AT"},"geometry":{"type":"Point","coordinates":[13.558329999999998,48.50083]}},{"type":"Feature","properties":{"country_en":"Austria","name":"Fricken","name_adm0":"Österreich","name_adm1":"Tirol","name_adm2":"Reutte","name_en":"Fricken","iso":"AT"},"geometry":{"type":"Point","coordinates":[10.46611,47.51361]}},{"type":"Feature","properties":{"country_en":"Austria","name":"Fronberg","name_adm0":"Österreich","name_adm1":"Oberösterreich","name_adm2":"Grieskirchen","name_en":"Fronberg","iso":"AT"},"geometry":{"type":"Point","coordinates":[14.02122,48.24943]}},{"type":"Feature","properties":{"country_en":"Austria","name":"Fuchsluken","name_adm0":"Österreich","name_adm1":"Steiermark","name_adm2":"Liezen","name_en":"Fuchsluken","iso":"AT"},"geometry":{"type":"Point","coordinates":[14.21667,47.55]}},{"type":"Feature","properties":{"country_en":"Austria","name":"Glanz","name_adm0":"Österreich","name_adm1":"Kärnten","name_adm2":"Spittal an der Drau","name_en":"Glanz","iso":"AT"},"geometry":{"type":"Point","coordinates":[12.68333,46.86193999999999]}},{"type":"Feature","properties":{"country_en":"Austria","name":"Glashütten","name_adm0":"Österreich","name_adm1":"Oberösterreich","name_adm2":"Urfahr-Umgebung","name_en":"Glashütten","iso":"AT"},"geometry":{"type":"Point","coordinates":[14.30528,48.48056]}},{"type":"Feature","properties":{"country_en":"Austria","name":"Hals","name_adm0":"Österreich","name_adm1":"Oberösterreich","name_adm2":"Urfahr-Umgebung","name_en":"Hals","iso":"AT"},"geometry":{"type":"Point","coordinates":[14.19322,48.40206]}},