{"type":"FeatureCollection","features":[{"type":"Feature","properties":{"country_en":"Australia","name":"Point Nepean","name_adm0":"Australia","name_adm1":"Victoria","name_adm2":"Mornington Peninsula","name_en":"Point Nepean","iso":"AU"},"geometry":{"type":"Point","coordinates":[144.667539,-38.30947]}},{"type":"Feature","properties":{"country_en":"Australia","name":"Billilingra","name_adm0":"Australia","name_adm1":"New South Wales","name_adm2":"Cooma-monaro","name_en":"Billilingra","iso":"AU"},"geometry":{"type":"Point","coordinates":[149.14135499999998,-35.999092]}},{"type":"Feature","properties":{"country_en":"Australia","name":"Belconnen","name_adm0":"Australia","name_adm1":"Australian Capital Territory","name_adm2":"Canberra","name_en":"Belconnen","iso":"AU"},"geometry":{"type":"Point","coordinates":[149.08333,-35.21667]}},{"type":"Feature","properties":{"country_en":"Australia","name":"Quoiba","name_adm0":"Australia","name_adm1":"Tasmania","name_adm2":"Devonport","name_en":"Quoiba","iso":"AU"},"geometry":{"type":"Point","coordinates":[146.33558,-41.208479999999994]}},{"type":"Feature","properties":{"country_en":"Australia","name":"Caveside","name_adm0":"Australia","name_adm1":"Tasmania","name_adm2":"Meander Valley","name_en":"Caveside","iso":"AU"},"geometry":{"type":"Point","coordinates":[146.41667,-41.61667]}},{"type":"Feature","properties":{"country_en":"Australia","name":"Hay Valley","name_adm0":"Australia","name_adm1":"South Australia","name_adm2":"Mount Barker","name_en":"Hay Valley","iso":"AU"},"geometry":{"type":"Point","coordinates":[138.53333,-35.08333]}},{"type":"Feature","properties":{"country_en":"Australia","name":"Talbot","name_adm0":"Australia","name_adm1":"Victoria","name_adm2":"Central Goldfields","name_en":"Talbot","iso":"AU"},"geometry":{"type":"Point","coordinates":[143.70174,-37.17231]}},{"type":"Feature","properties":{"country_en":"Australia","name":"Island Bend","name_adm0":"Australia","name_adm1":"New South Wales","name_adm2":"Snowy River","name_en":"Island Bend","iso":"AU"},"geometry":{"type":"Point","coordinates":[148.48333,-36.31667]}},{"type":"Feature","properties":{"country_en":"Australia","name":"Inverleigh","name_adm0":"Australia","name_adm1":"Victoria","name_adm2":"Golden Plains","name_en":"Inverleigh","iso":"AU"},"geometry":{"type":"Point","coordinates":[144.05746,-38.10092]}},{"type":"Feature","properties":{"country_en":"Australia","name":"East Wellington","name_adm0":"Australia","name_adm1":"South Australia","name_adm2":"The Coorong","name_en":"East Wellington","iso":"AU"},"geometry":{"type":"Point","coordinates":[139.38332999999997,-35.35]}},{"type":"Feature","properties":{"country_en":"Australia","name":"Harlaxton","name_adm0":"Australia","name_adm1":"Queensland","name_adm2":"Toowoomba Regional","name_en":"Harlaxton","iso":"AU"},"geometry":{"type":"Point","coordinates":[151.96667,-27.533329999999996]}},{"type":"Feature","properties":{"country_en":"Australia","name":"Hume","name_adm0":"Australia","name_adm1":"Victoria","name_adm2":"Hume","name_en":"Hume","iso":"AU"},"geometry":{"type":"Point","coordinates":[144.80511,-37.59717]}},{"type":"Feature","properties":{"country_en":"Australia","name":"Thabeban","name_adm0":"Australia","name_adm1":"Queensland","name_adm2":"Bundaberg Regional","name_en":"Thabeban","iso":"AU"},"geometry":{"type":"Point","coordinates":[152.35,-24.9]}},{"type":"Feature","properties":{"country_en":"Australia","name":"Dardanup","name_adm0":"Australia","name_adm1":"Western Australia","name_adm2":"Dardanup","name_en":"Dardanup","iso":"AU"},"geometry":{"type":"Point","coordinates":[115.8741,-33.416109999999996]}},{"type":"Feature","properties":{"country_en":"Australia","name":"City of Fremantle","name_adm0":"Australia","name_adm1":"Western Australia","name_adm2":"City of Fremantle","name_en":"City of Fremantle","iso":"AU"},"geometry":{"type":"Point","coordinates":[115.76379,-32.05165]}},{"type":"Feature","properties":{"country_en":"Australia","name":"Rockingham","name_adm0":"Australia","name_adm1":"Western Australia","name_adm2":"Rockingham","name_en":"Rockingham","iso":"AU"},"geometry":{"type":"Point","coordinates":[115.73237999999999,-32.28239]}},{"type":"Feature","properties":{"country_en":"Australia","name":"Gingin","name_adm0":"Australia","name_adm1":"Western Australia","name_adm2":"Gingin","name_en":"Gingin","iso":"AU"},"geometry":{"type":"Point","coordinates":[115.65944,-31.18435]}},{"type":"Feature","properties":{"country_en":"Australia","name":"Wyberba","name_adm0":"Australia","name_adm1":"Queensland","name_adm2":"Southern Downs Regional","name_en":"Wyberba","iso":"AU"},"geometry":{"type":"Point","coordinates":[151.86667,-28.849999999999998]}},{"type":"Feature","properties":{"country_en":"Australia","name":"Swinger Hill","name_adm0":"Australia","name_adm1":"Australian Capital Territory","name_adm2":"Canberra","name_en":"Swinger Hill","iso":"AU"},"geometry":{"type":"Point","coordinates":[149.097948,-35.348595]}},{"type":"Feature","properties":{"country_en":"Australia","name":"Carbine","name_adm0":"Australia","name_adm1":"Western Australia","name_adm2":"Coolgardie","name_en":"Carbine","iso":"AU"},"geometry":{"type":"Point","coordinates":[120.9,-30.48333]}},{"type":"Feature","properties":{"country_en":"Australia","name":"Singleton Milpo","name_adm0":"Australia","name_adm1":"New South Wales","name_adm2":"Singleton","name_en":"Singleton Milpo","iso":"AU"},"geometry":{"type":"Point","coordinates":[151.174667,-32.564465]}},{"type":"Feature","properties":{"country_en":"Australia","name":"Naracoorte Lucindale","name_adm0":"Australia","name_adm1":"South Australia","name_adm2":"Naracoorte Lucindale","name_en":"Naracoorte Lucindale","iso":"AU"},"geometry":{"type":"Point","coordinates":[140.773315,-36.848828]}},{"type":"Feature","properties":{"country_en":"Australia","name":"Port Pirie","name_adm0":"Australia","name_adm1":"South Australia","name_adm2":"Port Pirie","name_en":"Port Pirie","iso":"AU"},"geometry":{"type":"Point","coordinates":[138.1426905,-33.2932285]}},{"type":"Feature","properties":{"country_en":"Australia","name":"Barrys Reef","name_adm0":"Australia","name_adm1":"Victoria","name_adm2":"Moorabool","name_en":"Barrys Reef","iso":"AU"},"geometry":{"type":"Point","coordinates":[144.29999999999998,-37.46667]}},{"type":"Feature","properties":{"country_en":"Australia","name":"Beauchamp","name_adm0":"Australia","name_adm1":"Victoria","name_adm2":"Gannawarra","name_en":"Beauchamp","iso":"AU"},"geometry":{"type":"Point","coordinates":[143.56667,-35.61667]}},{"type":"Feature","properties":{"country_en":"Australia","name":"Beverley","name_adm0":"Australia","name_adm1":"Western Australia","name_adm2":"Beverley","name_en":"Beverley","iso":"AU"},"geometry":{"type":"Point","coordinates":[116.92280000000001,-32.10896]}},{"type":"Feature","properties":{"country_en":"Australia","name":"Bishopsbourne","name_adm0":"Australia","name_adm1":"Tasmania","name_adm2":"Northern Midlands","name_en":"Bishopsbourne","iso":"AU"},"geometry":{"type":"Point","coordinates":[147.01667,-41.58333]}},{"type":"Feature","properties":{"country_en":"Australia","name":"Beloka","name_adm0":"Australia","name_adm1":"New South Wales","name_adm2":"Snowy River","name_en":"Beloka","iso":"AU"},"geometry":{"type":"Point","coordinates":[148.73333,-36.53332999999999]}},{"type":"Feature","properties":{"country_en":"Australia","name":"Bolong","name_adm0":"Australia","name_adm1":"New South Wales","name_adm2":"Shoalhaven","name_en":"Bolong","iso":"AU"},"geometry":{"type":"Point","coordinates":[150.66667,-34.85]}},{"type":"Feature","properties":{"country_en":"Australia","name":"Boolarra South","name_adm0":"Australia","name_adm1":"Victoria","name_adm2":"Latrobe","name_en":"Boolarra South","iso":"AU"},"geometry":{"type":"Point","coordinates":[146.28333,-38.45]}},{"type":"Feature","properties":{"country_en":"Australia","name":"Broad Creek","name_adm0":"Australia","name_adm1":"South Australia","name_adm2":"Mount Remarkable","name_en":"Broad Creek","iso":"AU"},"geometry":{"type":"Point","coordinates":[138.11667,-33.1]}},{"type":"Feature","properties":{"country_en":"Australia","name":"Brooklana","name_adm0":"Australia","name_adm1":"New South Wales","name_adm2":"Coffs Harbour","name_en":"Brooklana","iso":"AU"},"geometry":{"type":"Point","coordinates":[152.85,-30.26667]}},{"type":"Feature","properties":{"country_en":"Australia","name":"Charlestown","name_adm0":"Australia","name_adm1":"New South Wales","name_adm2":"Lake Macquarie","name_en":"Charlestown","iso":"AU"},"geometry":{"type":"Point","coordinates":[151.66667,-32.95]}},{"type":"Feature","properties":{"country_en":"Australia","name":"Bullarto","name_adm0":"Australia","name_adm1":"Victoria","name_adm2":"Hepburn","name_en":"Bullarto","iso":"AU"},"geometry":{"type":"Point","coordinates":[144.23333,-37.4]}},{"type":"Feature","properties":{"country_en":"Australia","name":"Croki","name_adm0":"Australia","name_adm1":"New South Wales","name_adm2":"Greater Taree","name_en":"Croki","iso":"AU"},"geometry":{"type":"Point","coordinates":[152.6,-31.88333]}},{"type":"Feature","properties":{"country_en":"Australia","name":"Cromer","name_adm0":"Australia","name_adm1":"South Australia","name_adm2":"Barossa","name_en":"Cromer","iso":"AU"},"geometry":{"type":"Point","coordinates":[139,-34.76667]}},{"type":"Feature","properties":{"country_en":"Australia","name":"Cudgera Creek","name_adm0":"Australia","name_adm1":"New South Wales","name_adm2":"Tweed","name_en":"Cudgera Creek","iso":"AU"},"geometry":{"type":"Point","coordinates":[153.51667,-28.383329999999997]}},{"type":"Feature","properties":{"country_en":"Australia","name":"Dugandan","name_adm0":"Australia","name_adm1":"Queensland","name_adm2":"Scenic Rim Regional","name_en":"Dugandan","iso":"AU"},"geometry":{"type":"Point","coordinates":[152.68333,-28.01667]}},{"type":"Feature","properties":{"country_en":"Australia","name":"Gilldora","name_adm0":"Australia","name_adm1":"Queensland","name_adm2":"Gympie Regional","name_en":"Gilldora","iso":"AU"},"geometry":{"type":"Point","coordinates":[152.66666999999998,-26.299999999999997]}},{"type":"Feature","properties":{"country_en":"Australia","name":"Gillingarra","name_adm0":"Australia","name_adm1":"Western Australia","name_adm2":"Victoria Plains","name_en":"Gillingarra","iso":"AU"},"geometry":{"type":"Point","coordinates":[116.05000000000001,-30.93333]}},{"type":"Feature","properties":{"country_en":"Australia","name":"Glastonbury","name_adm0":"Australia","name_adm1":"Queensland","name_adm2":"Gympie Regional","name_en":"Glastonbury","iso":"AU"},"geometry":{"type":"Point","coordinates":[152.51667,-26.21667]}},{"type":"Feature","properties":{"country_en":"Australia","name":"Glen Elgin","name_adm0":"Australia","name_adm1":"New South Wales","name_adm2":"Glen Innes Severn","name_en":"Glen Elgin","iso":"AU"},"geometry":{"type":"Point","coordinates":[152.11667,-29.583329999999997]}},{"type":"Feature","properties":{"country_en":"Australia","name":"Glen Warning","name_adm0":"Australia","name_adm1":"New South Wales","name_adm2":"Tweed","name_en":"Glen Warning","iso":"AU"},"geometry":{"type":"Point","coordinates":[153.26667,-28.43333]}},{"type":"Feature","properties":{"country_en":"Australia","name":"Glenalbyn","name_adm0":"Australia","name_adm1":"Victoria","name_adm2":"Loddon","name_en":"Glenalbyn","iso":"AU"},"geometry":{"type":"Point","coordinates":[143.73333,-36.51667]}},{"type":"Feature","properties":{"country_en":"Australia","name":"Goldsborough","name_adm0":"Australia","name_adm1":"Victoria","name_adm2":"Loddon","name_en":"Goldsborough","iso":"AU"},"geometry":{"type":"Point","coordinates":[143.68332999999998,-36.81667]}},{"type":"Feature","properties":{"country_en":"Australia","name":"Hatton Vale","name_adm0":"Australia","name_adm1":"Queensland","name_adm2":"Lockyer Valley Regional","name_en":"Hatton Vale","iso":"AU"},"geometry":{"type":"Point","coordinates":[152.46667,-27.566669999999995]}},{"type":"Feature","properties":{"country_en":"Australia","name":"Hawkins Creek","name_adm0":"Australia","name_adm1":"Queensland","name_adm2":"Hinchinbrook","name_en":"Hawkins Creek","iso":"AU"},"geometry":{"type":"Point","coordinates":[146.1,-18.599999999999998]}},{"type":"Feature","properties":{"country_en":"Australia","name":"Forest Lodge","name_adm0":"Australia","name_adm1":"New South Wales","name_adm2":"Sydney","name_en":"Forest Lodge","iso":"AU"},"geometry":{"type":"Point","coordinates":[151.18,-33.88137]}},{"type":"Feature","properties":{"country_en":"Australia","name":"Blackburn","name_adm0":"Australia","name_adm1":"Victoria","name_adm2":"Whitehorse","name_en":"Blackburn","iso":"AU"},"geometry":{"type":"Point","coordinates":[145.15326,-37.81901]}},{"type":"Feature","properties":{"country_en":"Australia","name":"Koo Wee Rup North","name_adm0":"Australia","name_adm1":"Victoria","name_adm2":"Cardinia","name_en":"Koo Wee Rup North","iso":"AU"},"geometry":{"type":"Point","coordinates":[145.53333,-38.16667]}},{"type":"Feature","properties":{"country_en":"Australia","name":"Lulworth","name_adm0":"Australia","name_adm1":"Tasmania","name_adm2":"George","name_en":"Lulworth","iso":"AU"},"geometry":{"type":"Point","coordinates":[147.06667,-41]}},{"type":"Feature","properties":{"country_en":"Australia","name":"Koonorigan","name_adm0":"Australia","name_adm1":"New South Wales","name_adm2":"Lismore","name_en":"Koonorigan","iso":"AU"},"geometry":{"type":"Point","coordinates":[153.23333,-28.68333]}},{"type":"Feature","properties":{"country_en":"Australia","name":"Mount Cole","name_adm0":"Australia","name_adm1":"Victoria","name_adm2":"Ararat","name_en":"Mount Cole","iso":"AU"},"geometry":{"type":"Point","coordinates":[143.2,-37.25]}},{"type":"Feature","properties":{"country_en":"Australia","name":"Napier","name_adm0":"Australia","name_adm1":"New South Wales","name_adm2":"Lockhart","name_en":"Napier","iso":"AU"},"geometry":{"type":"Point","coordinates":[146.78333,-35.25]}},{"type":"Feature","properties":{"country_en":"Australia","name":"Pejar","name_adm0":"Australia","name_adm1":"New South Wales","name_adm2":"Upper Lachlan","name_en":"Pejar","iso":"AU"},"geometry":{"type":"Point","coordinates":[149.58333,-34.58333]}},{"type":"Feature","properties":{"country_en":"Australia","name":"Pemberton","name_adm0":"Australia","name_adm1":"Queensland","name_adm2":"Bundaberg Regional","name_en":"Pemberton","iso":"AU"},"geometry":{"type":"Point","coordinates":[152.45,-24.86667]}},{"type":"Feature","properties":{"country_en":"Australia","name":"Sandleton","name_adm0":"Australia","name_adm1":"South Australia","name_adm2":"Mid Murray","name_en":"Sandleton","iso":"AU"},"geometry":{"type":"Point","coordinates":[139.33333,-34.46667]}},{"type":"Feature","properties":{"country_en":"Australia","name":"Sinclair","name_adm0":"Australia","name_adm1":"Victoria","name_adm2":"Glenelg","name_en":"Sinclair","iso":"AU"},"geometry":{"type":"Point","coordinates":[141.55,-38.08333]}},{"type":"Feature","properties":{"country_en":"Australia","name":"Talarm","name_adm0":"Australia","name_adm1":"New South Wales","name_adm2":"Nambucca","name_en":"Talarm","iso":"AU"},"geometry":{"type":"Point","coordinates":[152.85,-30.716669999999997]}},{"type":"Feature","properties":{"country_en":"Australia","name":"Talmo","name_adm0":"Australia","name_adm1":"New South Wales","name_adm2":"Yass Valley","name_en":"Talmo","iso":"AU"},"geometry":{"type":"Point","coordinates":[148.61667,-34.883329999999994]}},{"type":"Feature","properties":{"country_en":"Australia","name":"Wall","name_adm0":"Australia","name_adm1":"South Australia","name_adm2":"Mid Murray","name_en":"Wall","iso":"AU"},"geometry":{"type":"Point","coordinates":[139.31667,-34.96667]}},{"type":"Feature","properties":{"country_en":"Australia","name":"Wallacedale North","name_adm0":"Australia","name_adm1":"Victoria","name_adm2":"Glenelg","name_en":"Wallacedale North","iso":"AU"},"geometry":{"type":"Point","coordinates":[141.81667,-37.91667]}},{"type":"Feature","properties":{"country_en":"Australia","name":"Wallarobba","name_adm0":"Australia","name_adm1":"New South Wales","name_adm2":"Dungog","name_en":"Wallarobba","iso":"AU"},"geometry":{"type":"Point","coordinates":[151.7,-32.5]}},{"type":"Feature","properties":{"country_en":"Australia","name":"Weedallion","name_adm0":"Australia","name_adm1":"New South Wales","name_adm2":"Young","name_en":"Weedallion","iso":"AU"},"geometry":{"type":"Point","coordinates":[147.93333,-34.2]}},{"type":"Feature","properties":{"country_en":"Australia","name":"Woodford Leigh","name_adm0":"Australia","name_adm1":"New South Wales","name_adm2":"Clarence Valley","name_en":"Woodford Leigh","iso":"AU"},"geometry":{"type":"Point","coordinates":[153.13333,-29.483329999999995]}},{"type":"Feature","properties":{"country_en":"Australia","name":"Woodhill","name_adm0":"Australia","name_adm1":"New South Wales","name_adm2":"Shoalhaven","name_en":"Woodhill","iso":"AU"},"geometry":{"type":"Point","coordinates":[150.7,-34.73333]}},{"type":"Feature","properties":{"country_en":"Australia","name":"Colton","name_adm0":"Australia","name_adm1":"South Australia","name_adm2":"Elliston","name_en":"Colton","iso":"AU"},"geometry":{"type":"Point","coordinates":[134.93333,-33.48333]}},{"type":"Feature","properties":{"country_en":"Australia","name":"Charra","name_adm0":"Australia","name_adm1":"South Australia","name_adm2":"Ceduna","name_en":"Charra","iso":"AU"},"geometry":{"type":"Point","coordinates":[133.33333,-32.08333]}},{"type":"Feature","properties":{"country_en":"Australia","name":"Cheepie","name_adm0":"Australia","name_adm1":"Queensland","name_adm2":"Quilpie","name_en":"Cheepie","iso":"AU"},"geometry":{"type":"Point","coordinates":[145.01666999999998,-26.63333]}},{"type":"Feature","properties":{"country_en":"Australia","name":"Louth Bay","name_adm0":"Australia","name_adm1":"South Australia","name_adm2":"Lower Eyre Peninsula","name_en":"Louth Bay","iso":"AU"},"geometry":{"type":"Point","coordinates":[135.9,-34.55]}},{"type":"Feature","properties":{"country_en":"Australia","name":"Lostock","name_adm0":"Australia","name_adm1":"New South Wales","name_adm2":"Dungog","name_en":"Lostock","iso":"AU"},"geometry":{"type":"Point","coordinates":[151.45,-32.33333]}},{"type":"Feature","properties":{"country_en":"Australia","name":"Humula","name_adm0":"Australia","name_adm1":"New South Wales","name_adm2":"Wagga Wagga","name_en":"Humula","iso":"AU"},"geometry":{"type":"Point","coordinates":[147.74999999999997,-35.48333]}},{"type":"Feature","properties":{"country_en":"Australia","name":"Murdinga","name_adm0":"Australia","name_adm1":"South Australia","name_adm2":"Elliston","name_en":"Murdinga","iso":"AU"},"geometry":{"type":"Point","coordinates":[135.71667,-33.71667]}},{"type":"Feature","properties":{"country_en":"Australia","name":"Mundijong","name_adm0":"Australia","name_adm1":"Western Australia","name_adm2":"Serpentine-jarrahdale","name_en":"Mundijong","iso":"AU"},"geometry":{"type":"Point","coordinates":[115.98563999999999,-32.29217]}},{"type":"Feature","properties":{"country_en":"Australia","name":"Newbridge","name_adm0":"Australia","name_adm1":"New South Wales","name_adm2":"Blayney","name_en":"Newbridge","iso":"AU"},"geometry":{"type":"Point","coordinates":[149.38333,-33.58333]}},{"type":"Feature","properties":{"country_en":"Australia","name":"Wallangra","name_adm0":"Australia","name_adm1":"New South Wales","name_adm2":"Inverell","name_en":"Wallangra","iso":"AU"},"geometry":{"type":"Point","coordinates":[150.89999999999998,-29.266669999999998]}},{"type":"Feature","properties":{"country_en":"Australia","name":"Wagoora","name_adm0":"Australia","name_adm1":"Queensland","name_adm2":"Mackay Regional","name_en":"Wagoora","iso":"AU"},"geometry":{"type":"Point","coordinates":[148.7,-20.85]}},{"type":"Feature","properties":{"country_en":"Australia","name":"Amberley","name_adm0":"Australia","name_adm1":"Queensland","name_adm2":"Ipswich","name_en":"Amberley","iso":"AU"},"geometry":{"type":"Point","coordinates":[152.7,-27.63333]}},{"type":"Feature","properties":{"country_en":"Australia","name":"Andergrove","name_adm0":"Australia","name_adm1":"Queensland","name_adm2":"Mackay Regional","name_en":"Andergrove","iso":"AU"},"geometry":{"type":"Point","coordinates":[149.18333,-21.08333]}},{"type":"Feature","properties":{"country_en":"Australia","name":"Como","name_adm0":"Australia","name_adm1":"New South Wales","name_adm2":"Sutherland","name_en":"Como","iso":"AU"},"geometry":{"type":"Point","coordinates":[151.06667,-34]}},{"type":"Feature","properties":{"country_en":"Australia","name":"Coorparoo","name_adm0":"Australia","name_adm1":"Queensland","name_adm2":"Brisbane","name_en":"Coorparoo","iso":"AU"},"geometry":{"type":"Point","coordinates":[153.05825999999996,-27.49325]}},{"type":"Feature","properties":{"country_en":"Australia","name":"Bamarang","name_adm0":"Australia","name_adm1":"New South Wales","name_adm2":"Shoalhaven","name_en":"Bamarang","iso":"AU"},"geometry":{"type":"Point","coordinates":[150.53333,-34.9]}},{"type":"Feature","properties":{"country_en":"Australia","name":"Bangalee","name_adm0":"Australia","name_adm1":"Queensland","name_adm2":"Rockhampton Regional","name_en":"Bangalee","iso":"AU"},"geometry":{"type":"Point","coordinates":[150.763731,-23.075858]}},{"type":"Feature","properties":{"country_en":"Australia","name":"Boorolite","name_adm0":"Australia","name_adm1":"Victoria","name_adm2":"Mansfield","name_en":"Boorolite","iso":"AU"},"geometry":{"type":"Point","coordinates":[146.2,-37.15]}},{"type":"Feature","properties":{"country_en":"Australia","name":"Burra","name_adm0":"Australia","name_adm1":"New South Wales","name_adm2":"Tumbarumba","name_en":"Burra","iso":"AU"},"geometry":{"type":"Point","coordinates":[148.046413,-35.839939]}},{"type":"Feature","properties":{"country_en":"Australia","name":"Copacabana","name_adm0":"Australia","name_adm1":"New South Wales","name_adm2":"Gosford","name_en":"Copacabana","iso":"AU"},"geometry":{"type":"Point","coordinates":[151.436791,-33.49166]}},{"type":"Feature","properties":{"country_en":"Australia","name":"Kanimbla","name_adm0":"Australia","name_adm1":"New South Wales","name_adm2":"Lithgow","name_en":"Kanimbla","iso":"AU"},"geometry":{"type":"Point","coordinates":[150.229797,-33.633487]}},{"type":"Feature","properties":{"country_en":"Australia","name":"Kaputar","name_adm0":"Australia","name_adm1":"New South Wales","name_adm2":"Narrabri","name_en":"Kaputar","iso":"AU"},"geometry":{"type":"Point","coordinates":[150.133323,-30.282699]}},{"type":"Feature","properties":{"country_en":"Australia","name":"Korora","name_adm0":"Australia","name_adm1":"New South Wales","name_adm2":"Coffs Harbour","name_en":"Korora","iso":"AU"},"geometry":{"type":"Point","coordinates":[153.139801,-30.254804]}},{"type":"Feature","properties":{"country_en":"Australia","name":"Elizabeth Town","name_adm0":"Australia","name_adm1":"Tasmania","name_adm2":"Meander Valley","name_en":"Elizabeth Town","iso":"AU"},"geometry":{"type":"Point","coordinates":[146.56667,-41.45]}},{"type":"Feature","properties":{"country_en":"Australia","name":"Kosciuszko","name_adm0":"Australia","name_adm1":"New South Wales","name_adm2":"Tumbarumba","name_en":"Kosciuszko","iso":"AU"},"geometry":{"type":"Point","coordinates":[148.19354999999996,-36.528674]}},{"type":"Feature","properties":{"country_en":"Australia","name":"Badger Head","name_adm0":"Australia","name_adm1":"Tasmania","name_adm2":"West Tamar","name_en":"Badger Head","iso":"AU"},"geometry":{"type":"Point","coordinates":[146.675205,-41.101086]}},{"type":"Feature","properties":{"country_en":"Australia","name":"Bailey Creek","name_adm0":"Australia","name_adm1":"Queensland","name_adm2":"Cairns Regional","name_en":"Bailey Creek","iso":"AU"},"geometry":{"type":"Point","coordinates":[145.438899,-16.204454]}},{"type":"Feature","properties":{"country_en":"Australia","name":"Chermside South","name_adm0":"Australia","name_adm1":"Queensland","name_adm2":"Brisbane","name_en":"Chermside South","iso":"AU"},"geometry":{"type":"Point","coordinates":[153.027083,-27.388543999999996]}},{"type":"Feature","properties":{"country_en":"Australia","name":"Pink Lake","name_adm0":"Australia","name_adm1":"Western Australia","name_adm2":"Esperance","name_en":"Pink Lake","iso":"AU"},"geometry":{"type":"Point","coordinates":[121.83110450000001,-33.8532515]}},{"type":"Feature","properties":{"country_en":"Australia","name":"Pipers Bay","name_adm0":"Australia","name_adm1":"New South Wales","name_adm2":"Great Lakes","name_en":"Pipers Bay","iso":"AU"},"geometry":{"type":"Point","coordinates":[152.563007,-32.216539]}},{"type":"Feature","properties":{"country_en":"Australia","name":"Homebush","name_adm0":"Australia","name_adm1":"New South Wales","name_adm2":"Municipality of Strathfield","name_en":"Homebush","iso":"AU"},"geometry":{"type":"Point","coordinates":[151.08333,-33.86667]}},{"type":"Feature","properties":{"country_en":"Australia","name":"Holsworthy","name_adm0":"Australia","name_adm1":"New South Wales","name_adm2":"City of Liverpool","name_en":"Holsworthy","iso":"AU"},"geometry":{"type":"Point","coordinates":[150.96667,-33.98333]}},{"type":"Feature","properties":{"country_en":"Australia","name":"Northern Midlands","name_adm0":"Australia","name_adm1":"Tasmania","name_adm2":"Northern Midlands","name_en":"Northern Midlands","iso":"AU"},"geometry":{"type":"Point","coordinates":[147.45776,-41.87988]}},{"type":"Feature","properties":{"country_en":"Australia","name":"Maroubra","name_adm0":"Australia","name_adm1":"New South Wales","name_adm2":"City of Randwick","name_en":"Maroubra","iso":"AU"},"geometry":{"type":"Point","coordinates":[151.23333,-33.95]}},{"type":"Feature","properties":{"country_en":"Australia","name":"Loddon","name_adm0":"Australia","name_adm1":"Victoria","name_adm2":"Loddon","name_en":"Loddon","iso":"AU"},"geometry":{"type":"Point","coordinates":[143.82964,-36.40406]}},{"type":"Feature","properties":{"country_en":"Australia","name":"Mid Murray","name_adm0":"Australia","name_adm1":"South Australia","name_adm2":"Mid Murray","name_en":"Mid Murray","iso":"AU"},"geometry":{"type":"Point","coordinates":[139.41639,-34.41566]}},{"type":"Feature","properties":{"country_en":"Australia","name":"Loxton Waikerie","name_adm0":"Australia","name_adm1":"South Australia","name_adm2":"Loxton Waikerie","name_en":"Loxton Waikerie","iso":"AU"},"geometry":{"type":"Point","coordinates":[140.28346,-34.48161]}},{"type":"Feature","properties":{"country_en":"Australia","name":"Medlow Bath","name_adm0":"Australia","name_adm1":"New South Wales","name_adm2":"Blue Mountains","name_en":"Medlow Bath","iso":"AU"},"geometry":{"type":"Point","coordinates":[150.2821,-33.67934999999999]}},{"type":"Feature","properties":{"country_en":"Australia","name":"Coomalie","name_adm0":"Australia","name_adm1":"Northern Territory","name_adm2":"Coomalie","name_en":"Coomalie","iso":"AU"},"geometry":{"type":"Point","coordinates":[131.08427,-13.04322]}},{"type":"Feature","properties":{"country_en":"Australia","name":"Alice Springs","name_adm0":"Australia","name_adm1":"Northern Territory","name_adm2":"Alice Springs","name_en":"Alice Springs","iso":"AU"},"geometry":{"type":"Point","coordinates":[133.83321,-23.731]}},{"type":"Feature","properties":{"country_en":"Australia","name":"Lower Eyre Peninsula","name_adm0":"Australia","name_adm1":"South Australia","name_adm2":"Lower Eyre Peninsula","name_en":"Lower Eyre Peninsula","iso":"AU"},"geometry":{"type":"Point","coordinates":[135.70114,-34.48806]}},{"type":"Feature","properties":{"country_en":"Australia","name":"Streaky Bay","name_adm0":"Australia","name_adm1":"South Australia","name_adm2":"Streaky Bay","name_en":"Streaky Bay","iso":"AU"},"geometry":{"type":"Point","coordinates":[134.55116,-32.73808]}},{"type":"Feature","properties":{"country_en":"Australia","name":"Bass Coast","name_adm0":"Australia","name_adm1":"Victoria","name_adm2":"Bass Coast","name_en":"Bass Coast","iso":"AU"},"geometry":{"type":"Point","coordinates":[145.4639,-38.48507]}},{"type":"Feature","properties":{"country_en":"Australia","name":"Parkdale","name_adm0":"Australia","name_adm1":"Victoria","name_adm2":"Kingston","name_en":"Parkdale","iso":"AU"},"geometry":{"type":"Point","coordinates":[145.07339,-37.99423]}},{"type":"Feature","properties":{"country_en":"Australia","name":"Phillip","name_adm0":"Australia","name_adm1":"Australian Capital Territory","name_adm2":"Canberra","name_en":"Phillip","iso":"AU"},"geometry":{"type":"Point","coordinates":[149.09151,-35.35035]}},{"type":"Feature","properties":{"country_en":"Australia","name":"Yarraville","name_adm0":"Australia","name_adm1":"Victoria","name_adm2":"City of Maribyrnong","name_en":"Yarraville","iso":"AU"},"geometry":{"type":"Point","coordinates":[144.9,-37.81667]}},{"type":"Feature","properties":{"country_en":"Australia","name":"Baerami Creek","name_adm0":"Australia","name_adm1":"New South Wales","name_adm2":"Muswellbrook","name_en":"Baerami Creek","iso":"AU"},"geometry":{"type":"Point","coordinates":[150.46667,-32.5]}},{"type":"Feature","properties":{"country_en":"Australia","name":"Burbanks","name_adm0":"Australia","name_adm1":"Western Australia","name_adm2":"Coolgardie","name_en":"Burbanks","iso":"AU"},"geometry":{"type":"Point","coordinates":[121.13333,-31.05]}},{"type":"Feature","properties":{"country_en":"Australia","name":"Burdett","name_adm0":"Australia","name_adm1":"New South Wales","name_adm2":"Cabonne","name_en":"Burdett","iso":"AU"},"geometry":{"type":"Point","coordinates":[148.6,-33.41667]}},{"type":"Feature","properties":{"country_en":"Australia","name":"Burges","name_adm0":"Australia","name_adm1":"Western Australia","name_adm2":"York","name_en":"Burges","iso":"AU"},"geometry":{"type":"Point","coordinates":[116.78332999999999,-31.81667]}},{"type":"Feature","properties":{"country_en":"Australia","name":"Carrs Creek","name_adm0":"Australia","name_adm1":"New South Wales","name_adm2":"Clarence Valley","name_en":"Carrs Creek","iso":"AU"},"geometry":{"type":"Point","coordinates":[152.93333,-29.65]}},{"type":"Feature","properties":{"country_en":"Australia","name":"Cascades","name_adm0":"Australia","name_adm1":"Tasmania","name_adm2":"Hobart","name_en":"Cascades","iso":"AU"},"geometry":{"type":"Point","coordinates":[147.26667,-42.91667]}},{"type":"Feature","properties":{"country_en":"Australia","name":"Elingamite","name_adm0":"Australia","name_adm1":"Victoria","name_adm2":"Corangamite","name_en":"Elingamite","iso":"AU"},"geometry":{"type":"Point","coordinates":[143.01667,-38.38333]}},{"type":"Feature","properties":{"country_en":"Australia","name":"Bargara","name_adm0":"Australia","name_adm1":"Queensland","name_adm2":"Bundaberg Regional","name_en":"Bargara","iso":"AU"},"geometry":{"type":"Point","coordinates":[152.46257,-24.81476]}},{"type":"Feature","properties":{"country_en":"Australia","name":"Elingamite North","name_adm0":"Australia","name_adm1":"Victoria","name_adm2":"Corangamite","name_en":"Elingamite North","iso":"AU"},"geometry":{"type":"Point","coordinates":[143.01667,-38.35]}},{"type":"Feature","properties":{"country_en":"Australia","name":"Figtree Creek","name_adm0":"Australia","name_adm1":"Queensland","name_adm2":"Cairns Regional","name_en":"Figtree Creek","iso":"AU"},"geometry":{"type":"Point","coordinates":[145.9,-17.2]}},{"type":"Feature","properties":{"country_en":"Australia","name":"Finnie","name_adm0":"Australia","name_adm1":"Queensland","name_adm2":"Toowoomba Regional","name_en":"Finnie","iso":"AU"},"geometry":{"type":"Point","coordinates":[151.9,-27.61667]}},{"type":"Feature","properties":{"country_en":"Australia","name":"Fish Point","name_adm0":"Australia","name_adm1":"Victoria","name_adm2":"Swan Hill","name_en":"Fish Point","iso":"AU"},"geometry":{"type":"Point","coordinates":[143.71667,-35.43332999999999]}},{"type":"Feature","properties":{"country_en":"Australia","name":"Glen Moan","name_adm0":"Australia","name_adm1":"New South Wales","name_adm2":"Liverpool Plains","name_en":"Glen Moan","iso":"AU"},"geometry":{"type":"Point","coordinates":[150.28332999999998,-31.750000000000004]}},{"type":"Feature","properties":{"country_en":"Australia","name":"Gunyah","name_adm0":"Australia","name_adm1":"Victoria","name_adm2":"South Gippsland","name_en":"Gunyah","iso":"AU"},"geometry":{"type":"Point","coordinates":[146.31667,-38.53333]}},{"type":"Feature","properties":{"country_en":"Australia","name":"Gurrumbah","name_adm0":"Australia","name_adm1":"Queensland","name_adm2":"Tablelands Regional","name_en":"Gurrumbah","iso":"AU"},"geometry":{"type":"Point","coordinates":[145,-17.51667]}},{"type":"Feature","properties":{"country_en":"Australia","name":"Gurrundah","name_adm0":"Australia","name_adm1":"New South Wales","name_adm2":"Upper Lachlan","name_en":"Gurrundah","iso":"AU"},"geometry":{"type":"Point","coordinates":[149.4,-34.66667]}},{"type":"Feature","properties":{"country_en":"Australia","name":"Blackheath","name_adm0":"Australia","name_adm1":"New South Wales","name_adm2":"Blue Mountains","name_en":"Blackheath","iso":"AU"},"geometry":{"type":"Point","coordinates":[150.28576,-33.63375]}},{"type":"Feature","properties":{"country_en":"Australia","name":"Bridgewater","name_adm0":"Australia","name_adm1":"Tasmania","name_adm2":"Brighton","name_en":"Bridgewater","iso":"AU"},"geometry":{"type":"Point","coordinates":[147.22784,-42.73719]}},{"type":"Feature","properties":{"country_en":"Australia","name":"Judbury","name_adm0":"Australia","name_adm1":"Tasmania","name_adm2":"Huon Valley","name_en":"Judbury","iso":"AU"},"geometry":{"type":"Point","coordinates":[146.91667,-43]}},{"type":"Feature","properties":{"country_en":"Australia","name":"Junee","name_adm0":"Australia","name_adm1":"Tasmania","name_adm2":"Derwent Valley","name_en":"Junee","iso":"AU"},"geometry":{"type":"Point","coordinates":[146.65,-42.74999999999999]}},{"type":"Feature","properties":{"country_en":"Australia","name":"Junee Reefs","name_adm0":"Australia","name_adm1":"New South Wales","name_adm2":"Junee","name_en":"Junee Reefs","iso":"AU"},"geometry":{"type":"Point","coordinates":[147.61667,-34.73333]}},{"type":"Feature","properties":{"country_en":"Australia","name":"Karping","name_adm0":"Australia","name_adm1":"Western Australia","name_adm2":"Cuballing","name_en":"Karping","iso":"AU"},"geometry":{"type":"Point","coordinates":[117.08333,-32.6]}},{"type":"Feature","properties":{"country_en":"Australia","name":"Kikoira","name_adm0":"Australia","name_adm1":"New South Wales","name_adm2":"Bland","name_en":"Kikoira","iso":"AU"},"geometry":{"type":"Point","coordinates":[146.66667,-33.66667]}},{"type":"Feature","properties":{"country_en":"Australia","name":"Malyalling","name_adm0":"Australia","name_adm1":"Western Australia","name_adm2":"Wickepin","name_en":"Malyalling","iso":"AU"},"geometry":{"type":"Point","coordinates":[117.53333,-32.7]}},{"type":"Feature","properties":{"country_en":"Australia","name":"Moolerr","name_adm0":"Australia","name_adm1":"Victoria","name_adm2":"Northern Grampians","name_en":"Moolerr","iso":"AU"},"geometry":{"type":"Point","coordinates":[143.21667,-36.63333]}},{"type":"Feature","properties":{"country_en":"Australia","name":"Moolyella","name_adm0":"Australia","name_adm1":"Western Australia","name_adm2":"East Pilbara","name_en":"Moolyella","iso":"AU"},"geometry":{"type":"Point","coordinates":[119.89999999999999,-21.13333]}},{"type":"Feature","properties":{"country_en":"Australia","name":"North Yathong","name_adm0":"Australia","name_adm1":"New South Wales","name_adm2":"Jerilderie","name_en":"North Yathong","iso":"AU"},"geometry":{"type":"Point","coordinates":[145.9,-35.25]}},{"type":"Feature","properties":{"country_en":"Australia","name":"Osbornes Flat","name_adm0":"Australia","name_adm1":"Victoria","name_adm2":"Indigo","name_en":"Osbornes Flat","iso":"AU"},"geometry":{"type":"Point","coordinates":[146.88333,-36.31667]}},{"type":"Feature","properties":{"country_en":"Australia","name":"Rhondda","name_adm0":"Australia","name_adm1":"New South Wales","name_adm2":"Lake Macquarie","name_en":"Rhondda","iso":"AU"},"geometry":{"type":"Point","coordinates":[151.58333,-32.95]}},{"type":"Feature","properties":{"country_en":"Australia","name":"Rich Avon West","name_adm0":"Australia","name_adm1":"Victoria","name_adm2":"Northern Grampians","name_en":"Rich Avon West","iso":"AU"},"geometry":{"type":"Point","coordinates":[142.83332999999996,-36.51667]}},{"type":"Feature","properties":{"country_en":"Australia","name":"Riggs Creek","name_adm0":"Australia","name_adm1":"Victoria","name_adm2":"Strathbogie","name_en":"Riggs Creek","iso":"AU"},"geometry":{"type":"Point","coordinates":[145.56667,-36.64999999999999]}},{"type":"Feature","properties":{"country_en":"Australia","name":"Ripley","name_adm0":"Australia","name_adm1":"Queensland","name_adm2":"Ipswich","name_en":"Ripley","iso":"AU"},"geometry":{"type":"Point","coordinates":[152.83333,-27.71667]}},{"type":"Feature","properties":{"country_en":"Australia","name":"Rita Island","name_adm0":"Australia","name_adm1":"Queensland","name_adm2":"Burdekin","name_en":"Rita Island","iso":"AU"},"geometry":{"type":"Point","coordinates":[147.53333,-19.61667]}},{"type":"Feature","properties":{"country_en":"Australia","name":"Sexton","name_adm0":"Australia","name_adm1":"Queensland","name_adm2":"Gympie Regional","name_en":"Sexton","iso":"AU"},"geometry":{"type":"Point","coordinates":[152.43333,-26]}},{"type":"Feature","properties":{"country_en":"Australia","name":"Seaford","name_adm0":"Australia","name_adm1":"Victoria","name_adm2":"City of Frankston","name_en":"Seaford","iso":"AU"},"geometry":{"type":"Point","coordinates":[145.13333,-38.1]}},{"type":"Feature","properties":{"country_en":"Australia","name":"Tandagin","name_adm0":"Australia","name_adm1":"Western Australia","name_adm2":"Merredin","name_en":"Tandagin","iso":"AU"},"geometry":{"type":"Point","coordinates":[118.56666999999999,-31.683329999999998]}},{"type":"Feature","properties":{"country_en":"Australia","name":"Tandara","name_adm0":"Australia","name_adm1":"Victoria","name_adm2":"Loddon","name_en":"Tandara","iso":"AU"},"geometry":{"type":"Point","coordinates":[144.21667,-36.43333]}},{"type":"Feature","properties":{"country_en":"Australia","name":"Turriff West","name_adm0":"Australia","name_adm1":"Victoria","name_adm2":"Yarriambiack","name_en":"Turriff West","iso":"AU"},"geometry":{"type":"Point","coordinates":[142.36667,-35.45]}},{"type":"Feature","properties":{"country_en":"Australia","name":"Upper Botoblar","name_adm0":"Australia","name_adm1":"New South Wales","name_adm2":"Mid-western Regional","name_en":"Upper Botoblar","iso":"AU"},"geometry":{"type":"Point","coordinates":[149.81667,-32.53333]}},{"type":"Feature","properties":{"country_en":"Australia","name":"Wardry South","name_adm0":"Australia","name_adm1":"New South Wales","name_adm2":"Lachlan","name_en":"Wardry South","iso":"AU"},"geometry":{"type":"Point","coordinates":[146.81667,-33.16667]}},{"type":"Feature","properties":{"country_en":"Australia","name":"Warge Rock","name_adm0":"Australia","name_adm1":"New South Wales","name_adm2":"Parkes","name_en":"Warge Rock","iso":"AU"},"geometry":{"type":"Point","coordinates":[147.8,-32.55]}},{"type":"Feature","properties":{"country_en":"Australia","name":"Wellington Vale","name_adm0":"Australia","name_adm1":"New South Wales","name_adm2":"Glen Innes Severn","name_en":"Wellington Vale","iso":"AU"},"geometry":{"type":"Point","coordinates":[151.75,-29.399999999999995]}},{"type":"Feature","properties":{"country_en":"Australia","name":"Winjallok","name_adm0":"Australia","name_adm1":"Victoria","name_adm2":"Northern Grampians","name_en":"Winjallok","iso":"AU"},"geometry":{"type":"Point","coordinates":[143.2,-36.81667]}},{"type":"Feature","properties":{"country_en":"Australia","name":"Yalgogrin North","name_adm0":"Australia","name_adm1":"New South Wales","name_adm2":"Bland","name_en":"Yalgogrin North","iso":"AU"},"geometry":{"type":"Point","coordinates":[146.83333,-33.85]}},{"type":"Feature","properties":{"country_en":"Australia","name":"Yalgogrin South","name_adm0":"Australia","name_adm1":"New South Wales","name_adm2":"Bland","name_en":"Yalgogrin South","iso":"AU"},"geometry":{"type":"Point","coordinates":[146.81667,-34.16667]}},{"type":"Feature","properties":{"country_en":"Australia","name":"Claverton","name_adm0":"Australia","name_adm1":"Queensland","name_adm2":"Paroo","name_en":"Claverton","iso":"AU"},"geometry":{"type":"Point","coordinates":[145.96667,-27.36667]}},{"type":"Feature","properties":{"country_en":"Australia","name":"Bronte","name_adm0":"Australia","name_adm1":"New South Wales","name_adm2":"Goulburn Mulwaree","name_en":"Bronte","iso":"AU"},"geometry":{"type":"Point","coordinates":[149.8,-34.98333]}},{"type":"Feature","properties":{"country_en":"Australia","name":"Caroline","name_adm0":"Australia","name_adm1":"South Australia","name_adm2":"Grant","name_en":"Caroline","iso":"AU"},"geometry":{"type":"Point","coordinates":[140.93333,-37.9]}},{"type":"Feature","properties":{"country_en":"Australia","name":"Ghinni Ghinni","name_adm0":"Australia","name_adm1":"New South Wales","name_adm2":"Greater Taree","name_en":"Ghinni Ghinni","iso":"AU"},"geometry":{"type":"Point","coordinates":[152.56667,-31.88333]}},{"type":"Feature","properties":{"country_en":"Australia","name":"Glenburn","name_adm0":"Australia","name_adm1":"New South Wales","name_adm2":"Oberon","name_en":"Glenburn","iso":"AU"},"geometry":{"type":"Point","coordinates":[149.73333,-33.61667]}},{"type":"Feature","properties":{"country_en":"Australia","name":"Glenfern","name_adm0":"Australia","name_adm1":"Queensland","name_adm2":"Somerset Regional","name_en":"Glenfern","iso":"AU"},"geometry":{"type":"Point","coordinates":[152.6,-26.95]}},{"type":"Feature","properties":{"country_en":"Australia","name":"Jeetho","name_adm0":"Australia","name_adm1":"Victoria","name_adm2":"South Gippsland","name_en":"Jeetho","iso":"AU"},"geometry":{"type":"Point","coordinates":[145.71667,-38.38333]}},{"type":"Feature","properties":{"country_en":"Australia","name":"Miepoll","name_adm0":"Australia","name_adm1":"Victoria","name_adm2":"Strathbogie","name_en":"Miepoll","iso":"AU"},"geometry":{"type":"Point","coordinates":[145.46667,-36.61667]}},{"type":"Feature","properties":{"country_en":"Australia","name":"Grenfell","name_adm0":"Australia","name_adm1":"New South Wales","name_adm2":"Weddin","name_en":"Grenfell","iso":"AU"},"geometry":{"type":"Point","coordinates":[148.16438,-33.89549]}},{"type":"Feature","properties":{"country_en":"Australia","name":"Hawker","name_adm0":"Australia","name_adm1":"South Australia","name_adm2":"Flinders Ranges","name_en":"Hawker","iso":"AU"},"geometry":{"type":"Point","coordinates":[138.42003,-31.889149999999997]}},{"type":"Feature","properties":{"country_en":"Australia","name":"Huonville","name_adm0":"Australia","name_adm1":"Tasmania","name_adm2":"Huon Valley","name_en":"Huonville","iso":"AU"},"geometry":{"type":"Point","coordinates":[147.04813,-43.03124]}},{"type":"Feature","properties":{"country_en":"Australia","name":"Jabiru","name_adm0":"Australia","name_adm1":"Northern Territory","name_adm2":"West Arnhem","name_en":"Jabiru","iso":"AU"},"geometry":{"type":"Point","coordinates":[132.83604,-12.670489999999997]}},{"type":"Feature","properties":{"country_en":"Australia","name":"Jamberoo","name_adm0":"Australia","name_adm1":"New South Wales","name_adm2":"Kiama","name_en":"Jamberoo","iso":"AU"},"geometry":{"type":"Point","coordinates":[150.77464,-34.64745]}},{"type":"Feature","properties":{"country_en":"Australia","name":"Kiama","name_adm0":"Australia","name_adm1":"New South Wales","name_adm2":"Kiama","name_en":"Kiama","iso":"AU"},"geometry":{"type":"Point","coordinates":[150.85219,-34.66828]}},{"type":"Feature","properties":{"country_en":"Australia","name":"Korumburra","name_adm0":"Australia","name_adm1":"Victoria","name_adm2":"South Gippsland","name_en":"Korumburra","iso":"AU"},"geometry":{"type":"Point","coordinates":[145.82355,-38.43194]}},{"type":"Feature","properties":{"country_en":"Australia","name":"Lang Lang","name_adm0":"Australia","name_adm1":"Victoria","name_adm2":"Cardinia","name_en":"Lang Lang","iso":"AU"},"geometry":{"type":"Point","coordinates":[145.5621,-38.26605]}},{"type":"Feature","properties":{"country_en":"Australia","name":"Lara","name_adm0":"Australia","name_adm1":"Victoria","name_adm2":"Greater Geelong","name_en":"Lara","iso":"AU"},"geometry":{"type":"Point","coordinates":[144.40617,-38.02388]}},{"type":"Feature","properties":{"country_en":"Australia","name":"Meningie","name_adm0":"Australia","name_adm1":"South Australia","name_adm2":"The Coorong","name_en":"Meningie","iso":"AU"},"geometry":{"type":"Point","coordinates":[139.33856,-35.68841]}},{"type":"Feature","properties":{"country_en":"Australia","name":"Manjimup","name_adm0":"Australia","name_adm1":"Western Australia","name_adm2":"Manjimup","name_en":"Manjimup","iso":"AU"},"geometry":{"type":"Point","coordinates":[116.14563999999999,-34.24121999999999]}},{"type":"Feature","properties":{"country_en":"Australia","name":"Mount Gambier","name_adm0":"Australia","name_adm1":"South Australia","name_adm2":"Mount Gambier","name_en":"Mount Gambier","iso":"AU"},"geometry":{"type":"Point","coordinates":[140.77919,-37.8318]}},{"type":"Feature","properties":{"country_en":"Australia","name":"Penneshaw","name_adm0":"Australia","name_adm1":"South Australia","name_adm2":"Kangaroo Island","name_en":"Penneshaw","iso":"AU"},"geometry":{"type":"Point","coordinates":[137.93333,-35.73333]}},{"type":"Feature","properties":{"country_en":"Australia","name":"Port Lincoln","name_adm0":"Australia","name_adm1":"South Australia","name_adm2":"Port Lincoln","name_en":"Port Lincoln","iso":"AU"},"geometry":{"type":"Point","coordinates":[135.87442,-34.72625]}},{"type":"Feature","properties":{"country_en":"Australia","name":"Tewantin","name_adm0":"Australia","name_adm1":"Queensland","name_adm2":"Sunshine Coast Regional","name_en":"Tewantin","iso":"AU"},"geometry":{"type":"Point","coordinates":[153.03431999999998,-26.39104]}},{"type":"Feature","properties":{"country_en":"Australia","name":"Toowoomba","name_adm0":"Australia","name_adm1":"Queensland","name_adm2":"Toowoomba Regional","name_en":"Toowoomba","iso":"AU"},"geometry":{"type":"Point","coordinates":[151.95386,-27.560559999999995]}},{"type":"Feature","properties":{"country_en":"Australia","name":"Cannington","name_adm0":"Australia","name_adm1":"Western Australia","name_adm2":"Canning","name_en":"Cannington","iso":"AU"},"geometry":{"type":"Point","coordinates":[115.95000000000002,-32.01667]}},{"type":"Feature","properties":{"country_en":"Australia","name":"Wallaroo","name_adm0":"Australia","name_adm1":"South Australia","name_adm2":"Copper Coast","name_en":"Wallaroo","iso":"AU"},"geometry":{"type":"Point","coordinates":[137.63365,-33.93881]}},{"type":"Feature","properties":{"country_en":"Australia","name":"Balwyn","name_adm0":"Australia","name_adm1":"Victoria","name_adm2":"Boroondara","name_en":"Balwyn","iso":"AU"},"geometry":{"type":"Point","coordinates":[145.08099,-37.81168]}},{"type":"Feature","properties":{"country_en":"Australia","name":"New South Wales","name_adm0":"Australia","name_adm1":"New South Wales","name_en":"New South Wales","iso":"AU"},"geometry":{"type":"Point","coordinates":[146,-33]}},{"type":"Feature","properties":{"country_en":"Australia","name":"Victoria","name_adm0":"Australia","name_adm1":"Victoria","name_en":"Victoria","iso":"AU"},"geometry":{"type":"Point","coordinates":[145,-37]}},{"type":"Feature","properties":{"country_en":"Australia","name":"Franklin","name_adm0":"Australia","name_adm1":"Tasmania","name_adm2":"Huon Valley","name_en":"Franklin","iso":"AU"},"geometry":{"type":"Point","coordinates":[147.00906,-43.08883999999999]}},{"type":"Feature","properties":{"country_en":"Australia","name":"Quilpie","name_adm0":"Australia","name_adm1":"Queensland","name_adm2":"Quilpie","name_en":"Quilpie","iso":"AU"},"geometry":{"type":"Point","coordinates":[144.26948,-26.61348]}},{"type":"Feature","properties":{"country_en":"Australia","name":"Ben Bullen","name_adm0":"Australia","name_adm1":"New South Wales","name_adm2":"Lithgow","name_en":"Ben Bullen","iso":"AU"},"geometry":{"type":"Point","coordinates":[150.03333,-33.21667]}},{"type":"Feature","properties":{"country_en":"Australia","name":"Eaton","name_adm0":"Australia","name_adm1":"Western Australia","name_adm2":"Dardanup","name_en":"Eaton","iso":"AU"},"geometry":{"type":"Point","coordinates":[115.70503,-33.31663999999999]}},{"type":"Feature","properties":{"country_en":"Australia","name":"Ballarat West","name_adm0":"Australia","name_adm1":"Victoria","name_adm2":"City of Ballarat","name_en":"Ballarat West","iso":"AU"},"geometry":{"type":"Point","coordinates":[143.85704,-37.5850575]}},{"type":"Feature","properties":{"country_en":"Australia","name":"Warner","name_adm0":"Australia","name_adm1":"Queensland","name_adm2":"Moreton Bay Regional","name_en":"Warner","iso":"AU"},"geometry":{"type":"Point","coordinates":[152.94981,-27.31222]}},{"type":"Feature","properties":{"country_en":"Australia","name":"Alleena","name_adm0":"Australia","name_adm1":"New South Wales","name_adm2":"Bland","name_en":"Alleena","iso":"AU"},"geometry":{"type":"Point","coordinates":[147.13332999999997,-34.08333]}},{"type":"Feature","properties":{"country_en":"Australia","name":"Amery","name_adm0":"Australia","name_adm1":"Western Australia","name_adm2":"Dowerin","name_en":"Amery","iso":"AU"},"geometry":{"type":"Point","coordinates":[117.08333,-31.149999999999995]}},{"type":"Feature","properties":{"country_en":"Australia","name":"Amherst","name_adm0":"Australia","name_adm1":"Victoria","name_adm2":"Central Goldfields","name_en":"Amherst","iso":"AU"},"geometry":{"type":"Point","coordinates":[143.66667,-37.15]}},{"type":"Feature","properties":{"country_en":"Australia","name":"Athol","name_adm0":"Australia","name_adm1":"New South Wales","name_adm2":"Blayney","name_en":"Athol","iso":"AU"},"geometry":{"type":"Point","coordinates":[149.3,-33.55]}},{"type":"Feature","properties":{"country_en":"Australia","name":"Bellawongarah","name_adm0":"Australia","name_adm1":"New South Wales","name_adm2":"Shoalhaven","name_en":"Bellawongarah","iso":"AU"},"geometry":{"type":"Point","coordinates":[150.63333,-34.76667]}},{"type":"Feature","properties":{"country_en":"Australia","name":"Benloch","name_adm0":"Australia","name_adm1":"Victoria","name_adm2":"Macedon Ranges","name_en":"Benloch","iso":"AU"},"geometry":{"type":"Point","coordinates":[144.7,-37.21667]}},{"type":"Feature","properties":{"country_en":"Australia","name":"Brundah","name_adm0":"Australia","name_adm1":"New South Wales","name_adm2":"Weddin","name_en":"Brundah","iso":"AU"},"geometry":{"type":"Point","coordinates":[148.35,-34]}},{"type":"Feature","properties":{"country_en":"Australia","name":"Buckleys Swamp","name_adm0":"Australia","name_adm1":"Victoria","name_adm2":"Southern Grampians","name_en":"Buckleys Swamp","iso":"AU"},"geometry":{"type":"Point","coordinates":[142.06667,-37.85]}},{"type":"Feature","properties":{"country_en":"Australia","name":"Bullawa Creek","name_adm0":"Australia","name_adm1":"New South Wales","name_adm2":"Narrabri","name_en":"Bullawa Creek","iso":"AU"},"geometry":{"type":"Point","coordinates":[149.98333,-30.316669999999995]}},{"type":"Feature","properties":{"country_en":"Australia","name":"Burrier","name_adm0":"Australia","name_adm1":"New South Wales","name_adm2":"Shoalhaven","name_en":"Burrier","iso":"AU"},"geometry":{"type":"Point","coordinates":[150.46667,-34.883329999999994]}},{"type":"Feature","properties":{"country_en":"Australia","name":"Chiselhurst","name_adm0":"Australia","name_adm1":"Victoria","name_adm2":"Nillumbik","name_en":"Chiselhurst","iso":"AU"},"geometry":{"type":"Point","coordinates":[145.33333,-37.633329999999994]}},{"type":"Feature","properties":{"country_en":"Australia","name":"Chittaway Point","name_adm0":"Australia","name_adm1":"New South Wales","name_adm2":"Wyong","name_en":"Chittaway Point","iso":"AU"},"geometry":{"type":"Point","coordinates":[151.44194,-33.32361]}},{"type":"Feature","properties":{"country_en":"Australia","name":"Crabbes Creek","name_adm0":"Australia","name_adm1":"New South Wales","name_adm2":"Tweed","name_en":"Crabbes Creek","iso":"AU"},"geometry":{"type":"Point","coordinates":[153.5,-28.46667]}},{"type":"Feature","properties":{"country_en":"Australia","name":"Darlington","name_adm0":"Australia","name_adm1":"South Australia","name_adm2":"City of Marion","name_en":"Darlington","iso":"AU"},"geometry":{"type":"Point","coordinates":[138.56667,-35.03333]}},{"type":"Feature","properties":{"country_en":"Australia","name":"Ekibin","name_adm0":"Australia","name_adm1":"Queensland","name_adm2":"Brisbane","name_en":"Ekibin","iso":"AU"},"geometry":{"type":"Point","coordinates":[153.03333,-27.51667]}},{"type":"Feature","properties":{"country_en":"Australia","name":"Eildon Weir","name_adm0":"Australia","name_adm1":"Victoria","name_adm2":"Murrindindi","name_en":"Eildon Weir","iso":"AU"},"geometry":{"type":"Point","coordinates":[145.93333,-37.23333]}},{"type":"Feature","properties":{"country_en":"Australia","name":"Durikai","name_adm0":"Australia","name_adm1":"Queensland","name_adm2":"Southern Downs Regional","name_en":"Durikai","iso":"AU"},"geometry":{"type":"Point","coordinates":[151.61666999999997,-28.2]}},{"type":"Feature","properties":{"country_en":"Australia","name":"Glenburnie","name_adm0":"Australia","name_adm1":"South Australia","name_adm2":"Grant","name_en":"Glenburnie","iso":"AU"},"geometry":{"type":"Point","coordinates":[140.85,-37.85]}},{"type":"Feature","properties":{"country_en":"Australia","name":"Green Lake","name_adm0":"Australia","name_adm1":"Victoria","name_adm2":"Horsham","name_en":"Green Lake","iso":"AU"},"geometry":{"type":"Point","coordinates":[142.3,-36.78333]}},{"type":"Feature","properties":{"country_en":"Australia","name":"Hodel","name_adm0":"Australia","name_adm1":"Queensland","name_adm2":"Burdekin","name_en":"Hodel","iso":"AU"},"geometry":{"type":"Point","coordinates":[147.13332999999997,-19.51667]}},{"type":"Feature","properties":{"country_en":"Australia","name":"Hollands","name_adm0":"Australia","name_adm1":"Queensland","name_adm2":"Bundaberg Regional","name_en":"Hollands","iso":"AU"},"geometry":{"type":"Point","coordinates":[152.45,-24.83333]}},{"type":"Feature","properties":{"country_en":"Australia","name":"Karramomous North","name_adm0":"Australia","name_adm1":"Victoria","name_adm2":"Greater Shepparton","name_en":"Karramomous North","iso":"AU"},"geometry":{"type":"Point","coordinates":[145.48333,-36.53332999999999]}},{"type":"Feature","properties":{"country_en":"Australia","name":"Katamatite","name_adm0":"Australia","name_adm1":"Victoria","name_adm2":"Moira","name_en":"Katamatite","iso":"AU"},"geometry":{"type":"Point","coordinates":[145.68723999999997,-36.07589]}},{"type":"Feature","properties":{"country_en":"Australia","name":"Langi Logan","name_adm0":"Australia","name_adm1":"Victoria","name_adm2":"Ararat","name_en":"Langi Logan","iso":"AU"},"geometry":{"type":"Point","coordinates":[142.95,-37.35]}},{"type":"Feature","properties":{"country_en":"Australia","name":"Langley","name_adm0":"Australia","name_adm1":"Victoria","name_adm2":"Mount Alexander","name_en":"Langley","iso":"AU"},"geometry":{"type":"Point","coordinates":[144.49999999999997,-37.15]}},{"type":"Feature","properties":{"country_en":"Australia","name":"Long Pocket","name_adm0":"Australia","name_adm1":"Queensland","name_adm2":"Hinchinbrook","name_en":"Long Pocket","iso":"AU"},"geometry":{"type":"Point","coordinates":[146.03333,-18.51667]}},{"type":"Feature","properties":{"country_en":"Australia","name":"Longlea","name_adm0":"Australia","name_adm1":"Victoria","name_adm2":"Greater Bendigo","name_en":"Longlea","iso":"AU"},"geometry":{"type":"Point","coordinates":[144.43333,-36.78333]}},{"type":"Feature","properties":{"country_en":"Australia","name":"Macks Creek","name_adm0":"Australia","name_adm1":"Victoria","name_adm2":"Wellington","name_en":"Macks Creek","iso":"AU"},"geometry":{"type":"Point","coordinates":[146.63333,-38.46666999999999]}},{"type":"Feature","properties":{"country_en":"Australia","name":"Macorna","name_adm0":"Australia","name_adm1":"Victoria","name_adm2":"Gannawarra","name_en":"Macorna","iso":"AU"},"geometry":{"type":"Point","coordinates":[144.01667,-35.9]}},{"type":"Feature","properties":{"country_en":"Australia","name":"McLaughlins Beach","name_adm0":"Australia","name_adm1":"Victoria","name_adm2":"Wellington","name_en":"McLaughlins Beach","iso":"AU"},"geometry":{"type":"Point","coordinates":[146.88333,-38.6]}},{"type":"Feature","properties":{"country_en":"Australia","name":"McLeans Ridges","name_adm0":"Australia","name_adm1":"New South Wales","name_adm2":"Lismore","name_en":"McLeans Ridges","iso":"AU"},"geometry":{"type":"Point","coordinates":[153.38333,-28.8]}},{"type":"Feature","properties":{"country_en":"Australia","name":"Mugincoble","name_adm0":"Australia","name_adm1":"New South Wales","name_adm2":"Parkes","name_en":"Mugincoble","iso":"AU"},"geometry":{"type":"Point","coordinates":[148.23333,-33.18333]}},{"type":"Feature","properties":{"country_en":"Australia","name":"Neeta","name_adm0":"Australia","name_adm1":"South Australia","name_adm2":"Mid Murray","name_en":"Neeta","iso":"AU"},"geometry":{"type":"Point","coordinates":[139.31667,-34.93333]}},{"type":"Feature","properties":{"country_en":"Australia","name":"North Motton","name_adm0":"Australia","name_adm1":"Tasmania","name_adm2":"Central Coast","name_en":"North Motton","iso":"AU"},"geometry":{"type":"Point","coordinates":[146.11667,-41.21666999999999]}},{"type":"Feature","properties":{"country_en":"Australia","name":"Paloona","name_adm0":"Australia","name_adm1":"Tasmania","name_adm2":"Devonport","name_en":"Paloona","iso":"AU"},"geometry":{"type":"Point","coordinates":[146.26666999999998,-41.26667]}},{"type":"Feature","properties":{"country_en":"Australia","name":"Pyree","name_adm0":"Australia","name_adm1":"New South Wales","name_adm2":"Shoalhaven","name_en":"Pyree","iso":"AU"},"geometry":{"type":"Point","coordinates":[150.7,-34.91667]}},{"type":"Feature","properties":{"country_en":"Australia","name":"Pretty Pine","name_adm0":"Australia","name_adm1":"New South Wales","name_adm2":"Conargo","name_en":"Pretty Pine","iso":"AU"},"geometry":{"type":"Point","coordinates":[144.86667,-35.41667]}},{"type":"Feature","properties":{"country_en":"Australia","name":"Rocky Creek","name_adm0":"Australia","name_adm1":"Queensland","name_adm2":"Toowoomba Regional","name_en":"Rocky Creek","iso":"AU"},"geometry":{"type":"Point","coordinates":[151.35,-28.01667]}},{"type":"Feature","properties":{"country_en":"Australia","name":"Rocky Gully","name_adm0":"Australia","name_adm1":"New South Wales","name_adm2":"Tamworth Regional","name_en":"Rocky Gully","iso":"AU"},"geometry":{"type":"Point","coordinates":[151.21667,-30.81667]}},{"type":"Feature","properties":{"country_en":"Australia","name":"Selbourne","name_adm0":"Australia","name_adm1":"Tasmania","name_adm2":"Meander Valley","name_en":"Selbourne","iso":"AU"},"geometry":{"type":"Point","coordinates":[146.88333,-41.45]}},{"type":"Feature","properties":{"country_en":"Australia","name":"Sodwalls","name_adm0":"Australia","name_adm1":"New South Wales","name_adm2":"Lithgow","name_en":"Sodwalls","iso":"AU"},"geometry":{"type":"Point","coordinates":[149.98333,-33.51666999999999]}},{"type":"Feature","properties":{"country_en":"Australia","name":"Stavely","name_adm0":"Australia","name_adm1":"Victoria","name_adm2":"Ararat","name_en":"Stavely","iso":"AU"},"geometry":{"type":"Point","coordinates":[142.61667,-37.6]}},{"type":"Feature","properties":{"country_en":"Australia","name":"Talegalla","name_adm0":"Australia","name_adm1":"Queensland","name_adm2":"Ipswich","name_en":"Talegalla","iso":"AU"},"geometry":{"type":"Point","coordinates":[152.56667,-27.6]}},{"type":"Feature","properties":{"country_en":"Australia","name":"Terrick Terrick","name_adm0":"Australia","name_adm1":"Victoria","name_adm2":"Loddon","name_en":"Terrick Terrick","iso":"AU"},"geometry":{"type":"Point","coordinates":[144.29999999999998,-36.08333]}},{"type":"Feature","properties":{"country_en":"Australia","name":"Tetoora Road","name_adm0":"Australia","name_adm1":"Victoria","name_adm2":"Baw Baw","name_en":"Tetoora Road","iso":"AU"},"geometry":{"type":"Point","coordinates":[145.9,-38.26667]}},{"type":"Feature","properties":{"country_en":"Australia","name":"Wail","name_adm0":"Australia","name_adm1":"Victoria","name_adm2":"Horsham","name_en":"Wail","iso":"AU"},"geometry":{"type":"Point","coordinates":[142.1,-36.5]}},{"type":"Feature","properties":{"country_en":"Australia","name":"Yarragee","name_adm0":"Australia","name_adm1":"New South Wales","name_adm2":"Eurobodalla","name_en":"Yarragee","iso":"AU"},"geometry":{"type":"Point","coordinates":[150.06667,-35.9]}},{"type":"Feature","properties":{"country_en":"Australia","name":"Yarragundry","name_adm0":"Australia","name_adm1":"New South Wales","name_adm2":"Wagga Wagga","name_en":"Yarragundry","iso":"AU"},"geometry":{"type":"Point","coordinates":[147.23333,-35.11667]}},{"type":"Feature","properties":{"country_en":"Australia","name":"Barnadown","name_adm0":"Australia","name_adm1":"Victoria","name_adm2":"Greater Bendigo","name_en":"Barnadown","iso":"AU"},"geometry":{"type":"Point","coordinates":[144.55,-36.64999999999999]}},{"type":"Feature","properties":{"country_en":"Australia","name":"Beauty Point","name_adm0":"Australia","name_adm1":"New South Wales","name_adm2":"Bega Valley","name_en":"Beauty Point","iso":"AU"},"geometry":{"type":"Point","coordinates":[150.07126,-36.3798]}},{"type":"Feature","properties":{"country_en":"Australia","name":"Broula","name_adm0":"Australia","name_adm1":"New South Wales","name_adm2":"Cowra","name_en":"Broula","iso":"AU"},"geometry":{"type":"Point","coordinates":[148.53333,-33.86667]}},{"type":"Feature","properties":{"country_en":"Australia","name":"Candelo","name_adm0":"Australia","name_adm1":"New South Wales","name_adm2":"Bega Valley","name_en":"Candelo","iso":"AU"},"geometry":{"type":"Point","coordinates":[149.69467,-36.76767]}},{"type":"Feature","properties":{"country_en":"Australia","name":"Burrungule","name_adm0":"Australia","name_adm1":"South Australia","name_adm2":"Grant","name_en":"Burrungule","iso":"AU"},"geometry":{"type":"Point","coordinates":[140.56667,-37.78333]}},{"type":"Feature","properties":{"country_en":"Australia","name":"Cassilis","name_adm0":"Australia","name_adm1":"New South Wales","name_adm2":"Upper Hunter","name_en":"Cassilis","iso":"AU"},"geometry":{"type":"Point","coordinates":[149.98333,-32]}},{"type":"Feature","properties":{"country_en":"Australia","name":"Carinda","name_adm0":"Australia","name_adm1":"New South Wales","name_adm2":"Walgett","name_en":"Carinda","iso":"AU"},"geometry":{"type":"Point","coordinates":[147.68333,-30.46667]}},{"type":"Feature","properties":{"country_en":"Australia","name":"Coutts Crossing","name_adm0":"Australia","name_adm1":"New South Wales","name_adm2":"Clarence Valley","name_en":"Coutts Crossing","iso":"AU"},"geometry":{"type":"Point","coordinates":[152.89156,-29.82619]}},{"type":"Feature","properties":{"country_en":"Australia","name":"Dobbyn","name_adm0":"Australia","name_adm1":"Queensland","name_adm2":"Cloncurry","name_en":"Dobbyn","iso":"AU"},"geometry":{"type":"Point","coordinates":[139.99999999999997,-19.8]}},{"type":"Feature","properties":{"country_en":"Australia","name":"Fernlees","name_adm0":"Australia","name_adm1":"Queensland","name_adm2":"Central Highlands Regional","name_en":"Fernlees","iso":"AU"},"geometry":{"type":"Point","coordinates":[148.11667,-23.86667]}},{"type":"Feature","properties":{"country_en":"Australia","name":"Felton East","name_adm0":"Australia","name_adm1":"Queensland","name_adm2":"Toowoomba Regional","name_en":"Felton East","iso":"AU"},"geometry":{"type":"Point","coordinates":[151.76667,-27.81667]}},{"type":"Feature","properties":{"country_en":"Australia","name":"Farleigh","name_adm0":"Australia","name_adm1":"Queensland","name_adm2":"Mackay Regional","name_en":"Farleigh","iso":"AU"},"geometry":{"type":"Point","coordinates":[149.10239,-21.105739999999997]}},{"type":"Feature","properties":{"country_en":"Australia","name":"Hartley","name_adm0":"Australia","name_adm1":"New South Wales","name_adm2":"Lithgow","name_en":"Hartley","iso":"AU"},"geometry":{"type":"Point","coordinates":[150.16667,-33.55]}},{"type":"Feature","properties":{"country_en":"Australia","name":"Hendon","name_adm0":"Australia","name_adm1":"Queensland","name_adm2":"Southern Downs Regional","name_en":"Hendon","iso":"AU"},"geometry":{"type":"Point","coordinates":[151.95,-28.06667]}},{"type":"Feature","properties":{"country_en":"Australia","name":"Henlow","name_adm0":"Australia","name_adm1":"Victoria","name_adm2":"Towong","name_en":"Henlow","iso":"AU"},"geometry":{"type":"Point","coordinates":[147.48333,-36.38333]}},{"type":"Feature","properties":{"country_en":"Australia","name":"Jervis Bay","name_adm0":"Australia","name_adm1":"New South Wales","name_adm2":"Jervis Bay Territory","name_en":"Jervis Bay","iso":"AU"},"geometry":{"type":"Point","coordinates":[150.7,-35.13333]}},{"type":"Feature","properties":{"country_en":"Australia","name":"Iron Range","name_adm0":"Australia","name_adm1":"Queensland","name_adm2":"Cook","name_en":"Iron Range","iso":"AU"},"geometry":{"type":"Point","coordinates":[143.3,-12.7]}},{"type":"Feature","properties":{"country_en":"Australia","name":"Kapinnie","name_adm0":"Australia","name_adm1":"South Australia","name_adm2":"Lower Eyre Peninsula","name_en":"Kapinnie","iso":"AU"},"geometry":{"type":"Point","coordinates":[135.51667,-34.15]}},{"type":"Feature","properties":{"country_en":"Australia","name":"Kyalite","name_adm0":"Australia","name_adm1":"New South Wales","name_adm2":"Wakool","name_en":"Kyalite","iso":"AU"},"geometry":{"type":"Point","coordinates":[143.46667,-34.96667]}},{"type":"Feature","properties":{"country_en":"Australia","name":"Lancaster","name_adm0":"Australia","name_adm1":"Victoria","name_adm2":"Greater Shepparton","name_en":"Lancaster","iso":"AU"},"geometry":{"type":"Point","coordinates":[145.13333,-36.31667]}},{"type":"Feature","properties":{"country_en":"Australia","name":"Malmsbury","name_adm0":"Australia","name_adm1":"Victoria","name_adm2":"Macedon Ranges","name_en":"Malmsbury","iso":"AU"},"geometry":{"type":"Point","coordinates":[144.38475,-37.188559999999995]}},{"type":"Feature","properties":{"country_en":"Australia","name":"Majors Creek","name_adm0":"Australia","name_adm1":"New South Wales","name_adm2":"Eastern Capital","name_en":"Majors Creek","iso":"AU"},"geometry":{"type":"Point","coordinates":[149.75,-35.58333]}},{"type":"Feature","properties":{"country_en":"Australia","name":"Mallala","name_adm0":"Australia","name_adm1":"South Australia","name_adm2":"Mallala","name_en":"Mallala","iso":"AU"},"geometry":{"type":"Point","coordinates":[138.50987,-34.4374]}},{"type":"Feature","properties":{"country_en":"Australia","name":"Meckering","name_adm0":"Australia","name_adm1":"Western Australia","name_adm2":"Cunderdin","name_en":"Meckering","iso":"AU"},"geometry":{"type":"Point","coordinates":[117.01667,-31.63333]}},{"type":"Feature","properties":{"country_en":"Australia","name":"Melville Forest","name_adm0":"Australia","name_adm1":"Victoria","name_adm2":"Southern Grampians","name_en":"Melville Forest","iso":"AU"},"geometry":{"type":"Point","coordinates":[141.86666999999997,-37.5]}},{"type":"Feature","properties":{"country_en":"Australia","name":"Merino","name_adm0":"Australia","name_adm1":"Victoria","name_adm2":"Glenelg","name_en":"Merino","iso":"AU"},"geometry":{"type":"Point","coordinates":[141.54826,-37.72046]}},{"type":"Feature","properties":{"country_en":"Australia","name":"Moorook","name_adm0":"Australia","name_adm1":"South Australia","name_adm2":"Berri Barmera","name_en":"Moorook","iso":"AU"},"geometry":{"type":"Point","coordinates":[140.35657,-34.26627]}},{"type":"Feature","properties":{"country_en":"Australia","name":"Moorland","name_adm0":"Australia","name_adm1":"New South Wales","name_adm2":"Greater Taree","name_en":"Moorland","iso":"AU"},"geometry":{"type":"Point","coordinates":[152.66666999999998,-31.78333]}},{"type":"Feature","properties":{"country_en":"Australia","name":"Neerim","name_adm0":"Australia","name_adm1":"Victoria","name_adm2":"Baw Baw","name_en":"Neerim","iso":"AU"},"geometry":{"type":"Point","coordinates":[145.95,-37.96667]}},{"type":"Feature","properties":{"country_en":"Australia","name":"Nelungaloo","name_adm0":"Australia","name_adm1":"New South Wales","name_adm2":"Parkes","name_en":"Nelungaloo","iso":"AU"},"geometry":{"type":"Point","coordinates":[148,-33.13333]}},{"type":"Feature","properties":{"country_en":"Australia","name":"Number One","name_adm0":"Australia","name_adm1":"New South Wales","name_adm2":"Greater Taree","name_en":"Number One","iso":"AU"},"geometry":{"type":"Point","coordinates":[152.06667,-31.733329999999995]}},{"type":"Feature","properties":{"country_en":"Australia","name":"Nunjikompita","name_adm0":"Australia","name_adm1":"South Australia","name_adm2":"Ceduna","name_en":"Nunjikompita","iso":"AU"},"geometry":{"type":"Point","coordinates":[134.31666999999996,-32.26667]}},{"type":"Feature","properties":{"country_en":"Australia","name":"Nymagee","name_adm0":"Australia","name_adm1":"New South Wales","name_adm2":"Cobar","name_en":"Nymagee","iso":"AU"},"geometry":{"type":"Point","coordinates":[146.33333,-32.06667]}},{"type":"Feature","properties":{"country_en":"Australia","name":"Numeralla","name_adm0":"Australia","name_adm1":"New South Wales","name_adm2":"Cooma-monaro","name_en":"Numeralla","iso":"AU"},"geometry":{"type":"Point","coordinates":[149.33332999999996,-36.16667]}},{"type":"Feature","properties":{"country_en":"Australia","name":"Penshurst","name_adm0":"Australia","name_adm1":"Victoria","name_adm2":"Southern Grampians","name_en":"Penshurst","iso":"AU"},"geometry":{"type":"Point","coordinates":[142.29071,-37.87528]}},{"type":"Feature","properties":{"country_en":"Australia","name":"Penong","name_adm0":"Australia","name_adm1":"South Australia","name_en":"Penong","iso":"AU"},"geometry":{"type":"Point","coordinates":[133.01667,-31.91667]}},{"type":"Feature","properties":{"country_en":"Australia","name":"Pigeon Ponds","name_adm0":"Australia","name_adm1":"Victoria","name_adm2":"Southern Grampians","name_en":"Pigeon Ponds","iso":"AU"},"geometry":{"type":"Point","coordinates":[141.68333,-37.3]}},{"type":"Feature","properties":{"country_en":"Australia","name":"Pinnacle","name_adm0":"Australia","name_adm1":"Queensland","name_adm2":"Mackay Regional","name_en":"Pinnacle","iso":"AU"},"geometry":{"type":"Point","coordinates":[148.71667,-21.15]}},{"type":"Feature","properties":{"country_en":"Australia","name":"Purnim","name_adm0":"Australia","name_adm1":"Victoria","name_adm2":"Moyne","name_en":"Purnim","iso":"AU"},"geometry":{"type":"Point","coordinates":[142.63332999999997,-38.28333]}},{"type":"Feature","properties":{"country_en":"Australia","name":"Pyalong","name_adm0":"Australia","name_adm1":"Victoria","name_adm2":"Mitchell","name_en":"Pyalong","iso":"AU"},"geometry":{"type":"Point","coordinates":[144.76667,-37.13333]}},{"type":"Feature","properties":{"country_en":"Australia","name":"Pyramid Hill","name_adm0":"Australia","name_adm1":"Victoria","name_adm2":"Loddon","name_en":"Pyramid Hill","iso":"AU"},"geometry":{"type":"Point","coordinates":[144.11466999999996,-36.05583]}},{"type":"Feature","properties":{"country_en":"Australia","name":"Running Creek","name_adm0":"Australia","name_adm1":"Victoria","name_adm2":"Alpine","name_en":"Running Creek","iso":"AU"},"geometry":{"type":"Point","coordinates":[146.91667,-36.61667]}},{"type":"Feature","properties":{"country_en":"Australia","name":"Salisbury","name_adm0":"Australia","name_adm1":"Victoria","name_adm2":"Hindmarsh","name_en":"Salisbury","iso":"AU"},"geometry":{"type":"Point","coordinates":[141.76666999999998,-36.35]}},{"type":"Feature","properties":{"country_en":"Australia","name":"Sandergrove","name_adm0":"Australia","name_adm1":"South Australia","name_adm2":"Alexandrina","name_en":"Sandergrove","iso":"AU"},"geometry":{"type":"Point","coordinates":[138.83333,-35.33333]}},{"type":"Feature","properties":{"country_en":"Australia","name":"Silverton","name_adm0":"Australia","name_adm1":"New South Wales","name_adm2":"Unincorporated Nsw","name_en":"Silverton","iso":"AU"},"geometry":{"type":"Point","coordinates":[141.21667,-31.88333]}},{"type":"Feature","properties":{"country_en":"Australia","name":"Selwyn","name_adm0":"Australia","name_adm1":"Queensland","name_adm2":"Cloncurry","name_en":"Selwyn","iso":"AU"},"geometry":{"type":"Point","coordinates":[140.5,-21.53333]}},{"type":"Feature","properties":{"country_en":"Australia","name":"Sutton","name_adm0":"Australia","name_adm1":"New South Wales","name_adm2":"Yass Valley","name_en":"Sutton","iso":"AU"},"geometry":{"type":"Point","coordinates":[149.25,-35.16667]}},{"type":"Feature","properties":{"country_en":"Australia","name":"Tarlee","name_adm0":"Australia","name_adm1":"South Australia","name_adm2":"Clare And Gilbert Valleys","name_en":"Tarlee","iso":"AU"},"geometry":{"type":"Point","coordinates":[138.76667,-34.26667]}},{"type":"Feature","properties":{"country_en":"Australia","name":"Sunnyside","name_adm0":"Australia","name_adm1":"New South Wales","name_adm2":"Tenterfield","name_en":"Sunnyside","iso":"AU"},"geometry":{"type":"Point","coordinates":[151.95,-28.983329999999995]}},{"type":"Feature","properties":{"country_en":"Australia","name":"Sunnyside","name_adm0":"Australia","name_adm1":"Victoria","name_adm2":"East Gippsland","name_en":"Sunnyside","iso":"AU"},"geometry":{"type":"Point","coordinates":[147.5,-36.83333]}},{"type":"Feature","properties":{"country_en":"Australia","name":"Tepko","name_adm0":"Australia","name_adm1":"South Australia","name_adm2":"Mid Murray","name_en":"Tepko","iso":"AU"},"geometry":{"type":"Point","coordinates":[139.18332999999998,-34.96667]}},{"type":"Feature","properties":{"country_en":"Australia","name":"Targinie","name_adm0":"Australia","name_adm1":"Queensland","name_adm2":"Gladstone Regional","name_en":"Targinie","iso":"AU"},"geometry":{"type":"Point","coordinates":[151.09999999999997,-23.8]}},{"type":"Feature","properties":{"country_en":"Australia","name":"Torbay","name_adm0":"Australia","name_adm1":"Western Australia","name_adm2":"Albany","name_en":"Torbay","iso":"AU"},"geometry":{"type":"Point","coordinates":[117.66056,-35.02333]}},{"type":"Feature","properties":{"country_en":"Australia","name":"Tyabb","name_adm0":"Australia","name_adm1":"Victoria","name_adm2":"Mornington Peninsula","name_en":"Tyabb","iso":"AU"},"geometry":{"type":"Point","coordinates":[145.18333,-38.25]}},{"type":"Feature","properties":{"country_en":"Australia","name":"Tyalgum","name_adm0":"Australia","name_adm1":"New South Wales","name_adm2":"Tweed","name_en":"Tyalgum","iso":"AU"},"geometry":{"type":"Point","coordinates":[153.20849999999996,-28.35776]}},{"type":"Feature","properties":{"country_en":"Australia","name":"Tuena","name_adm0":"Australia","name_adm1":"New South Wales","name_adm2":"Upper Lachlan","name_en":"Tuena","iso":"AU"},"geometry":{"type":"Point","coordinates":[149.33332999999996,-34.03333]}},{"type":"Feature","properties":{"country_en":"Australia","name":"Tyaak","name_adm0":"Australia","name_adm1":"Victoria","name_adm2":"Mitchell","name_en":"Tyaak","iso":"AU"},"geometry":{"type":"Point","coordinates":[145.13333,-37.21667]}},{"type":"Feature","properties":{"country_en":"Australia","name":"Ungarie","name_adm0":"Australia","name_adm1":"New South Wales","name_adm2":"Bland","name_en":"Ungarie","iso":"AU"},"geometry":{"type":"Point","coordinates":[146.97617,-33.63777]}},{"type":"Feature","properties":{"country_en":"Australia","name":"Ulong","name_adm0":"Australia","name_adm1":"New South Wales","name_adm2":"Coffs Harbour","name_en":"Ulong","iso":"AU"},"geometry":{"type":"Point","coordinates":[152.9,-30.233330000000002]}},{"type":"Feature","properties":{"country_en":"Australia","name":"Waaia","name_adm0":"Australia","name_adm1":"Victoria","name_adm2":"Moira","name_en":"Waaia","iso":"AU"},"geometry":{"type":"Point","coordinates":[145.35,-36.05]}},{"type":"Feature","properties":{"country_en":"Australia","name":"Warrow","name_adm0":"Australia","name_adm1":"South Australia","name_adm2":"Lower Eyre Peninsula","name_en":"Warrow","iso":"AU"},"geometry":{"type":"Point","coordinates":[135.46667,-34.33332999999999]}},{"type":"Feature","properties":{"country_en":"Australia","name":"Wasleys","name_adm0":"Australia","name_adm1":"South Australia","name_adm2":"Light","name_en":"Wasleys","iso":"AU"},"geometry":{"type":"Point","coordinates":[138.68562,-34.46992]}},{"type":"Feature","properties":{"country_en":"Australia","name":"Warramboo","name_adm0":"Australia","name_adm1":"South Australia","name_adm2":"Le Hunte","name_en":"Warramboo","iso":"AU"},"geometry":{"type":"Point","coordinates":[135.59999999999997,-33.23333]}},{"type":"Feature","properties":{"country_en":"Australia","name":"Wye River","name_adm0":"Australia","name_adm1":"Victoria","name_adm2":"Colac Otway","name_en":"Wye River","iso":"AU"},"geometry":{"type":"Point","coordinates":[143.88333,-38.63333]}},{"type":"Feature","properties":{"country_en":"Australia","name":"Woods Point","name_adm0":"Australia","name_adm1":"Victoria","name_adm2":"Murrindindi","name_en":"Woods Point","iso":"AU"},"geometry":{"type":"Point","coordinates":[146.25,-37.58333]}},{"type":"Feature","properties":{"country_en":"Australia","name":"Wombat","name_adm0":"Australia","name_adm1":"New South Wales","name_adm2":"Harden","name_en":"Wombat","iso":"AU"},"geometry":{"type":"Point","coordinates":[148.25,-34.41667]}},{"type":"Feature","properties":{"country_en":"Australia","name":"Wunghnu","name_adm0":"Australia","name_adm1":"Victoria","name_adm2":"Moira","name_en":"Wunghnu","iso":"AU"},"geometry":{"type":"Point","coordinates":[145.45,-36.14999999999999]}},{"type":"Feature","properties":{"country_en":"Australia","name":"Torrens","name_adm0":"Australia","name_adm1":"Australian Capital Territory","name_adm2":"Canberra","name_en":"Torrens","iso":"AU"},"geometry":{"type":"Point","coordinates":[149.08773,-35.37203]}},{"type":"Feature","properties":{"country_en":"Australia","name":"Oakbank","name_adm0":"Australia","name_adm1":"South Australia","name_adm2":"Adelaide Hills","name_en":"Oakbank","iso":"AU"},"geometry":{"type":"Point","coordinates":[138.84528,-34.9834]}},{"type":"Feature","properties":{"country_en":"Australia","name":"Torrensville","name_adm0":"Australia","name_adm1":"South Australia","name_adm2":"West Torrens","name_en":"Torrensville","iso":"AU"},"geometry":{"type":"Point","coordinates":[138.36667,-35.51667]}},{"type":"Feature","properties":{"country_en":"Australia","name":"Lyneham","name_adm0":"Australia","name_adm1":"Australian Capital Territory","name_adm2":"Canberra","name_en":"Lyneham","iso":"AU"},"geometry":{"type":"Point","coordinates":[149.13074,-35.239799999999995]}},{"type":"Feature","properties":{"country_en":"Australia","name":"Murarrie","name_adm0":"Australia","name_adm1":"Queensland","name_adm2":"Brisbane","name_en":"Murarrie","iso":"AU"},"geometry":{"type":"Point","coordinates":[153.09809,-27.46289]}},{"type":"Feature","properties":{"country_en":"Australia","name":"Carina Heights","name_adm0":"Australia","name_adm1":"Queensland","name_adm2":"Brisbane","name_en":"Carina Heights","iso":"AU"},"geometry":{"type":"Point","coordinates":[153.09126,-27.50721]}},{"type":"Feature","properties":{"country_en":"Australia","name":"Runcorn","name_adm0":"Australia","name_adm1":"Queensland","name_adm2":"Brisbane","name_en":"Runcorn","iso":"AU"},"geometry":{"type":"Point","coordinates":[153.07699,-27.597559999999998]}},{"type":"Feature","properties":{"country_en":"Australia","name":"Taringa","name_adm0":"Australia","name_adm1":"Queensland","name_adm2":"Brisbane","name_en":"Taringa","iso":"AU"},"geometry":{"type":"Point","coordinates":[152.97860999999997,-27.49061]}},{"type":"Feature","properties":{"country_en":"Australia","name":"Brinkin","name_adm0":"Australia","name_adm1":"Northern Territory","name_adm2":"Darwin","name_en":"Brinkin","iso":"AU"},"geometry":{"type":"Point","coordinates":[130.86799,-12.37057]}},{"type":"Feature","properties":{"country_en":"Australia","name":"Casuarina","name_adm0":"Australia","name_adm1":"Northern Territory","name_adm2":"Darwin","name_en":"Casuarina","iso":"AU"},"geometry":{"type":"Point","coordinates":[130.88224,-12.374009999999998]}},{"type":"Feature","properties":{"country_en":"Australia","name":"Coconut Grove","name_adm0":"Australia","name_adm1":"Northern Territory","name_adm2":"Darwin","name_en":"Coconut Grove","iso":"AU"},"geometry":{"type":"Point","coordinates":[130.85185999999996,-12.396019999999998]}},{"type":"Feature","properties":{"country_en":"Australia","name":"Nightcliff","name_adm0":"Australia","name_adm1":"Northern Territory","name_adm2":"Darwin","name_en":"Nightcliff","iso":"AU"},"geometry":{"type":"Point","coordinates":[130.85389,-12.38056]}},{"type":"Feature","properties":{"country_en":"Australia","name":"Colonel Light Gardens","name_adm0":"Australia","name_adm1":"South Australia","name_adm2":"City of Mitcham","name_en":"Colonel Light Gardens","iso":"AU"},"geometry":{"type":"Point","coordinates":[138.59467,-34.983619999999995]}},{"type":"Feature","properties":{"country_en":"Australia","name":"Glandore","name_adm0":"Australia","name_adm1":"South Australia","name_adm2":"City of Unley","name_en":"Glandore","iso":"AU"},"geometry":{"type":"Point","coordinates":[138.56832,-34.96154]}},{"type":"Feature","properties":{"country_en":"Australia","name":"Panorama","name_adm0":"Australia","name_adm1":"South Australia","name_adm2":"City of Mitcham","name_en":"Panorama","iso":"AU"},"geometry":{"type":"Point","coordinates":[138.59737,-35.00073]}},{"type":"Feature","properties":{"country_en":"Australia","name":"Dulwich","name_adm0":"Australia","name_adm1":"South Australia","name_adm2":"City of Burnside","name_en":"Dulwich","iso":"AU"},"geometry":{"type":"Point","coordinates":[138.62898,-34.93682]}},{"type":"Feature","properties":{"country_en":"Australia","name":"Northbridge","name_adm0":"Australia","name_adm1":"Western Australia","name_adm2":"Perth","name_en":"Northbridge","iso":"AU"},"geometry":{"type":"Point","coordinates":[115.85880999999999,-31.94784]}},{"type":"Feature","properties":{"country_en":"Australia","name":"Innaloo","name_adm0":"Australia","name_adm1":"Western Australia","name_adm2":"City of Stirling","name_en":"Innaloo","iso":"AU"},"geometry":{"type":"Point","coordinates":[115.79508000000001,-31.892719999999997]}},{"type":"Feature","properties":{"country_en":"Australia","name":"West Perth","name_adm0":"Australia","name_adm1":"Western Australia","name_adm2":"Vincent","name_en":"West Perth","iso":"AU"},"geometry":{"type":"Point","coordinates":[115.84199,-31.94896]}},{"type":"Feature","properties":{"country_en":"Australia","name":"Tamborine","name_adm0":"Australia","name_adm1":"Queensland","name_adm2":"Scenic Rim Regional","name_en":"Tamborine","iso":"AU"},"geometry":{"type":"Point","coordinates":[153.13333,-27.88333]}},{"type":"Feature","properties":{"country_en":"Australia","name":"Broadbeach","name_adm0":"Australia","name_adm1":"Queensland","name_adm2":"Gold Coast City","name_en":"Broadbeach","iso":"AU"},"geometry":{"type":"Point","coordinates":[153.43343,-28.02782]}},{"type":"Feature","properties":{"country_en":"Australia","name":"Wattle Grove","name_adm0":"Australia","name_adm1":"New South Wales","name_adm2":"City of Liverpool","name_en":"Wattle Grove","iso":"AU"},"geometry":{"type":"Point","coordinates":[150.94048,-33.95423]}},{"type":"Feature","properties":{"country_en":"Australia","name":"Regency Park Bc","name_adm0":"Australia","name_adm1":"South Australia","name_adm2":"Port Adelaide Enfield","name_en":"Regency Park Bc","iso":"AU"},"geometry":{"type":"Point","coordinates":[138.57242,-34.86261999999999]}},{"type":"Feature","properties":{"country_en":"Australia","name":"Denistone East","name_adm0":"Australia","name_adm1":"New South Wales","name_adm2":"City of Ryde","name_en":"Denistone East","iso":"AU"},"geometry":{"type":"Point","coordinates":[151.09739999999996,-33.796]}},{"type":"Feature","properties":{"country_en":"Australia","name":"Winmalee","name_adm0":"Australia","name_adm1":"New South Wales","name_adm2":"Blue Mountains","name_en":"Winmalee","iso":"AU"},"geometry":{"type":"Point","coordinates":[150.61213,-33.67847]}},{"type":"Feature","properties":{"country_en":"Australia","name":"Werrington","name_adm0":"Australia","name_adm1":"New South Wales","name_adm2":"City of Penrith","name_en":"Werrington","iso":"AU"},"geometry":{"type":"Point","coordinates":[150.75266,-33.7592]}},{"type":"Feature","properties":{"country_en":"Australia","name":"South Bank","name_adm0":"Australia","name_adm1":"Queensland","name_adm2":"Brisbane","name_en":"South Bank","iso":"AU"},"geometry":{"type":"Point","coordinates":[153.0211,-27.477659999999997]}},{"type":"Feature","properties":{"country_en":"Australia","name":"Merrimac","name_adm0":"Australia","name_adm1":"Queensland","name_adm2":"Gold Coast City","name_en":"Merrimac","iso":"AU"},"geometry":{"type":"Point","coordinates":[153.37307,-28.05085]}},{"type":"Feature","properties":{"country_en":"Australia","name":"Glynde","name_adm0":"Australia","name_adm1":"South Australia","name_adm2":"Norwood Payneham And St Peters","name_en":"Glynde","iso":"AU"},"geometry":{"type":"Point","coordinates":[138.65252999999998,-34.89605]}},{"type":"Feature","properties":{"country_en":"Australia","name":"Athelstone","name_adm0":"Australia","name_adm1":"South Australia","name_adm2":"Campbelltown","name_en":"Athelstone","iso":"AU"},"geometry":{"type":"Point","coordinates":[138.70287999999996,-34.86979]}},{"type":"Feature","properties":{"country_en":"Australia","name":"Ashford","name_adm0":"Australia","name_adm1":"South Australia","name_adm2":"West Torrens","name_en":"Ashford","iso":"AU"},"geometry":{"type":"Point","coordinates":[138.57457,-34.94859]}},{"type":"Feature","properties":{"country_en":"Australia","name":"Dry Creek","name_adm0":"Australia","name_adm1":"South Australia","name_adm2":"Port Adelaide Enfield","name_en":"Dry Creek","iso":"AU"},"geometry":{"type":"Point","coordinates":[138.55469999999997,-34.82808]}},{"type":"Feature","properties":{"country_en":"Australia","name":"Taperoo","name_adm0":"Australia","name_adm1":"South Australia","name_adm2":"Port Adelaide Enfield","name_en":"Taperoo","iso":"AU"},"geometry":{"type":"Point","coordinates":[138.49801,-34.80664]}},{"type":"Feature","properties":{"country_en":"Australia","name":"St Marys","name_adm0":"Australia","name_adm1":"South Australia","name_adm2":"City of Marion","name_en":"St Marys","iso":"AU"},"geometry":{"type":"Point","coordinates":[138.57983,-35.00423]}},{"type":"Feature","properties":{"country_en":"Australia","name":"Hawthorndene","name_adm0":"Australia","name_adm1":"South Australia","name_adm2":"City of Mitcham","name_en":"Hawthorndene","iso":"AU"},"geometry":{"type":"Point","coordinates":[138.63039,-35.02229]}},{"type":"Feature","properties":{"country_en":"Australia","name":"Hoppers Crossing","name_adm0":"Australia","name_adm1":"Victoria","name_adm2":"Wyndham","name_en":"Hoppers Crossing","iso":"AU"},"geometry":{"type":"Point","coordinates":[144.7003,-37.88264]}},{"type":"Feature","properties":{"country_en":"Australia","name":"Larrakeyah","name_adm0":"Australia","name_adm1":"Northern Territory","name_adm2":"Darwin","name_en":"Larrakeyah","iso":"AU"},"geometry":{"type":"Point","coordinates":[130.83172,-12.45527]}},{"type":"Feature","properties":{"country_en":"Australia","name":"Fannie Bay","name_adm0":"Australia","name_adm1":"Northern Territory","name_adm2":"Darwin","name_en":"Fannie Bay","iso":"AU"},"geometry":{"type":"Point","coordinates":[130.83627,-12.422749999999999]}},{"type":"Feature","properties":{"country_en":"Australia","name":"Paradise","name_adm0":"Australia","name_adm1":"South Australia","name_adm2":"Campbelltown","name_en":"Paradise","iso":"AU"},"geometry":{"type":"Point","coordinates":[138.66896,-34.87361]}},{"type":"Feature","properties":{"country_en":"Australia","name":"Banana Shire","name_adm0":"Australia","name_adm1":"Queensland","name_adm2":"Banana Shire","name_en":"Banana Shire","iso":"AU"},"geometry":{"type":"Point","coordinates":[150.50969099999998,-24.399476999999997]}},{"type":"Feature","properties":{"country_en":"Australia","name":"Ballarat North","name_adm0":"Australia","name_adm1":"Victoria","name_adm2":"City of Ballarat","name_en":"Ballarat North","iso":"AU"},"geometry":{"type":"Point","coordinates":[143.84957,-37.566219999999994]}},{"type":"Feature","properties":{"country_en":"Australia","name":"Mornington Peninsula","name_adm0":"Australia","name_adm1":"Victoria","name_adm2":"Mornington Peninsula","name_en":"Mornington Peninsula","iso":"AU"},"geometry":{"type":"Point","coordinates":[144.95657,-38.3327]}},{"type":"Feature","properties":{"country_en":"Australia","name":"South Gippsland","name_adm0":"Australia","name_adm1":"Victoria","name_adm2":"South Gippsland","name_en":"South Gippsland","iso":"AU"},"geometry":{"type":"Point","coordinates":[146.06702,-38.698969999999996]}},{"type":"Feature","properties":{"country_en":"Australia","name":"Advancetown","name_adm0":"Australia","name_adm1":"Queensland","name_adm2":"Gold Coast City","name_en":"Advancetown","iso":"AU"},"geometry":{"type":"Point","coordinates":[153.26667,-28.06667]}},{"type":"Feature","properties":{"country_en":"Australia","name":"Bakers Creek","name_adm0":"Australia","name_adm1":"New South Wales","name_adm2":"Uralla","name_en":"Bakers Creek","iso":"AU"},"geometry":{"type":"Point","coordinates":[151.01667,-30.26667]}},{"type":"Feature","properties":{"country_en":"Australia","name":"Belmont","name_adm0":"Australia","name_adm1":"Queensland","name_adm2":"Brisbane","name_en":"Belmont","iso":"AU"},"geometry":{"type":"Point","coordinates":[153.11667,-27.5]}},{"type":"Feature","properties":{"country_en":"Australia","name":"Bittern","name_adm0":"Australia","name_adm1":"Victoria","name_adm2":"Mornington Peninsula","name_en":"Bittern","iso":"AU"},"geometry":{"type":"Point","coordinates":[145.16667,-38.33333]}},{"type":"Feature","properties":{"country_en":"Australia","name":"Burua","name_adm0":"Australia","name_adm1":"Queensland","name_adm2":"Gladstone Regional","name_en":"Burua","iso":"AU"},"geometry":{"type":"Point","coordinates":[151.21667,-23.95]}},{"type":"Feature","properties":{"country_en":"Australia","name":"Chipping Norton","name_adm0":"Australia","name_adm1":"New South Wales","name_adm2":"City of Liverpool","name_en":"Chipping Norton","iso":"AU"},"geometry":{"type":"Point","coordinates":[150.95,-33.89999999999999]}},{"type":"Feature","properties":{"country_en":"Australia","name":"Cockatoo Valley","name_adm0":"Australia","name_adm1":"South Australia","name_adm2":"Barossa","name_en":"Cockatoo Valley","iso":"AU"},"geometry":{"type":"Point","coordinates":[138.83333,-34.61666999999999]}},{"type":"Feature","properties":{"country_en":"Australia","name":"Coromandel Valley","name_adm0":"Australia","name_adm1":"South Australia","name_adm2":"City of Mitcham","name_en":"Coromandel Valley","iso":"AU"},"geometry":{"type":"Point","coordinates":[138.61666999999997,-35.04999999999999]}},{"type":"Feature","properties":{"country_en":"Australia","name":"Deer Park","name_adm0":"Australia","name_adm1":"Victoria","name_adm2":"City of Brimbank","name_en":"Deer Park","iso":"AU"},"geometry":{"type":"Point","coordinates":[144.78333,-37.76667]}},{"type":"Feature","properties":{"country_en":"Australia","name":"Dingley Village","name_adm0":"Australia","name_adm1":"Victoria","name_adm2":"Kingston","name_en":"Dingley Village","iso":"AU"},"geometry":{"type":"Point","coordinates":[145.1342,-37.9827]}},{"type":"Feature","properties":{"country_en":"Australia","name":"Elliminyt","name_adm0":"Australia","name_adm1":"Victoria","name_adm2":"Colac Otway","name_en":"Elliminyt","iso":"AU"},"geometry":{"type":"Point","coordinates":[143.58333,-38.35]}},{"type":"Feature","properties":{"country_en":"Australia","name":"Four Mile Creek","name_adm0":"Australia","name_adm1":"New South Wales","name_adm2":"Cabonne","name_en":"Four Mile Creek","iso":"AU"},"geometry":{"type":"Point","coordinates":[148.95,-33.43333]}},{"type":"Feature","properties":{"country_en":"Australia","name":"Gordon","name_adm0":"Australia","name_adm1":"New South Wales","name_adm2":"Clarence Valley","name_en":"Gordon","iso":"AU"},"geometry":{"type":"Point","coordinates":[152.71667,-29.3]}},{"type":"Feature","properties":{"country_en":"Australia","name":"Greenbank","name_adm0":"Australia","name_adm1":"Queensland","name_adm2":"Logan City Council","name_en":"Greenbank","iso":"AU"},"geometry":{"type":"Point","coordinates":[152.98333,-27.71667]}},{"type":"Feature","properties":{"country_en":"Australia","name":"Hope Valley","name_adm0":"Australia","name_adm1":"South Australia","name_adm2":"City of Tea Tree Gully","name_en":"Hope Valley","iso":"AU"},"geometry":{"type":"Point","coordinates":[138.7,-34.83333]}},{"type":"Feature","properties":{"country_en":"Australia","name":"Heathfield","name_adm0":"Australia","name_adm1":"South Australia","name_adm2":"Adelaide Hills","name_en":"Heathfield","iso":"AU"},"geometry":{"type":"Point","coordinates":[138.71667,-35.01667]}},{"type":"Feature","properties":{"country_en":"Australia","name":"Kelmscott","name_adm0":"Australia","name_adm1":"Western Australia","name_adm2":"Armadale","name_en":"Kelmscott","iso":"AU"},"geometry":{"type":"Point","coordinates":[116.01666999999999,-32.11667]}},{"type":"Feature","properties":{"country_en":"Australia","name":"Keysborough","name_adm0":"Australia","name_adm1":"Victoria","name_adm2":"Greater Dandenong","name_en":"Keysborough","iso":"AU"},"geometry":{"type":"Point","coordinates":[145.17385,-37.99116]}},{"type":"Feature","properties":{"country_en":"Australia","name":"Keon Park","name_adm0":"Australia","name_adm1":"Victoria","name_adm2":"City of Darebin","name_en":"Keon Park","iso":"AU"},"geometry":{"type":"Point","coordinates":[145.01666999999998,-37.699999999999996]}},{"type":"Feature","properties":{"country_en":"Australia","name":"Kernot","name_adm0":"Australia","name_adm1":"Victoria","name_adm2":"Bass Coast","name_en":"Kernot","iso":"AU"},"geometry":{"type":"Point","coordinates":[145.6,-38.43333]}},{"type":"Feature","properties":{"country_en":"Australia","name":"Lewisham","name_adm0":"Australia","name_adm1":"Tasmania","name_adm2":"Sorell","name_en":"Lewisham","iso":"AU"},"geometry":{"type":"Point","coordinates":[147.61667,-42.83333]}},{"type":"Feature","properties":{"country_en":"Australia","name":"Lalor","name_adm0":"Australia","name_adm1":"Victoria","name_adm2":"Whittlesea","name_en":"Lalor","iso":"AU"},"geometry":{"type":"Point","coordinates":[145.01666999999998,-37.66667]}},{"type":"Feature","properties":{"country_en":"Australia","name":"Lymington","name_adm0":"Australia","name_adm1":"Tasmania","name_adm2":"Huon Valley","name_en":"Lymington","iso":"AU"},"geometry":{"type":"Point","coordinates":[147.1,-43.199999999999996]}},{"type":"Feature","properties":{"country_en":"Australia","name":"Loganholme","name_adm0":"Australia","name_adm1":"Queensland","name_adm2":"Logan City Council","name_en":"Loganholme","iso":"AU"},"geometry":{"type":"Point","coordinates":[153.19999999999996,-27.699999999999996]}},{"type":"Feature","properties":{"country_en":"Australia","name":"Margate","name_adm0":"Australia","name_adm1":"Queensland","name_adm2":"Moreton Bay Regional","name_en":"Margate","iso":"AU"},"geometry":{"type":"Point","coordinates":[153.09809,-27.24761]}},{"type":"Feature","properties":{"country_en":"Australia","name":"Merrylands","name_adm0":"Australia","name_adm1":"New South Wales","name_adm2":"City of Holroyd","name_en":"Merrylands","iso":"AU"},"geometry":{"type":"Point","coordinates":[150.98333,-33.83333]}},{"type":"Feature","properties":{"country_en":"Australia","name":"Shoalhaven","name_adm0":"Australia","name_adm1":"New South Wales","name_adm2":"Shoalhaven","name_en":"Shoalhaven","iso":"AU"},"geometry":{"type":"Point","coordinates":[150.795917,-35.08205]}},{"type":"Feature","properties":{"country_en":"Australia","name":"Mosman Park","name_adm0":"Australia","name_adm1":"Western Australia","name_adm2":"Town of Mosman Park","name_en":"Mosman Park","iso":"AU"},"geometry":{"type":"Point","coordinates":[115.75,-32]}},{"type":"Feature","properties":{"country_en":"Australia","name":"Morton","name_adm0":"Australia","name_adm1":"New South Wales","name_adm2":"Shoalhaven","name_en":"Morton","iso":"AU"},"geometry":{"type":"Point","coordinates":[150.36667,-35.4]}},{"type":"Feature","properties":{"country_en":"Australia","name":"Narara","name_adm0":"Australia","name_adm1":"New South Wales","name_adm2":"Gosford","name_en":"Narara","iso":"AU"},"geometry":{"type":"Point","coordinates":[151.35,-33.4]}},{"type":"Feature","properties":{"country_en":"Australia","name":"Mudgegonga","name_adm0":"Australia","name_adm1":"Queensland","name_adm2":"Murweh","name_en":"Mudgegonga","iso":"AU"},"geometry":{"type":"Point","coordinates":[146.83333,-26.5]}},{"type":"Feature","properties":{"country_en":"Australia","name":"Mundoo","name_adm0":"Australia","name_adm1":"Queensland","name_adm2":"Cassowary Coast Regional","name_en":"Mundoo","iso":"AU"},"geometry":{"type":"Point","coordinates":[146.01667,-17.56667]}},{"type":"Feature","properties":{"country_en":"Australia","name":"Nikenbah","name_adm0":"Australia","name_adm1":"Queensland","name_adm2":"Fraser Coast Regional","name_en":"Nikenbah","iso":"AU"},"geometry":{"type":"Point","coordinates":[152.8,-25.31667]}},{"type":"Feature","properties":{"country_en":"Australia","name":"Nintingbool","name_adm0":"Australia","name_adm1":"Victoria","name_adm2":"Golden Plains","name_en":"Nintingbool","iso":"AU"},"geometry":{"type":"Point","coordinates":[143.71667,-37.61667]}},{"type":"Feature","properties":{"country_en":"Australia","name":"Oak Park","name_adm0":"Australia","name_adm1":"Western Australia","name_adm2":"Goomalling","name_en":"Oak Park","iso":"AU"},"geometry":{"type":"Point","coordinates":[116.9,-31.16667]}},{"type":"Feature","properties":{"country_en":"Australia","name":"Paradise","name_adm0":"Australia","name_adm1":"Victoria","name_adm2":"Northern Grampians","name_en":"Paradise","iso":"AU"},"geometry":{"type":"Point","coordinates":[143.13333,-36.83333]}},{"type":"Feature","properties":{"country_en":"Australia","name":"Parkwood","name_adm0":"Australia","name_adm1":"Victoria","name_adm2":"Southern Grampians","name_en":"Parkwood","iso":"AU"},"geometry":{"type":"Point","coordinates":[141.78333,-37.61667]}},{"type":"Feature","properties":{"country_en":"Australia","name":"Regents Park","name_adm0":"Australia","name_adm1":"New South Wales","name_adm2":"City of Bankstown","name_en":"Regents Park","iso":"AU"},"geometry":{"type":"Point","coordinates":[151.01667,-33.88333]}},{"type":"Feature","properties":{"country_en":"Australia","name":"Royal Park","name_adm0":"Australia","name_adm1":"Tasmania","name_adm2":"Launceston","name_en":"Royal Park","iso":"AU"},"geometry":{"type":"Point","coordinates":[147.12916999999996,-41.43611]}},{"type":"Feature","properties":{"country_en":"Australia","name":"Shenton Park","name_adm0":"Australia","name_adm1":"Western Australia","name_adm2":"City of Subiaco","name_en":"Shenton Park","iso":"AU"},"geometry":{"type":"Point","coordinates":[115.79722,-31.95833]}},{"type":"Feature","properties":{"country_en":"Australia","name":"Springfield","name_adm0":"Australia","name_adm1":"New South Wales","name_adm2":"Gosford","name_en":"Springfield","iso":"AU"},"geometry":{"type":"Point","coordinates":[151.36667,-33.43333]}},{"type":"Feature","properties":{"country_en":"Australia","name":"Tarrawanna","name_adm0":"Australia","name_adm1":"New South Wales","name_adm2":"Wollongong","name_en":"Tarrawanna","iso":"AU"},