{"type":"FeatureCollection","features":[{"type":"Feature","properties":{"country_en":"Bosnia and Herzegovina","name":"Dobrinje","name_adm0":"Bosna i Hercegovina","name_adm1":"Federacija Bosne I Hercegovine","name_adm2":"Zeničko-dobojski Kanton","name_en":"Dobrinja","iso":"BA"},"geometry":{"type":"Point","coordinates":[18.119579999999996,44.05008]}},{"type":"Feature","properties":{"country_en":"Bosnia and Herzegovina","name":"Divičani","name_adm0":"Bosna i Hercegovina","name_adm1":"Federacija Bosne I Hercegovine","name_adm2":"Srednjebosanski Kanton","name_en":"Divičani","iso":"BA"},"geometry":{"type":"Point","coordinates":[17.32678,44.36682]}},{"type":"Feature","properties":{"country_en":"Bosnia and Herzegovina","name":"Donja Dubica","name_adm0":"Bosna i Hercegovina","name_adm1":"Federacija Bosne I Hercegovine","name_adm2":"Posavski Kanton","name_en":"Donja Dubica","iso":"BA"},"geometry":{"type":"Point","coordinates":[18.41023,45.07559]}},{"type":"Feature","properties":{"country_en":"Bosnia and Herzegovina","name":"Glamoč","name_adm0":"Bosna i Hercegovina","name_adm1":"Federacija Bosne I Hercegovine","name_adm2":"Livanjski Kanton","name_en":"Glamoč","iso":"BA"},"geometry":{"type":"Point","coordinates":[16.84861,44.04583]}},{"type":"Feature","properties":{"country_en":"Bosnia and Herzegovina","name":"Krupa na Vrbasu","name_adm0":"Bosna i Hercegovina","name_adm1":"Republika Srpska","name_adm2":"Banja Luka","name_en":"Krupa na Vrbasu","iso":"BA"},"geometry":{"type":"Point","coordinates":[17.14351,44.61875]}},{"type":"Feature","properties":{"country_en":"Bosnia and Herzegovina","name":"Kruµevo","name_adm0":"Bosna i Hercegovina","name_adm1":"Federacija Bosne I Hercegovine","name_adm2":"Hercegovacko-neretvanski Kanton","name_en":"Kruµevo","iso":"BA"},"geometry":{"type":"Point","coordinates":[17.73596,43.27779]}},{"type":"Feature","properties":{"country_en":"Bosnia and Herzegovina","name":"Kulaµi","name_adm0":"Bosna i Hercegovina","name_adm1":"Republika Srpska","name_adm2":"Doboj","name_en":"Kulaµi","iso":"BA"},"geometry":{"type":"Point","coordinates":[17.89444,45.38611]}},{"type":"Feature","properties":{"country_en":"Bosnia and Herzegovina","name":"Piµtaline","name_adm0":"Bosna i Hercegovina","name_adm1":"Federacija Bosne I Hercegovine","name_adm2":"Unsko-sanski Kanton","name_en":"Piµtaline","iso":"BA"},"geometry":{"type":"Point","coordinates":[16.083689999999997,44.94512]}},{"type":"Feature","properties":{"country_en":"Bosnia and Herzegovina","name":"Podhum","name_adm0":"Bosna i Hercegovina","name_adm1":"Federacija Bosne I Hercegovine","name_adm2":"Livanjski Kanton","name_en":"Podhum","iso":"BA"},"geometry":{"type":"Point","coordinates":[16.998869999999997,43.72295]}},{"type":"Feature","properties":{"country_en":"Bosnia and Herzegovina","name":"Priluka","name_adm0":"Bosna i Hercegovina","name_adm1":"Federacija Bosne I Hercegovine","name_adm2":"Livanjski Kanton","name_en":"Priluka","iso":"BA"},"geometry":{"type":"Point","coordinates":[16.919759999999997,43.87418]}},{"type":"Feature","properties":{"country_en":"Bosnia and Herzegovina","name":"Bijela","name_adm0":"Bosna i Hercegovina","name_adm1":"Brčko Distrikt","name_adm2":"Brčko Distrikt","name_en":"Bijela","iso":"BA"},"geometry":{"type":"Point","coordinates":[18.56083,44.78999999999999]}},{"type":"Feature","properties":{"country_en":"Bosnia and Herzegovina","name":"Bijelo Brdo","name_adm0":"Bosna i Hercegovina","name_adm1":"Republika Srpska","name_adm2":"Foča","name_en":"Bijelo Brdo","iso":"BA"},"geometry":{"type":"Point","coordinates":[19.44305,43.669]}},{"type":"Feature","properties":{"country_en":"Bosnia and Herzegovina","name":"Blagaj Japra","name_adm0":"Bosna i Hercegovina","name_adm1":"Republika Srpska","name_adm2":"Banja Luka","name_en":"Blagaj Japra","iso":"BA"},"geometry":{"type":"Point","coordinates":[16.460329999999995,45.03073]}},{"type":"Feature","properties":{"country_en":"Bosnia and Herzegovina","name":"Kozanci","name_adm0":"Bosna i Hercegovina","name_adm1":"Federacija Bosne I Hercegovine","name_adm2":"Livanjski Kanton","name_en":"Kozanci","iso":"BA"},"geometry":{"type":"Point","coordinates":[16.77004,44.594739999999994]}},{"type":"Feature","properties":{"country_en":"Bosnia and Herzegovina","name":"Krakaca","name_adm0":"Bosna i Hercegovina","name_adm1":"Federacija Bosne I Hercegovine","name_adm2":"Unsko-sanski Kanton","name_en":"Krakaca","iso":"BA"},"geometry":{"type":"Point","coordinates":[15.309169999999998,44.81056]}},{"type":"Feature","properties":{"country_en":"Bosnia and Herzegovina","name":"Krasulje","name_adm0":"Bosna i Hercegovina","name_adm1":"Federacija Bosne I Hercegovine","name_adm2":"Unsko-sanski Kanton","name_en":"Krasulje","iso":"BA"},"geometry":{"type":"Point","coordinates":[15.855549999999997,44.83166]}},{"type":"Feature","properties":{"country_en":"Bosnia and Herzegovina","name":"Mehurići","name_adm0":"Bosna i Hercegovina","name_adm1":"Federacija Bosne I Hercegovine","name_adm2":"Srednjebosanski Kanton","name_en":"Mehurići","iso":"BA"},"geometry":{"type":"Point","coordinates":[17.93394,44.04744]}},{"type":"Feature","properties":{"country_en":"Bosnia and Herzegovina","name":"Memići","name_adm0":"Bosna i Hercegovina","name_adm1":"Federacija Bosne I Hercegovine","name_adm2":"Tuzlanski Kanton","name_en":"Memići","iso":"BA"},"geometry":{"type":"Point","coordinates":[18.59696,44.67852]}},{"type":"Feature","properties":{"country_en":"Bosnia and Herzegovina","name":"Miljeno","name_adm0":"Bosna i Hercegovina","name_adm1":"Republika Srpska","name_adm2":"Foča","name_en":"Miljeno","iso":"BA"},"geometry":{"type":"Point","coordinates":[19.08825,43.90847]}},{"type":"Feature","properties":{"country_en":"Bosnia and Herzegovina","name":"Kiseljak","name_adm0":"Bosna i Hercegovina","name_adm1":"Federacija Bosne I Hercegovine","name_adm2":"Tuzlanski Kanton","name_en":"Kiseljak","iso":"BA"},"geometry":{"type":"Point","coordinates":[18.56982,44.48904]}},{"type":"Feature","properties":{"country_en":"Bosnia and Herzegovina","name":"Stijena","name_adm0":"Bosna i Hercegovina","name_adm1":"Federacija Bosne I Hercegovine","name_adm2":"Unsko-sanski Kanton","name_en":"Stijena","iso":"BA"},"geometry":{"type":"Point","coordinates":[16.02028,44.94167]}},{"type":"Feature","properties":{"country_en":"Bosnia and Herzegovina","name":"Bosansko Petrovo Selo","name_adm0":"Bosna i Hercegovina","name_adm1":"Federacija Bosne I Hercegovine","name_adm2":"Tuzlanski Kanton","name_en":"Bosansko Petrovo Selo","iso":"BA"},"geometry":{"type":"Point","coordinates":[18.35323,44.62804]}},{"type":"Feature","properties":{"country_en":"Bosnia and Herzegovina","name":"Drinjača","name_adm0":"Bosna i Hercegovina","name_adm1":"Republika Srpska","name_adm2":"Vlasenica","name_en":"Drinjača","iso":"BA"},"geometry":{"type":"Point","coordinates":[19.14812,44.287699999999994]}},{"type":"Feature","properties":{"country_en":"Bosnia and Herzegovina","name":"Donji Vakuf","name_adm0":"Bosna i Hercegovina","name_adm1":"Federacija Bosne I Hercegovine","name_adm2":"Srednjebosanski Kanton","name_en":"Donji Vakuf","iso":"BA"},"geometry":{"type":"Point","coordinates":[17.4,44.14361]}},{"type":"Feature","properties":{"country_en":"Bosnia and Herzegovina","name":"Vrµani","name_adm0":"Bosna i Hercegovina","name_adm1":"Republika Srpska","name_adm2":"Bijeljina","name_en":"Vrµani","iso":"BA"},"geometry":{"type":"Point","coordinates":[18.81171,44.5212]}},{"type":"Feature","properties":{"country_en":"Bosnia and Herzegovina","name":"Teslić","name_adm0":"Bosna i Hercegovina","name_adm1":"Republika Srpska","name_adm2":"Banja Luka","name_en":"Teslić","iso":"BA"},"geometry":{"type":"Point","coordinates":[17.859719999999996,44.60639]}},{"type":"Feature","properties":{"country_en":"Bosnia and Herzegovina","name":"Popovac","name_adm0":"Bosna i Hercegovina","name_adm1":"Republika Srpska","name_adm2":"Banja Luka","name_en":"Popovac","iso":"BA"},"geometry":{"type":"Point","coordinates":[16.625,45.56972]}},{"type":"Feature","properties":{"country_en":"Bosnia and Herzegovina","name":"Donja Meðiða","name_adm0":"Bosna i Hercegovina","name_adm1":"Federacija Bosne I Hercegovine","name_adm2":"Tuzlanski Kanton","name_en":"Donja Medjedja","iso":"BA"},"geometry":{"type":"Point","coordinates":[18.40477,44.80234]}},{"type":"Feature","properties":{"country_en":"Bosnia and Herzegovina","name":"Dobrljin","name_adm0":"Bosna i Hercegovina","name_adm1":"Republika Srpska","name_adm2":"Banja Luka","name_en":"Dobrlin","iso":"BA"},"geometry":{"type":"Point","coordinates":[16.47869,45.15106]}},{"type":"Feature","properties":{"country_en":"Bosnia and Herzegovina","name":"Gnojnica","name_adm0":"Bosna i Hercegovina","name_adm1":"Federacija Bosne I Hercegovine","name_adm2":"Tuzlanski Kanton","name_en":"Gnojnica","iso":"BA"},"geometry":{"type":"Point","coordinates":[18.44684,44.62058]}},{"type":"Feature","properties":{"country_en":"Bosnia and Herzegovina","name":"Kočerin","name_adm0":"Bosna i Hercegovina","name_adm1":"Federacija Bosne I Hercegovine","name_adm2":"Zapadno-hercegovacki Kanton","name_en":"Kočerin","iso":"BA"},"geometry":{"type":"Point","coordinates":[17.48552,43.39005]}},{"type":"Feature","properties":{"country_en":"Bosnia and Herzegovina","name":"Knežica","name_adm0":"Bosna i Hercegovina","name_adm1":"Republika Srpska","name_adm2":"Banja Luka","name_en":"Knežica","iso":"BA"},"geometry":{"type":"Point","coordinates":[16.67668,45.10548]}},{"type":"Feature","properties":{"country_en":"Bosnia and Herzegovina","name":"Maslovare","name_adm0":"Bosna i Hercegovina","name_adm1":"Republika Srpska","name_adm2":"Banja Luka","name_en":"Mastovare","iso":"BA"},"geometry":{"type":"Point","coordinates":[17.53216,44.56594]}},{"type":"Feature","properties":{"country_en":"Bosnia and Herzegovina","name":"Odžak","name_adm0":"Bosna i Hercegovina","name_adm1":"Federacija Bosne I Hercegovine","name_adm2":"Posavski Kanton","name_en":"Odžak","iso":"BA"},"geometry":{"type":"Point","coordinates":[18.3272,45.01038]}},{"type":"Feature","properties":{"country_en":"Bosnia and Herzegovina","name":"Sočkovac","name_adm0":"Bosna i Hercegovina","name_adm1":"Federacija Bosne I Hercegovine","name_adm2":"Tuzlanski Kanton","name_en":"Sočkovac","iso":"BA"},"geometry":{"type":"Point","coordinates":[18.80079,43.93817]}},{"type":"Feature","properties":{"country_en":"Bosnia and Herzegovina","name":"Tržačka Raštela","name_adm0":"Bosna i Hercegovina","name_adm1":"Federacija Bosne I Hercegovine","name_adm2":"Unsko-sanski Kanton","name_en":"Tržačka Raštela","iso":"BA"},"geometry":{"type":"Point","coordinates":[15.78489,44.97597]}},{"type":"Feature","properties":{"country_en":"Bosnia and Herzegovina","name":"Bosanska Krupa","name_adm0":"Bosna i Hercegovina","name_adm1":"Federacija Bosne I Hercegovine","name_adm2":"Unsko-sanski Kanton","name_en":"Bosanska Krupa","iso":"BA"},"geometry":{"type":"Point","coordinates":[16.15139,44.88249999999999]}},{"type":"Feature","properties":{"country_en":"Bosnia and Herzegovina","name":"Srebrnik","name_adm0":"Bosna i Hercegovina","name_adm1":"Federacija Bosne I Hercegovine","name_adm2":"Tuzlanski Kanton","name_en":"Srebrnik","iso":"BA"},"geometry":{"type":"Point","coordinates":[18.48834,44.70819]}},{"type":"Feature","properties":{"country_en":"Bosnia and Herzegovina","name":"Salakovac","name_adm0":"Bosna i Hercegovina","name_adm1":"Federacija Bosne I Hercegovine","name_adm2":"Hercegovacko-neretvanski Kanton","name_en":"Salakovac","iso":"BA"},"geometry":{"type":"Point","coordinates":[17.85407,43.4429]}},{"type":"Feature","properties":{"country_en":"Bosnia and Herzegovina","name":"Domanovici","name_adm0":"Bosna i Hercegovina","name_adm1":"Federacija Bosne I Hercegovine","name_adm2":"Hercegovacko-neretvanski Kanton","name_en":"Domanovici","iso":"BA"},"geometry":{"type":"Point","coordinates":[17.77976,43.13761999999999]}},{"type":"Feature","properties":{"country_en":"Bosnia and Herzegovina","name":"Federacija Bosne I Hercegovine","name_adm0":"Bosna i Hercegovina","name_adm1":"Federacija Bosne I Hercegovine","name_en":"Federacija Bosne I Hercegovine","iso":"BA"},"geometry":{"type":"Point","coordinates":[17.58333,44]}},{"type":"Feature","properties":{"country_en":"Bosnia and Herzegovina","name":"Bosanski Novi","name_adm0":"Bosna i Hercegovina","name_adm1":"Republika Srpska","name_adm2":"Banja Luka","name_en":"Bosanski Novi","iso":"BA"},"geometry":{"type":"Point","coordinates":[16.37782,45.04643]}},{"type":"Feature","properties":{"country_en":"Bosnia and Herzegovina","name":"Čelebići","name_adm0":"Bosna i Hercegovina","name_adm1":"Republika Srpska","name_adm2":"Foča","name_en":"Celebici Kod Foce","iso":"BA"},"geometry":{"type":"Point","coordinates":[18.97514,43.38385]}},{"type":"Feature","properties":{"country_en":"Bosnia and Herzegovina","name":"Čelić","name_adm0":"Bosna i Hercegovina","name_adm1":"Federacija Bosne I Hercegovine","name_adm2":"Tuzlanski Kanton","name_en":"Čelić","iso":"BA"},"geometry":{"type":"Point","coordinates":[18.82311,44.72096]}},{"type":"Feature","properties":{"country_en":"Bosnia and Herzegovina","name":"Glavičice","name_adm0":"Bosna i Hercegovina","name_adm1":"Republika Srpska","name_adm2":"Bijeljina","name_en":"Glavičice","iso":"BA"},"geometry":{"type":"Point","coordinates":[19.05889,43.83417]}},{"type":"Feature","properties":{"country_en":"Bosnia and Herzegovina","name":"Gojevići","name_adm0":"Bosna i Hercegovina","name_adm1":"Federacija Bosne I Hercegovine","name_adm2":"Srednjebosanski Kanton","name_en":"Gojevići","iso":"BA"},"geometry":{"type":"Point","coordinates":[17.94609,43.91369]}},{"type":"Feature","properties":{"country_en":"Bosnia and Herzegovina","name":"Guča Gora","name_adm0":"Bosna i Hercegovina","name_adm1":"Federacija Bosne I Hercegovine","name_adm2":"Srednjebosanski Kanton","name_en":"Guča Gora","iso":"BA"},"geometry":{"type":"Point","coordinates":[17.72618,44.243939999999995]}},{"type":"Feature","properties":{"country_en":"Bosnia and Herzegovina","name":"Čaplje","name_adm0":"Bosna i Hercegovina","name_adm1":"Federacija Bosne I Hercegovine","name_adm2":"Unsko-sanski Kanton","name_en":"Čaplje","iso":"BA"},"geometry":{"type":"Point","coordinates":[16.69175,44.728739999999995]}},{"type":"Feature","properties":{"country_en":"Bosnia and Herzegovina","name":"Fajtovci","name_adm0":"Bosna i Hercegovina","name_adm1":"Federacija Bosne I Hercegovine","name_adm2":"Unsko-sanski Kanton","name_en":"Fajtovci","iso":"BA"},"geometry":{"type":"Point","coordinates":[16.5158,44.7908]}},{"type":"Feature","properties":{"country_en":"Bosnia and Herzegovina","name":"Hercegovacko-neretvanski Kanton","name_adm0":"Bosna i Hercegovina","name_adm1":"Federacija Bosne I Hercegovine","name_adm2":"Hercegovacko-neretvanski Kanton","name_en":"Hercegovacko-neretvanski Kanton","iso":"BA"},"geometry":{"type":"Point","coordinates":[17.8125,43.45721999999999]}},{"type":"Feature","properties":{"country_en":"Bosnia and Herzegovina","name":"Unsko-sanski Kanton","name_adm0":"Bosna i Hercegovina","name_adm1":"Federacija Bosne I Hercegovine","name_adm2":"Unsko-sanski Kanton","name_en":"Unsko-sanski Kanton","iso":"BA"},"geometry":{"type":"Point","coordinates":[16.19361,44.73694]}},{"type":"Feature","properties":{"country_en":"Bosnia and Herzegovina","name":"Banja Luka","name_adm0":"Bosna i Hercegovina","name_adm1":"Republika Srpska","name_adm2":"Banja Luka","name_en":"Banja Luka","iso":"BA"},"geometry":{"type":"Point","coordinates":[17.0875,44.73194]}},{"type":"Feature","properties":{"country_en":"Bosnia and Herzegovina","name":"Vlasenica","name_adm0":"Bosna i Hercegovina","name_adm1":"Republika Srpska","name_adm2":"Vlasenica","name_en":"Vlasenica","iso":"BA"},"geometry":{"type":"Point","coordinates":[18.91,44.19389]}},{"type":"Feature","properties":{"country_en":"Bosnia and Herzegovina","name":"Livanjski Kanton","name_adm0":"Bosna i Hercegovina","name_adm1":"Federacija Bosne I Hercegovine","name_adm2":"Livanjski Kanton","name_en":"Livanjski Kanton","iso":"BA"},"geometry":{"type":"Point","coordinates":[16.85639,43.97861]}},{"type":"Feature","properties":{"country_en":"Bosnia and Herzegovina","name":"Dejčići","name_adm0":"Bosna i Hercegovina","name_adm1":"Federacija Bosne I Hercegovine","name_adm2":"Sarajevski Kanton","name_en":"Dejčići","iso":"BA"},"geometry":{"type":"Point","coordinates":[18.34058,43.68733]}},{"type":"Feature","properties":{"country_en":"Bosnia and Herzegovina","name":"Čađavica","name_adm0":"Bosna i Hercegovina","name_adm1":"Republika Srpska","name_adm2":"Banja Luka","name_en":"Čađavica","iso":"BA"},"geometry":{"type":"Point","coordinates":[17.510699999999996,44.92263]}},{"type":"Feature","properties":{"country_en":"Bosnia and Herzegovina","name":"Rainci Gornji","name_adm0":"Bosna i Hercegovina","name_adm1":"Federacija Bosne I Hercegovine","name_adm2":"Tuzlanski Kanton","name_en":"Rainci Gornji","iso":"BA"},"geometry":{"type":"Point","coordinates":[18.813,44.46619]}},{"type":"Feature","properties":{"country_en":"Bosnia and Herzegovina","name":"Kravica","name_adm0":"Bosna i Hercegovina","name_adm1":"Republika Srpska","name_adm2":"Vlasenica","name_en":"Kravica","iso":"BA"},"geometry":{"type":"Point","coordinates":[19.19878,44.21244999999999]}},{"type":"Feature","properties":{"country_en":"Bosnia and Herzegovina","name":"Bosna i Hercegovina","name_adm0":"Bosna i Hercegovina","name_en":"Bosnia and Herzegovina","iso":"BA"},"geometry":{"type":"Point","coordinates":[17.676959,43.920101]}},{"type":"Feature","properties":{"country_en":"Bosnia and Herzegovina","name":"Budimlić Japra","name_adm0":"Bosna i Hercegovina","name_adm1":"Federacija Bosne I Hercegovine","name_adm2":"Unsko-sanski Kanton","name_en":"Budimlić Japra","iso":"BA"},"geometry":{"type":"Point","coordinates":[16.429179999999995,44.88275999999999]}},{"type":"Feature","properties":{"country_en":"Bosnia and Herzegovina","name":"Bunar","name_adm0":"Bosna i Hercegovina","name_adm1":"Republika Srpska","name_adm2":"Doboj","name_en":"Bunar","iso":"BA"},"geometry":{"type":"Point","coordinates":[17.39984,44.39369]}},{"type":"Feature","properties":{"country_en":"Bosnia and Herzegovina","name":"Kacuni","name_adm0":"Bosna i Hercegovina","name_adm1":"Federacija Bosne I Hercegovine","name_adm2":"Srednjebosanski Kanton","name_en":"Kacuni","iso":"BA"},"geometry":{"type":"Point","coordinates":[17.938939999999995,44.06433]}},{"type":"Feature","properties":{"country_en":"Bosnia and Herzegovina","name":"Bjelajci","name_adm0":"Bosna i Hercegovina","name_adm1":"Republika Srpska","name_adm2":"Banja Luka","name_en":"Bjelajci","iso":"BA"},"geometry":{"type":"Point","coordinates":[16.81464,45.12124]}},{"type":"Feature","properties":{"country_en":"Bosnia and Herzegovina","name":"Baraci","name_adm0":"Bosna i Hercegovina","name_adm1":"Republika Srpska","name_adm2":"Banja Luka","name_en":"Baraci","iso":"BA"},"geometry":{"type":"Point","coordinates":[18.06609,44.87399]}},{"type":"Feature","properties":{"country_en":"Bosnia and Herzegovina","name":"Strojice","name_adm0":"Bosna i Hercegovina","name_adm1":"Federacija Bosne I Hercegovine","name_adm2":"Srednjebosanski Kanton","name_en":"Strojice","iso":"BA"},"geometry":{"type":"Point","coordinates":[17.89852,43.72743]}},{"type":"Feature","properties":{"country_en":"Bosnia and Herzegovina","name":"Kaljina","name_adm0":"Bosna i Hercegovina","name_adm1":"Republika Srpska","name_adm2":"Sarajevo-romanija","name_en":"Kaljina","iso":"BA"},"geometry":{"type":"Point","coordinates":[17.98676,43.68653]}},{"type":"Feature","properties":{"country_en":"Bosnia and Herzegovina","name":"Kaonik","name_adm0":"Bosna i Hercegovina","name_adm1":"Federacija Bosne I Hercegovine","name_adm2":"Srednjebosanski Kanton","name_en":"Kaonik","iso":"BA"},"geometry":{"type":"Point","coordinates":[17.8802,44.12932]}},{"type":"Feature","properties":{"country_en":"Bosnia and Herzegovina","name":"Karaula","name_adm0":"Bosna i Hercegovina","name_adm1":"Federacija Bosne I Hercegovine","name_adm2":"Srednjebosanski Kanton","name_en":"Karaula","iso":"BA"},"geometry":{"type":"Point","coordinates":[18.04491,44.46192]}},{"type":"Feature","properties":{"country_en":"Bosnia and Herzegovina","name":"Donji Mamici","name_adm0":"Bosna i Hercegovina","name_adm1":"Federacija Bosne I Hercegovine","name_adm2":"Zapadno-hercegovacki Kanton","name_en":"Donji Mamici","iso":"BA"},"geometry":{"type":"Point","coordinates":[17.60111,43.26861]}},{"type":"Feature","properties":{"country_en":"Bosnia and Herzegovina","name":"Sokolovići","name_adm0":"Bosna i Hercegovina","name_adm1":"Republika Srpska","name_adm2":"Sarajevo-romanija","name_en":"Sokolovići","iso":"BA"},"geometry":{"type":"Point","coordinates":[18.31724,43.81151]}},{"type":"Feature","properties":{"country_en":"Bosnia and Herzegovina","name":"Tomasica","name_adm0":"Bosna i Hercegovina","name_adm1":"Republika Srpska","name_adm2":"Banja Luka","name_en":"Tomasica","iso":"BA"},"geometry":{"type":"Point","coordinates":[17.00583,45.61028]}},{"type":"Feature","properties":{"country_en":"Bosnia and Herzegovina","name":"Vrapčići","name_adm0":"Bosna i Hercegovina","name_adm1":"Federacija Bosne I Hercegovine","name_adm2":"Hercegovacko-neretvanski Kanton","name_en":"Vrapčići","iso":"BA"},"geometry":{"type":"Point","coordinates":[17.852138999999998,43.380789]}},{"type":"Feature","properties":{"country_en":"Bosnia and Herzegovina","name":"Brčko","name_adm0":"Bosna i Hercegovina","name_adm1":"Brčko Distrikt","name_adm2":"Brčko Distrikt","name_en":"Brčko","iso":"BA"},"geometry":{"type":"Point","coordinates":[18.80833,44.87278]}},{"type":"Feature","properties":{"country_en":"Bosnia and Herzegovina","name":"Gornji Budanj","name_adm0":"Bosna i Hercegovina","name_adm1":"Republika Srpska","name_adm2":"Foča","name_en":"Gornji Budanj","iso":"BA"},"geometry":{"type":"Point","coordinates":[18.872451,43.351146]}},{"type":"Feature","properties":{"country_en":"Bosnia and Herzegovina","name":"Dugo Polje","name_adm0":"Bosna i Hercegovina","name_adm1":"Republika Srpska","name_adm2":"Doboj","name_en":"Dugo Polje","iso":"BA"},"geometry":{"type":"Point","coordinates":[18.19672,44.93539]}},{"type":"Feature","properties":{"country_en":"Bosnia and Herzegovina","name":"Dubrave","name_adm0":"Bosna i Hercegovina","name_adm1":"Republika Srpska","name_adm2":"Banja Luka","name_en":"Dubrava","iso":"BA"},"geometry":{"type":"Point","coordinates":[17.37552,45.06811]}},{"type":"Feature","properties":{"country_en":"Bosnia and Herzegovina","name":"Foča","name_adm0":"Bosna i Hercegovina","name_adm1":"Republika Srpska","name_adm2":"Foča","name_en":"Foča","iso":"BA"},"geometry":{"type":"Point","coordinates":[18.778539999999996,43.50646]}},{"type":"Feature","properties":{"country_en":"Bosnia and Herzegovina","name":"Cerovica","name_adm0":"Bosna i Hercegovina","name_adm1":"Republika Srpska","name_adm2":"Doboj","name_en":"Cerovica","iso":"BA"},"geometry":{"type":"Point","coordinates":[17.93726,44.95837]}},{"type":"Feature","properties":{"country_en":"Bosnia and Herzegovina","name":"Mesići","name_adm0":"Bosna i Hercegovina","name_adm1":"Republika Srpska","name_adm2":"Sarajevo-romanija","name_en":"Mesići","iso":"BA"},"geometry":{"type":"Point","coordinates":[18.980449999999998,43.75314]}},{"type":"Feature","properties":{"country_en":"Bosnia and Herzegovina","name":"Sapna","name_adm0":"Bosna i Hercegovina","name_adm1":"Federacija Bosne I Hercegovine","name_adm2":"Tuzlanski Kanton","name_en":"Sapna","iso":"BA"},"geometry":{"type":"Point","coordinates":[18.99991,44.50319]}},{"type":"Feature","properties":{"country_en":"Bosnia and Herzegovina","name":"Hrenovica","name_adm0":"Bosna i Hercegovina","name_adm1":"Republika Srpska","name_adm2":"Sarajevo-romanija","name_en":"Hrenovica","iso":"BA"},"geometry":{"type":"Point","coordinates":[18.233609999999995,43.95611]}},{"type":"Feature","properties":{"country_en":"Bosnia and Herzegovina","name":"Duži","name_adm0":"Bosna i Hercegovina","name_adm1":"Republika Srpska","name_adm2":"Trebinje","name_en":"Duži","iso":"BA"},"geometry":{"type":"Point","coordinates":[18.26546,42.70246]}},{"type":"Feature","properties":{"country_en":"Bosnia and Herzegovina","name":"Kladanj","name_adm0":"Bosna i Hercegovina","name_adm1":"Federacija Bosne I Hercegovine","name_adm2":"Tuzlanski Kanton","name_en":"Kladanj","iso":"BA"},"geometry":{"type":"Point","coordinates":[18.69274,44.22669]}},{"type":"Feature","properties":{"country_en":"Bosnia and Herzegovina","name":"Novi Å eher","name_adm0":"Bosna i Hercegovina","name_adm1":"Federacija Bosne I Hercegovine","name_adm2":"Zeničko-dobojski Kanton","name_en":"Novi Å eher","iso":"BA"},"geometry":{"type":"Point","coordinates":[18.02624,44.51031]}},{"type":"Feature","properties":{"country_en":"Bosnia and Herzegovina","name":"Ljubinje","name_adm0":"Bosna i Hercegovina","name_adm1":"Republika Srpska","name_adm2":"Trebinje","name_en":"Ljubinje","iso":"BA"},"geometry":{"type":"Point","coordinates":[18.08702,42.9512]}},{"type":"Feature","properties":{"country_en":"Bosnia and Herzegovina","name":"Kraljevska Sutjeska","name_adm0":"Bosna i Hercegovina","name_adm1":"Federacija Bosne I Hercegovine","name_adm2":"Zeničko-dobojski Kanton","name_en":"Kraljevec na Sutli","iso":"BA"},"geometry":{"type":"Point","coordinates":[18.20104,44.11894]}},{"type":"Feature","properties":{"country_en":"Bosnia and Herzegovina","name":"Usora","name_adm0":"Bosna i Hercegovina","name_adm1":"Republika Srpska","name_adm2":"Doboj","name_en":"Usora","iso":"BA"},"geometry":{"type":"Point","coordinates":[18.08465,44.71935]}},{"type":"Feature","properties":{"country_en":"Bosnia and Herzegovina","name":"Velika Obarska","name_adm0":"Bosna i Hercegovina","name_adm1":"Republika Srpska","name_adm2":"Bijeljina","name_en":"Obarska Velika","iso":"BA"},"geometry":{"type":"Point","coordinates":[19.308889999999998,44.225829999999995]}},{"type":"Feature","properties":{"country_en":"Bosnia and Herzegovina","name":"Vidovice","name_adm0":"Bosna i Hercegovina","name_adm1":"Federacija Bosne I Hercegovine","name_adm2":"Posavski Kanton","name_en":"Vidovice","iso":"BA"},"geometry":{"type":"Point","coordinates":[18.731119999999997,44.98215]}},{"type":"Feature","properties":{"country_en":"Bosnia and Herzegovina","name":"Godijeno","name_adm0":"Bosna i Hercegovina","name_adm1":"Republika Srpska","name_adm2":"Foča","name_en":"Godijeno","iso":"BA"},"geometry":{"type":"Point","coordinates":[18.89028,43.49167]}},{"type":"Feature","properties":{"country_en":"Bosnia and Herzegovina","name":"Derventa","name_adm0":"Bosna i Hercegovina","name_adm1":"Republika Srpska","name_adm2":"Vlasenica","name_en":"Derventa Kod Vlasenice","iso":"BA"},"geometry":{"type":"Point","coordinates":[18.81667,44.26667]}},{"type":"Feature","properties":{"country_en":"Bosnia and Herzegovina","name":"Ražljevo","name_adm0":"Bosna i Hercegovina","name_adm1":"Republika Srpska","name_adm2":"Doboj","name_en":"Ražljevo","iso":"BA"},"geometry":{"type":"Point","coordinates":[18.08333,44.8]}},{"type":"Feature","properties":{"country_en":"Bosnia and Herzegovina","name":"Brčko Distrikt","name_adm0":"Bosna i Hercegovina","name_adm1":"Brčko Distrikt","name_adm2":"Brčko Distrikt","name_en":"Brčko Distrikt","iso":"BA"},"geometry":{"type":"Point","coordinates":[18.812713,44.87764599999999]}},{"type":"Feature","properties":{"country_en":"Bosnia and Herzegovina","name":"Čardak","name_adm0":"Bosna i Hercegovina","name_adm1":"Federacija Bosne I Hercegovine","name_adm2":"Zeničko-dobojski Kanton","name_en":"Čardak","iso":"BA"},"geometry":{"type":"Point","coordinates":[18.06452,44.98738999999999]}},{"type":"Feature","properties":{"country_en":"Bosnia and Herzegovina","name":"Sreflije","name_adm0":"Bosna i Hercegovina","name_adm1":"Republika Srpska","name_adm2":"Banja Luka","name_en":"Sreflije","iso":"BA"},"geometry":{"type":"Point","coordinates":[16.88733,45.13271]}},{"type":"Feature","properties":{"country_en":"Bosnia and Herzegovina","name":"Prelovo","name_adm0":"Bosna i Hercegovina","name_adm1":"Republika Srpska","name_adm2":"Foča","name_en":"Prelovo","iso":"BA"},"geometry":{"type":"Point","coordinates":[18.77306,42.36194]}},{"type":"Feature","properties":{"country_en":"Bosnia and Herzegovina","name":"Pridvorci","name_adm0":"Bosna i Hercegovina","name_adm1":"Republika Srpska","name_adm2":"Trebinje","name_en":"Pridorci","iso":"BA"},"geometry":{"type":"Point","coordinates":[18.33015,42.69669]}},{"type":"Feature","properties":{"country_en":"Bosnia and Herzegovina","name":"Bradina","name_adm0":"Bosna i Hercegovina","name_adm1":"Federacija Bosne I Hercegovine","name_adm2":"Sarajevski Kanton","name_en":"Bradina","iso":"BA"},"geometry":{"type":"Point","coordinates":[18.52714,44.395579999999995]}},{"type":"Feature","properties":{"country_en":"Bosnia and Herzegovina","name":"Crnići","name_adm0":"Bosna i Hercegovina","name_adm1":"Federacija Bosne I Hercegovine","name_adm2":"Hercegovacko-neretvanski Kanton","name_en":"Crnići","iso":"BA"},"geometry":{"type":"Point","coordinates":[17.63701,43.0938]}},{"type":"Feature","properties":{"country_en":"Bosnia and Herzegovina","name":"Crveni Grm","name_adm0":"Bosna i Hercegovina","name_adm1":"Federacija Bosne I Hercegovine","name_adm2":"Zapadno-hercegovacki Kanton","name_en":"Crveni Grm","iso":"BA"},"geometry":{"type":"Point","coordinates":[17.4775,43.17278]}},{"type":"Feature","properties":{"country_en":"Bosnia and Herzegovina","name":"Čajniče","name_adm0":"Bosna i Hercegovina","name_adm1":"Republika Srpska","name_adm2":"Foča","name_en":"Čajniče","iso":"BA"},"geometry":{"type":"Point","coordinates":[19.07186,43.55712]}},{"type":"Feature","properties":{"country_en":"Bosnia and Herzegovina","name":"Brod","name_adm0":"Bosna i Hercegovina","name_adm1":"Brčko Distrikt","name_adm2":"Brčko Distrikt","name_en":"Brod","iso":"BA"},"geometry":{"type":"Point","coordinates":[18.76694,44.85917]}},{"type":"Feature","properties":{"country_en":"Bosnia and Herzegovina","name":"Rudice","name_adm0":"Bosna i Hercegovina","name_adm1":"Republika Srpska","name_adm2":"Banja Luka","name_en":"Rudice","iso":"BA"},"geometry":{"type":"Point","coordinates":[16.35861,45.00417]}},{"type":"Feature","properties":{"country_en":"Bosnia and Herzegovina","name":"Vrbanjci","name_adm0":"Bosna i Hercegovina","name_adm1":"Republika Srpska","name_adm2":"Banja Luka","name_en":"Vrbanjci","iso":"BA"},"geometry":{"type":"Point","coordinates":[17.41987,44.58419]}},{"type":"Feature","properties":{"country_en":"Bosnia and Herzegovina","name":"Slatina Kod Teslica","name_adm0":"Bosna i Hercegovina","name_adm1":"Republika Srpska","name_adm2":"Banja Luka","name_en":"Slatina Kod Teslica","iso":"BA"},"geometry":{"type":"Point","coordinates":[17.859156,44.61042]}},{"type":"Feature","properties":{"country_en":"Bosnia and Herzegovina","name":"Zapadno-hercegovacki Kanton","name_adm0":"Bosna i Hercegovina","name_adm1":"Federacija Bosne I Hercegovine","name_adm2":"Zapadno-hercegovacki Kanton","name_en":"Zapadno-hercegovacki Kanton","iso":"BA"},"geometry":{"type":"Point","coordinates":[17.42389,43.40028]}},{"type":"Feature","properties":{"country_en":"Bosnia and Herzegovina","name":"Bosansko-podrinjski Kanton","name_adm0":"Bosna i Hercegovina","name_adm1":"Federacija Bosne I Hercegovine","name_adm2":"Bosansko-podrinjski Kanton","name_en":"Bosansko-podrinjski Kanton","iso":"BA"},"geometry":{"type":"Point","coordinates":[18.8,43.65528]}},{"type":"Feature","properties":{"country_en":"Bosnia and Herzegovina","name":"Hutovo","name_adm0":"Bosna i Hercegovina","name_adm1":"Federacija Bosne I Hercegovine","name_adm2":"Hercegovacko-neretvanski Kanton","name_en":"Do","iso":"BA"},"geometry":{"type":"Point","coordinates":[17.88902,43.26521]}},{"type":"Feature","properties":{"country_en":"Bosnia and Herzegovina","name":"Kijevo","name_adm0":"Bosna i Hercegovina","name_adm1":"Federacija Bosne I Hercegovine","name_adm2":"Sarajevski Kanton","name_en":"Kijevo Kod Sarajeva","iso":"BA"},"geometry":{"type":"Point","coordinates":[18.405559999999998,43.73611]}},{"type":"Feature","properties":{"country_en":"Bosnia and Herzegovina","name":"Velika Kladuµa","name_adm0":"Bosna i Hercegovina","name_adm1":"Federacija Bosne I Hercegovine","name_adm2":"Unsko-sanski Kanton","name_en":"Velika Kladuµa","iso":"BA"},"geometry":{"type":"Point","coordinates":[15.80579,45.18497]}},{"type":"Feature","properties":{"country_en":"Bosnia and Herzegovina","name":"Stupari","name_adm0":"Bosna i Hercegovina","name_adm1":"Federacija Bosne I Hercegovine","name_adm2":"Tuzlanski Kanton","name_en":"Stupari","iso":"BA"},"geometry":{"type":"Point","coordinates":[18.68416,44.31382]}},{"type":"Feature","properties":{"country_en":"Bosnia and Herzegovina","name":"Lukavica","name_adm0":"Bosna i Hercegovina","name_adm1":"Republika Srpska","name_adm2":"Doboj","name_en":"Lukavica","iso":"BA"},"geometry":{"type":"Point","coordinates":[17.633329999999997,45.68333]}},{"type":"Feature","properties":{"country_en":"Bosnia and Herzegovina","name":"Vrhpolje","name_adm0":"Bosna i Hercegovina","name_adm1":"Federacija Bosne I Hercegovine","name_adm2":"Unsko-sanski Kanton","name_en":"Vrhpolje","iso":"BA"},"geometry":{"type":"Point","coordinates":[16.033889999999996,44.29889]}},{"type":"Feature","properties":{"country_en":"Bosnia and Herzegovina","name":"Lise","name_adm0":"Bosna i Hercegovina","name_adm1":"Federacija Bosne I Hercegovine","name_adm2":"Zapadno-hercegovacki Kanton","name_en":"Lise","iso":"BA"},"geometry":{"type":"Point","coordinates":[17.60417,43.37806]}},{"type":"Feature","properties":{"country_en":"Bosnia and Herzegovina","name":"Gornji Kamengrad","name_adm0":"Bosna i Hercegovina","name_adm1":"Federacija Bosne I Hercegovine","name_adm2":"Unsko-sanski Kanton","name_en":"Gornji Kamengrad","iso":"BA"},"geometry":{"type":"Point","coordinates":[16.54216,44.79766]}},{"type":"Feature","properties":{"country_en":"Bosnia and Herzegovina","name":"Lamovita","name_adm0":"Bosna i Hercegovina","name_adm1":"Republika Srpska","name_adm2":"Banja Luka","name_en":"Lamovita","iso":"BA"},"geometry":{"type":"Point","coordinates":[16.913609999999995,44.93944]}},{"type":"Feature","properties":{"country_en":"Bosnia and Herzegovina","name":"Ilijaµ","name_adm0":"Bosna i Hercegovina","name_adm1":"Federacija Bosne I Hercegovine","name_adm2":"Zeničko-dobojski Kanton","name_en":"Ilijaµ","iso":"BA"},"geometry":{"type":"Point","coordinates":[18.80478,43.79114]}},{"type":"Feature","properties":{"country_en":"Bosnia and Herzegovina","name":"Lastva","name_adm0":"Bosna i Hercegovina","name_adm1":"Republika Srpska","name_adm2":"Trebinje","name_en":"Donja Lastva","iso":"BA"},"geometry":{"type":"Point","coordinates":[18.47551,42.70146]}},{"type":"Feature","properties":{"country_en":"Bosnia and Herzegovina","name":"Maoča","name_adm0":"Bosna i Hercegovina","name_adm1":"Brčko Distrikt","name_adm2":"Brčko Distrikt","name_en":"Maoča","iso":"BA"},"geometry":{"type":"Point","coordinates":[18.65694,44.76833]}},{"type":"Feature","properties":{"country_en":"Bosnia and Herzegovina","name":"Martin Brod","name_adm0":"Bosna i Hercegovina","name_adm1":"Federacija Bosne I Hercegovine","name_adm2":"Unsko-sanski Kanton","name_en":"Martin Brod","iso":"BA"},"geometry":{"type":"Point","coordinates":[16.14388,44.48809]}},{"type":"Feature","properties":{"country_en":"Bosnia and Herzegovina","name":"Republika Srpska","name_adm0":"Bosna i Hercegovina","name_adm1":"Republika Srpska","name_en":"Republika Srpska","iso":"BA"},"geometry":{"type":"Point","coordinates":[17.18333,44.93333]}},{"type":"Feature","properties":{"country_en":"Bosnia and Herzegovina","name":"Arapuµa","name_adm0":"Bosna i Hercegovina","name_adm1":"Federacija Bosne I Hercegovine","name_adm2":"Unsko-sanski Kanton","name_en":"Arapuµa","iso":"BA"},"geometry":{"type":"Point","coordinates":[16.25806,44.87856]}},{"type":"Feature","properties":{"country_en":"Bosnia and Herzegovina","name":"Bačvani","name_adm0":"Bosna i Hercegovina","name_adm1":"Republika Srpska","name_adm2":"Banja Luka","name_en":"Bačvani","iso":"BA"},"geometry":{"type":"Point","coordinates":[16.64814,45.20042]}},{"type":"Feature","properties":{"country_en":"Bosnia and Herzegovina","name":"Banovići Selo","name_adm0":"Bosna i Hercegovina","name_adm1":"Federacija Bosne I Hercegovine","name_adm2":"Tuzlanski Kanton","name_en":"Banovići Selo","iso":"BA"},"geometry":{"type":"Point","coordinates":[18.441759999999995,44.40276999999999]}},{"type":"Feature","properties":{"country_en":"Bosnia and Herzegovina","name":"Blatnica","name_adm0":"Bosna i Hercegovina","name_adm1":"Federacija Bosne I Hercegovine","name_adm2":"Hercegovacko-neretvanski Kanton","name_en":"Blatnica Kod Mostara","iso":"BA"},"geometry":{"type":"Point","coordinates":[17.68278,43.24722]}},{"type":"Feature","properties":{"country_en":"Bosnia and Herzegovina","name":"Bok","name_adm0":"Bosna i Hercegovina","name_adm1":"Federacija Bosne I Hercegovine","name_adm2":"Posavski Kanton","name_en":"Bok","iso":"BA"},"geometry":{"type":"Point","coordinates":[18.63095,45.005579999999995]}},{"type":"Feature","properties":{"country_en":"Bosnia and Herzegovina","name":"Borci","name_adm0":"Bosna i Hercegovina","name_adm1":"Republika Srpska","name_adm2":"Banja Luka","name_en":"Borci","iso":"BA"},"geometry":{"type":"Point","coordinates":[17.53083,44.54222]}},{"type":"Feature","properties":{"country_en":"Bosnia and Herzegovina","name":"Borika","name_adm0":"Bosna i Hercegovina","name_adm1":"Republika Srpska","name_adm2":"Sarajevo-romanija","name_en":"Borike","iso":"BA"},"geometry":{"type":"Point","coordinates":[18.44822,44.24276]}},{"type":"Feature","properties":{"country_en":"Bosnia and Herzegovina","name":"Bosanski Dubočac","name_adm0":"Bosna i Hercegovina","name_adm1":"Republika Srpska","name_adm2":"Doboj","name_en":"Bosanski Dubočac","iso":"BA"},"geometry":{"type":"Point","coordinates":[17.869619999999998,45.04404]}},{"type":"Feature","properties":{"country_en":"Bosnia and Herzegovina","name":"Bosanski Kobaµ","name_adm0":"Bosna i Hercegovina","name_adm1":"Republika Srpska","name_adm2":"Banja Luka","name_en":"Bosanski Kobaµ","iso":"BA"},"geometry":{"type":"Point","coordinates":[17.72609,45.09649]}},{"type":"Feature","properties":{"country_en":"Bosnia and Herzegovina","name":"Brestovsko","name_adm0":"Bosna i Hercegovina","name_adm1":"Federacija Bosne I Hercegovine","name_adm2":"Zeničko-dobojski Kanton","name_en":"Brestovsko","iso":"BA"},"geometry":{"type":"Point","coordinates":[17.7803,44.81874]}},{"type":"Feature","properties":{"country_en":"Bosnia and Herzegovina","name":"Brusnica Velika","name_adm0":"Bosna i Hercegovina","name_adm1":"Republika Srpska","name_adm2":"Doboj","name_en":"Velika Brusnica","iso":"BA"},"geometry":{"type":"Point","coordinates":[18.18965,45.06565]}},{"type":"Feature","properties":{"country_en":"Bosnia and Herzegovina","name":"Bučići","name_adm0":"Bosna i Hercegovina","name_adm1":"Federacija Bosne I Hercegovine","name_adm2":"Srednjebosanski Kanton","name_en":"Bučići","iso":"BA"},"geometry":{"type":"Point","coordinates":[17.7005,44.18083]}},{"type":"Feature","properties":{"country_en":"Bosnia and Herzegovina","name":"Čelinac Donji","name_adm0":"Bosna i Hercegovina","name_adm1":"Republika Srpska","name_adm2":"Banja Luka","name_en":"Čelinac Donji","iso":"BA"},"geometry":{"type":"Point","coordinates":[17.31881,44.73998]}},{"type":"Feature","properties":{"country_en":"Bosnia and Herzegovina","name":"Divin","name_adm0":"Bosna i Hercegovina","name_adm1":"Republika Srpska","name_adm2":"Trebinje","name_en":"Divin","iso":"BA"},"geometry":{"type":"Point","coordinates":[18.29433,43.04087]}},{"type":"Feature","properties":{"country_en":"Bosnia and Herzegovina","name":"Doborovci","name_adm0":"Bosna i Hercegovina","name_adm1":"Federacija Bosne I Hercegovine","name_adm2":"Tuzlanski Kanton","name_en":"Dobrovci","iso":"BA"},"geometry":{"type":"Point","coordinates":[18.11609,44.17453999999999]}},{"type":"Feature","properties":{"country_en":"Bosnia and Herzegovina","name":"Dobro Polje","name_adm0":"Bosna i Hercegovina","name_adm1":"Republika Srpska","name_adm2":"Foča","name_en":"Dobrepolje","iso":"BA"},"geometry":{"type":"Point","coordinates":[18.496129999999997,43.59544]}},{"type":"Feature","properties":{"country_en":"Bosnia and Herzegovina","name":"Dobro Selo","name_adm0":"Bosna i Hercegovina","name_adm1":"Federacija Bosne I Hercegovine","name_adm2":"Unsko-sanski Kanton","name_en":"Dobro Selo","iso":"BA"},"geometry":{"type":"Point","coordinates":[16.3795,44.56020999999999]}},{"type":"Feature","properties":{"country_en":"Bosnia and Herzegovina","name":"Donja Slatina","name_adm0":"Bosna i Hercegovina","name_adm1":"Republika Srpska","name_adm2":"Doboj","name_en":"Donja Slatina","iso":"BA"},"geometry":{"type":"Point","coordinates":[18.52578,44.98124]}},{"type":"Feature","properties":{"country_en":"Bosnia and Herzegovina","name":"Donji Borci","name_adm0":"Bosna i Hercegovina","name_adm1":"Republika Srpska","name_adm2":"Banja Luka","name_en":"Donji Borci","iso":"BA"},"geometry":{"type":"Point","coordinates":[17.48333,44.55]}},{"type":"Feature","properties":{"country_en":"Bosnia and Herzegovina","name":"Donji Kamengrad","name_adm0":"Bosna i Hercegovina","name_adm1":"Federacija Bosne I Hercegovine","name_adm2":"Unsko-sanski Kanton","name_en":"Donji Kamengrad","iso":"BA"},"geometry":{"type":"Point","coordinates":[16.54216,44.79766]}},{"type":"Feature","properties":{"country_en":"Bosnia and Herzegovina","name":"Donji Svilaj","name_adm0":"Bosna i Hercegovina","name_adm1":"Federacija Bosne I Hercegovine","name_adm2":"Posavski Kanton","name_en":"Svilaj Donji","iso":"BA"},"geometry":{"type":"Point","coordinates":[18.27391,45.10977]}},{"type":"Feature","properties":{"country_en":"Bosnia and Herzegovina","name":"Dragalovci","name_adm0":"Bosna i Hercegovina","name_adm1":"Republika Srpska","name_adm2":"Doboj","name_en":"Dragalovci","iso":"BA"},"geometry":{"type":"Point","coordinates":[18.72014,45.008399999999995]}},{"type":"Feature","properties":{"country_en":"Bosnia and Herzegovina","name":"Dragočaj","name_adm0":"Bosna i Hercegovina","name_adm1":"Republika Srpska","name_adm2":"Banja Luka","name_en":"Dragočaj","iso":"BA"},"geometry":{"type":"Point","coordinates":[17.16064,44.85491]}},{"type":"Feature","properties":{"country_en":"Bosnia and Herzegovina","name":"Dubovik","name_adm0":"Bosna i Hercegovina","name_adm1":"Federacija Bosne I Hercegovine","name_adm2":"Unsko-sanski Kanton","name_en":"Dubovik","iso":"BA"},"geometry":{"type":"Point","coordinates":[16.04117,44.71348]}},{"type":"Feature","properties":{"country_en":"Bosnia and Herzegovina","name":"Ðurđevik","name_adm0":"Bosna i Hercegovina","name_adm1":"Federacija Bosne I Hercegovine","name_adm2":"Tuzlanski Kanton","name_en":"Ðurđevik","iso":"BA"},"geometry":{"type":"Point","coordinates":[18.57556,44.75639]}},{"type":"Feature","properties":{"country_en":"Bosnia and Herzegovina","name":"Dužice","name_adm0":"Bosna i Hercegovina","name_adm1":"Federacija Bosne I Hercegovine","name_adm2":"Zapadno-hercegovacki Kanton","name_en":"Dužice","iso":"BA"},"geometry":{"type":"Point","coordinates":[17.5141,43.35531999999999]}},{"type":"Feature","properties":{"country_en":"Bosnia and Herzegovina","name":"Garevac","name_adm0":"Bosna i Hercegovina","name_adm1":"Republika Srpska","name_adm2":"Doboj","name_en":"Garevac","iso":"BA"},"geometry":{"type":"Point","coordinates":[18.35364,44.9692]}},{"type":"Feature","properties":{"country_en":"Bosnia and Herzegovina","name":"Globarica","name_adm0":"Bosna i Hercegovina","name_adm1":"Federacija Bosne I Hercegovine","name_adm2":"Zeničko-dobojski Kanton","name_en":"Globarica","iso":"BA"},"geometry":{"type":"Point","coordinates":[18.168839999999996,44.49941]}},{"type":"Feature","properties":{"country_en":"Bosnia and Herzegovina","name":"Goleµi","name_adm0":"Bosna i Hercegovina","name_adm1":"Republika Srpska","name_adm2":"Banja Luka","name_en":"Goleµi","iso":"BA"},"geometry":{"type":"Point","coordinates":[17.07163,44.759409999999995]}},{"type":"Feature","properties":{"country_en":"Bosnia and Herzegovina","name":"Gornja Koprivna","name_adm0":"Bosna i Hercegovina","name_adm1":"Federacija Bosne I Hercegovine","name_adm2":"Unsko-sanski Kanton","name_en":"Gornja Koprivna","iso":"BA"},"geometry":{"type":"Point","coordinates":[16.55024,44.31685999999999]}},{"type":"Feature","properties":{"country_en":"Bosnia and Herzegovina","name":"Gornja Slatina","name_adm0":"Bosna i Hercegovina","name_adm1":"Republika Srpska","name_adm2":"Doboj","name_en":"Gornja Slatina","iso":"BA"},"geometry":{"type":"Point","coordinates":[17.38003,44.62848]}},{"type":"Feature","properties":{"country_en":"Bosnia and Herzegovina","name":"Gornje Očevlje","name_adm0":"Bosna i Hercegovina","name_adm1":"Federacija Bosne I Hercegovine","name_adm2":"Zeničko-dobojski Kanton","name_en":"Ocevlge","iso":"BA"},"geometry":{"type":"Point","coordinates":[18.46593,44.16712]}},{"type":"Feature","properties":{"country_en":"Bosnia and Herzegovina","name":"Gornji Žabar","name_adm0":"Bosna i Hercegovina","name_adm1":"Republika Srpska","name_adm2":"Doboj","name_en":"Gornji Žabar","iso":"BA"},"geometry":{"type":"Point","coordinates":[18.11432,44.8089]}},{"type":"Feature","properties":{"country_en":"Bosnia and Herzegovina","name":"Grabovići","name_adm0":"Bosna i Hercegovina","name_adm1":"Republika Srpska","name_adm2":"Banja Luka","name_en":"Grabovica","iso":"BA"},"geometry":{"type":"Point","coordinates":[17.01828,44.62816]}},{"type":"Feature","properties":{"country_en":"Bosnia and Herzegovina","name":"Grebnice","name_adm0":"Bosna i Hercegovina","name_adm1":"Federacija Bosne I Hercegovine","name_adm2":"Posavski Kanton","name_en":"Grebnica","iso":"BA"},"geometry":{"type":"Point","coordinates":[18.12167,45.40056]}},{"type":"Feature","properties":{"country_en":"Bosnia and Herzegovina","name":"Gudavac","name_adm0":"Bosna i Hercegovina","name_adm1":"Federacija Bosne I Hercegovine","name_adm2":"Unsko-sanski Kanton","name_en":"Gudalac","iso":"BA"},"geometry":{"type":"Point","coordinates":[16.15451,44.833929999999995]}},{"type":"Feature","properties":{"country_en":"Bosnia and Herzegovina","name":"Hadžići","name_adm0":"Bosna i Hercegovina","name_adm1":"Federacija Bosne I Hercegovine","name_adm2":"Zeničko-dobojski Kanton","name_en":"Hadžići","iso":"BA"},"geometry":{"type":"Point","coordinates":[18.0703,44.03816]}},{"type":"Feature","properties":{"country_en":"Bosnia and Herzegovina","name":"Hajderovići","name_adm0":"Bosna i Hercegovina","name_adm1":"Federacija Bosne I Hercegovine","name_adm2":"Zeničko-dobojski Kanton","name_en":"Hajderovići","iso":"BA"},"geometry":{"type":"Point","coordinates":[19.02197,44.24398999999999]}},{"type":"Feature","properties":{"country_en":"Bosnia and Herzegovina","name":"Husina","name_adm0":"Bosna i Hercegovina","name_adm1":"Federacija Bosne I Hercegovine","name_adm2":"Tuzlanski Kanton","name_en":"Husina","iso":"BA"},"geometry":{"type":"Point","coordinates":[18.61214,44.5144]}},{"type":"Feature","properties":{"country_en":"Bosnia and Herzegovina","name":"Imljani","name_adm0":"Bosna i Hercegovina","name_adm1":"Republika Srpska","name_adm2":"Banja Luka","name_en":"Imljani","iso":"BA"},"geometry":{"type":"Point","coordinates":[17.22865,44.829]}},{"type":"Feature","properties":{"country_en":"Bosnia and Herzegovina","name":"Jasenica","name_adm0":"Bosna i Hercegovina","name_adm1":"Federacija Bosne I Hercegovine","name_adm2":"Unsko-sanski Kanton","name_en":"Pravoslavna Jasenica","iso":"BA"},"geometry":{"type":"Point","coordinates":[16.25942,44.80373]}},{"type":"Feature","properties":{"country_en":"Bosnia and Herzegovina","name":"Johova","name_adm0":"Bosna i Hercegovina","name_adm1":"Republika Srpska","name_adm2":"Banja Luka","name_en":"Johova","iso":"BA"},"geometry":{"type":"Point","coordinates":[16.18682,44.89512]}},{"type":"Feature","properties":{"country_en":"Bosnia and Herzegovina","name":"Johovac","name_adm0":"Bosna i Hercegovina","name_adm1":"Republika Srpska","name_adm2":"Doboj","name_en":"Johovac","iso":"BA"},"geometry":{"type":"Point","coordinates":[17.10197,45.08951]}},{"type":"Feature","properties":{"country_en":"Bosnia and Herzegovina","name":"Joµanica","name_adm0":"Bosna i Hercegovina","name_adm1":"Republika Srpska","name_adm2":"Foča","name_en":"Joµanica","iso":"BA"},"geometry":{"type":"Point","coordinates":[17.95544,43.62245999999999]}},{"type":"Feature","properties":{"country_en":"Bosnia and Herzegovina","name":"Kamenica","name_adm0":"Bosna i Hercegovina","name_adm1":"Federacija Bosne I Hercegovine","name_adm2":"Unsko-sanski Kanton","name_en":"Kamenica","iso":"BA"},"geometry":{"type":"Point","coordinates":[16.08374,44.83964999999999]}},{"type":"Feature","properties":{"country_en":"Bosnia and Herzegovina","name":"Kolibe Gornje","name_adm0":"Bosna i Hercegovina","name_adm1":"Republika Srpska","name_adm2":"Doboj","name_en":"Gornje Kolibe","iso":"BA"},"geometry":{"type":"Point","coordinates":[18.0275,45.085]}},{"type":"Feature","properties":{"country_en":"Bosnia and Herzegovina","name":"Kostajnica","name_adm0":"Bosna i Hercegovina","name_adm1":"Republika Srpska","name_adm2":"Doboj","name_en":"Kostajnica","iso":"BA"},"geometry":{"type":"Point","coordinates":[18.107,44.74691]}},{"type":"Feature","properties":{"country_en":"Bosnia and Herzegovina","name":"Krepšić","name_adm0":"Bosna i Hercegovina","name_adm1":"Brčko Distrikt","name_adm2":"Brčko Distrikt","name_en":"Krepšić","iso":"BA"},"geometry":{"type":"Point","coordinates":[18.728889999999996,44.93056]}},{"type":"Feature","properties":{"country_en":"Bosnia and Herzegovina","name":"Krnjeuµa","name_adm0":"Bosna i Hercegovina","name_adm1":"Federacija Bosne I Hercegovine","name_adm2":"Unsko-sanski Kanton","name_en":"Krnjeuµa","iso":"BA"},"geometry":{"type":"Point","coordinates":[16.22694,44.69]}},{"type":"Feature","properties":{"country_en":"Bosnia and Herzegovina","name":"Kruščica","name_adm0":"Bosna i Hercegovina","name_adm1":"Federacija Bosne I Hercegovine","name_adm2":"Srednjebosanski Kanton","name_en":"Kruščica","iso":"BA"},"geometry":{"type":"Point","coordinates":[17.78758,44.13527]}},{"type":"Feature","properties":{"country_en":"Bosnia and Herzegovina","name":"Lusnić","name_adm0":"Bosna i Hercegovina","name_adm1":"Federacija Bosne I Hercegovine","name_adm2":"Livanjski Kanton","name_en":"Lusnić","iso":"BA"},"geometry":{"type":"Point","coordinates":[16.812119999999997,43.904759999999996]}},{"type":"Feature","properties":{"country_en":"Bosnia and Herzegovina","name":"Majkic-Japra","name_adm0":"Bosna i Hercegovina","name_adm1":"Federacija Bosne I Hercegovine","name_adm2":"Unsko-sanski Kanton","name_en":"Majkic-Japra","iso":"BA"},"geometry":{"type":"Point","coordinates":[16.36394,44.79402999999999]}},{"type":"Feature","properties":{"country_en":"Bosnia and Herzegovina","name":"Mala Sočanica","name_adm0":"Bosna i Hercegovina","name_adm1":"Republika Srpska","name_adm2":"Doboj","name_en":"Mala Sočanica","iso":"BA"},"geometry":{"type":"Point","coordinates":[18.37,45.14638999999999]}},{"type":"Feature","properties":{"country_en":"Bosnia and Herzegovina","name":"Matići","name_adm0":"Bosna i Hercegovina","name_adm1":"Federacija Bosne I Hercegovine","name_adm2":"Posavski Kanton","name_en":"Matići","iso":"BA"},"geometry":{"type":"Point","coordinates":[18.6526,45.00643]}},{"type":"Feature","properties":{"country_en":"Bosnia and Herzegovina","name":"Medena-Selista","name_adm0":"Bosna i Hercegovina","name_adm1":"Federacija Bosne I Hercegovine","name_adm2":"Livanjski Kanton","name_en":"Medena-Selista","iso":"BA"},"geometry":{"type":"Point","coordinates":[16.79411,44.12401]}},{"type":"Feature","properties":{"country_en":"Bosnia and Herzegovina","name":"Meðuvoðe","name_adm0":"Bosna i Hercegovina","name_adm1":"Republika Srpska","name_adm2":"Banja Luka","name_en":"Medjuvodje","iso":"BA"},"geometry":{"type":"Point","coordinates":[16.73887,45.128359999999994]}},{"type":"Feature","properties":{"country_en":"Bosnia and Herzegovina","name":"Mionica","name_adm0":"Bosna i Hercegovina","name_adm1":"Federacija Bosne I Hercegovine","name_adm2":"Tuzlanski Kanton","name_en":"Mionica Donja","iso":"BA"},"geometry":{"type":"Point","coordinates":[18.06612,43.97576]}},{"type":"Feature","properties":{"country_en":"Bosnia and Herzegovina","name":"Nemila","name_adm0":"Bosna i Hercegovina","name_adm1":"Federacija Bosne I Hercegovine","name_adm2":"Zeničko-dobojski Kanton","name_en":"Nemila","iso":"BA"},"geometry":{"type":"Point","coordinates":[17.919159999999998,44.33169]}},{"type":"Feature","properties":{"country_en":"Bosnia and Herzegovina","name":"Novo Selo","name_adm0":"Bosna i Hercegovina","name_adm1":"Republika Srpska","name_adm2":"Bijeljina","name_en":"Petrovo Polje","iso":"BA"},"geometry":{"type":"Point","coordinates":[19.25401,44.77119999999999]}},{"type":"Feature","properties":{"country_en":"Bosnia and Herzegovina","name":"Obalj","name_adm0":"Bosna i Hercegovina","name_adm1":"Republika Srpska","name_adm2":"Foča","name_en":"Obalj","iso":"BA"},"geometry":{"type":"Point","coordinates":[18.41224,42.90454]}},{"type":"Feature","properties":{"country_en":"Bosnia and Herzegovina","name":"Obudovac","name_adm0":"Bosna i Hercegovina","name_adm1":"Republika Srpska","name_adm2":"Doboj","name_en":"Obudovac","iso":"BA"},"geometry":{"type":"Point","coordinates":[18.60112,44.96885]}},{"type":"Feature","properties":{"country_en":"Bosnia and Herzegovina","name":"Odžak","name_adm0":"Bosna i Hercegovina","name_adm1":"Republika Srpska","name_adm2":"Trebinje","name_en":"Odžak","iso":"BA"},"geometry":{"type":"Point","coordinates":[17.89944,42.71861]}},{"type":"Feature","properties":{"country_en":"Bosnia and Herzegovina","name":"Odžak","name_adm0":"Bosna i Hercegovina","name_adm1":"Republika Srpska","name_adm2":"Vlasenica","name_en":"Gornji Zabukovik","iso":"BA"},"geometry":{"type":"Point","coordinates":[19.26972,43.88861]}},{"type":"Feature","properties":{"country_en":"Bosnia and Herzegovina","name":"Okruglica","name_adm0":"Bosna i Hercegovina","name_adm1":"Federacija Bosne I Hercegovine","name_adm2":"Zeničko-dobojski Kanton","name_en":"Okruglica","iso":"BA"},"geometry":{"type":"Point","coordinates":[18.39986,44.08353]}},{"type":"Feature","properties":{"country_en":"Bosnia and Herzegovina","name":"Opara","name_adm0":"Bosna i Hercegovina","name_adm1":"Federacija Bosne I Hercegovine","name_adm2":"Srednjebosanski Kanton","name_en":"Opara","iso":"BA"},"geometry":{"type":"Point","coordinates":[17.64077,44.09708]}},{"type":"Feature","properties":{"country_en":"Bosnia and Herzegovina","name":"Polje","name_adm0":"Bosna i Hercegovina","name_adm1":"Republika Srpska","name_adm2":"Doboj","name_en":"Polje","iso":"BA"},"geometry":{"type":"Point","coordinates":[18.44229,44.60903]}},{"type":"Feature","properties":{"country_en":"Bosnia and Herzegovina","name":"Potok","name_adm0":"Bosna i Hercegovina","name_adm1":"Republika Srpska","name_adm2":"Banja Luka","name_en":"Potok","iso":"BA"},"geometry":{"type":"Point","coordinates":[17.12498,45.15104]}},{"type":"Feature","properties":{"country_en":"Bosnia and Herzegovina","name":"Preodac","name_adm0":"Bosna i Hercegovina","name_adm1":"Federacija Bosne I Hercegovine","name_adm2":"Unsko-sanski Kanton","name_en":"Preodac","iso":"BA"},"geometry":{"type":"Point","coordinates":[16.57945,44.21179999999999]}},{"type":"Feature","properties":{"country_en":"Bosnia and Herzegovina","name":"Pridvorci","name_adm0":"Bosna i Hercegovina","name_adm1":"Federacija Bosne I Hercegovine","name_adm2":"Srednjebosanski Kanton","name_en":"Pridvorci","iso":"BA"},"geometry":{"type":"Point","coordinates":[17.683219999999995,43.84977]}},{"type":"Feature","properties":{"country_en":"Bosnia and Herzegovina","name":"Puhovac","name_adm0":"Bosna i Hercegovina","name_adm1":"Federacija Bosne I Hercegovine","name_adm2":"Zeničko-dobojski Kanton","name_en":"Puhovac","iso":"BA"},"geometry":{"type":"Point","coordinates":[18.0503,44.21515]}},{"type":"Feature","properties":{"country_en":"Bosnia and Herzegovina","name":"Raµko Polje","name_adm0":"Bosna i Hercegovina","name_adm1":"Federacija Bosne I Hercegovine","name_adm2":"Livanjski Kanton","name_en":"Raµko Polje","iso":"BA"},"geometry":{"type":"Point","coordinates":[17.16772,43.5804]}},{"type":"Feature","properties":{"country_en":"Bosnia and Herzegovina","name":"Rastoµnica","name_adm0":"Bosna i Hercegovina","name_adm1":"Federacija Bosne I Hercegovine","name_adm2":"Tuzlanski Kanton","name_en":"Rastoµnica","iso":"BA"},"geometry":{"type":"Point","coordinates":[18.0161,43.88766]}},{"type":"Feature","properties":{"country_en":"Bosnia and Herzegovina","name":"Å njegotina Gornja","name_adm0":"Bosna i Hercegovina","name_adm1":"Republika Srpska","name_adm2":"Banja Luka","name_en":"Å njegotina Gornja","iso":"BA"},"geometry":{"type":"Point","coordinates":[17.47573,44.69862]}},{"type":"Feature","properties":{"country_en":"Bosnia and Herzegovina","name":"Soko","name_adm0":"Bosna i Hercegovina","name_adm1":"Federacija Bosne I Hercegovine","name_adm2":"Tuzlanski Kanton","name_en":"Sokol","iso":"BA"},"geometry":{"type":"Point","coordinates":[18.33944,44.744]}},{"type":"Feature","properties":{"country_en":"Bosnia and Herzegovina","name":"Sovići","name_adm0":"Bosna i Hercegovina","name_adm1":"Federacija Bosne I Hercegovine","name_adm2":"Hercegovacko-neretvanski Kanton","name_en":"Sovići","iso":"BA"},"geometry":{"type":"Point","coordinates":[17.74243,43.39207]}},{"type":"Feature","properties":{"country_en":"Bosnia and Herzegovina","name":"Staro Selo","name_adm0":"Bosna i Hercegovina","name_adm1":"Federacija Bosne I Hercegovine","name_adm2":"Livanjski Kanton","name_en":"Staro Selo","iso":"BA"},"geometry":{"type":"Point","coordinates":[16.937499999999996,43.97111]}},{"type":"Feature","properties":{"country_en":"Bosnia and Herzegovina","name":"Tinja Donja","name_adm0":"Bosna i Hercegovina","name_adm1":"Federacija Bosne I Hercegovine","name_adm2":"Tuzlanski Kanton","name_en":"Pravoslavna Tinja","iso":"BA"},"geometry":{"type":"Point","coordinates":[18.5605,44.63134999999999]}},{"type":"Feature","properties":{"country_en":"Bosnia and Herzegovina","name":"Todorovo","name_adm0":"Bosna i Hercegovina","name_adm1":"Federacija Bosne I Hercegovine","name_adm2":"Unsko-sanski Kanton","name_en":"Tndorovo","iso":"BA"},"geometry":{"type":"Point","coordinates":[16.25694,45.682779999999994]}},{"type":"Feature","properties":{"country_en":"Bosnia and Herzegovina","name":"Vinac","name_adm0":"Bosna i Hercegovina","name_adm1":"Federacija Bosne I Hercegovine","name_adm2":"Srednjebosanski Kanton","name_en":"Vijenac","iso":"BA"},"geometry":{"type":"Point","coordinates":[17.28314,44.26988]}},{"type":"Feature","properties":{"country_en":"Bosnia and Herzegovina","name":"Vinska","name_adm0":"Bosna i Hercegovina","name_adm1":"Republika Srpska","name_adm2":"Doboj","name_en":"Vinska","iso":"BA"},"geometry":{"type":"Point","coordinates":[18.09478,45.06276999999999]}},{"type":"Feature","properties":{"country_en":"Bosnia and Herzegovina","name":"Voljice","name_adm0":"Bosna i Hercegovina","name_adm1":"Federacija Bosne I Hercegovine","name_adm2":"Srednjebosanski Kanton","name_en":"Volice","iso":"BA"},"geometry":{"type":"Point","coordinates":[17.51963,43.90871]}},{"type":"Feature","properties":{"country_en":"Bosnia and Herzegovina","name":"Vozuća","name_adm0":"Bosna i Hercegovina","name_adm1":"Federacija Bosne I Hercegovine","name_adm2":"Zeničko-dobojski Kanton","name_en":"Vozuća","iso":"BA"},"geometry":{"type":"Point","coordinates":[18.3665,44.37836]}},{"type":"Feature","properties":{"country_en":"Bosnia and Herzegovina","name":"Vranići","name_adm0":"Bosna i Hercegovina","name_adm1":"Federacija Bosne I Hercegovine","name_adm2":"Bosansko-podrinjski Kanton","name_en":"Vranići","iso":"BA"},"geometry":{"type":"Point","coordinates":[18.90949,43.62544]}},{"type":"Feature","properties":{"country_en":"Bosnia and Herzegovina","name":"Vražići","name_adm0":"Bosna i Hercegovina","name_adm1":"Federacija Bosne I Hercegovine","name_adm2":"Tuzlanski Kanton","name_en":"Vražići","iso":"BA"},"geometry":{"type":"Point","coordinates":[18.74744,44.740739999999995]}},{"type":"Feature","properties":{"country_en":"Bosnia and Herzegovina","name":"Vučkovci","name_adm0":"Bosna i Hercegovina","name_adm1":"Federacija Bosne I Hercegovine","name_adm2":"Tuzlanski Kanton","name_en":"Vučkovci","iso":"BA"},"geometry":{"type":"Point","coordinates":[18.49146,44.80659]}},{"type":"Feature","properties":{"country_en":"Bosnia and Herzegovina","name":"Tuzlanski Kanton","name_adm0":"Bosna i Hercegovina","name_adm1":"Federacija Bosne I Hercegovine","name_adm2":"Tuzlanski Kanton","name_en":"Tuzlanski Kanton","iso":"BA"},"geometry":{"type":"Point","coordinates":[18.601669999999995,44.544999999999995]}},{"type":"Feature","properties":{"country_en":"Bosnia and Herzegovina","name":"Zeničko-dobojski Kanton","name_adm0":"Bosna i Hercegovina","name_adm1":"Federacija Bosne I Hercegovine","name_adm2":"Zeničko-dobojski Kanton","name_en":"Zeničko-dobojski Kanton","iso":"BA"},"geometry":{"type":"Point","coordinates":[18.19222,44.23]}},{"type":"Feature","properties":{"country_en":"Bosnia and Herzegovina","name":"Bistrica","name_adm0":"Bosna i Hercegovina","name_adm1":"Republika Srpska","name_adm2":"Banja Luka","name_en":"Bistrica","iso":"BA"},"geometry":{"type":"Point","coordinates":[17.34419,44.38045999999999]}},{"type":"Feature","properties":{"country_en":"Bosnia and Herzegovina","name":"Srednje","name_adm0":"Bosna i Hercegovina","name_adm1":"Federacija Bosne I Hercegovine","name_adm2":"Zeničko-dobojski Kanton","name_en":"Srednje","iso":"BA"},"geometry":{"type":"Point","coordinates":[18.7169,43.7196]}},{"type":"Feature","properties":{"country_en":"Bosnia and Herzegovina","name":"Donji Budanj","name_adm0":"Bosna i Hercegovina","name_adm1":"Republika Srpska","name_adm2":"Foča","name_en":"Donji Budanj","iso":"BA"},"geometry":{"type":"Point","coordinates":[18.6643,43.52259999999999]}},{"type":"Feature","properties":{"country_en":"Bosnia and Herzegovina","name":"Meðugorje","name_adm0":"Bosna i Hercegovina","name_adm1":"Federacija Bosne I Hercegovine","name_adm2":"Hercegovacko-neretvanski Kanton","name_en":"Medjugorje","iso":"BA"},"geometry":{"type":"Point","coordinates":[17.67554,43.19575999999999]}},{"type":"Feature","properties":{"country_en":"Bosnia and Herzegovina","name":"Mostar","name_adm0":"Bosna i Hercegovina","name_adm1":"Federacija Bosne I Hercegovine","name_adm2":"Hercegovacko-neretvanski Kanton","name_en":"Mostar","iso":"BA"},"geometry":{"type":"Point","coordinates":[17.80806,43.34333]}},{"type":"Feature","properties":{"country_en":"Bosnia and Herzegovina","name":"Bihać","name_adm0":"Bosna i Hercegovina","name_adm1":"Federacija Bosne I Hercegovine","name_adm2":"Unsko-sanski Kanton","name_en":"Bihać","iso":"BA"},"geometry":{"type":"Point","coordinates":[15.870830000000002,44.81694]}},{"type":"Feature","properties":{"country_en":"Bosnia and Herzegovina","name":"Omarska","name_adm0":"Bosna i Hercegovina","name_adm1":"Republika Srpska","name_adm2":"Banja Luka","name_en":"Omarska","iso":"BA"},"geometry":{"type":"Point","coordinates":[16.898139999999998,44.8917]}},{"type":"Feature","properties":{"country_en":"Bosnia and Herzegovina","name":"Drvar","name_adm0":"Bosna i Hercegovina","name_adm1":"Federacija Bosne I Hercegovine","name_adm2":"Livanjski Kanton","name_en":"Drvar","iso":"BA"},"geometry":{"type":"Point","coordinates":[16.380829999999996,44.37389]}},{"type":"Feature","properties":{"country_en":"Bosnia and Herzegovina","name":"Izačić","name_adm0":"Bosna i Hercegovina","name_adm1":"Federacija Bosne I Hercegovine","name_adm2":"Unsko-sanski Kanton","name_en":"Izačić","iso":"BA"},"geometry":{"type":"Point","coordinates":[15.782559999999998,44.87485]}},{"type":"Feature","properties":{"country_en":"Bosnia and Herzegovina","name":"Gornja Drežnica","name_adm0":"Bosna i Hercegovina","name_adm1":"Federacija Bosne I Hercegovine","name_adm2":"Hercegovacko-neretvanski Kanton","name_en":"Gornja Drežnica","iso":"BA"},"geometry":{"type":"Point","coordinates":[18.24564,44.03758]}},{"type":"Feature","properties":{"country_en":"Bosnia and Herzegovina","name":"Ilovača","name_adm0":"Bosna i Hercegovina","name_adm1":"Federacija Bosne I Hercegovine","name_adm2":"Bosansko-podrinjski Kanton","name_en":"Ilovača","iso":"BA"},"geometry":{"type":"Point","coordinates":[18.81676,43.63898]}},{"type":"Feature","properties":{"country_en":"Bosnia and Herzegovina","name":"Ivanjska","name_adm0":"Bosna i Hercegovina","name_adm1":"Republika Srpska","name_adm2":"Banja Luka","name_en":"Ivanjska","iso":"BA"},"geometry":{"type":"Point","coordinates":[17.08035,44.91745999999999]}},{"type":"Feature","properties":{"country_en":"Bosnia and Herzegovina","name":"Jare","name_adm0":"Bosna i Hercegovina","name_adm1":"Federacija Bosne I Hercegovine","name_adm2":"Zapadno-hercegovacki Kanton","name_en":"Jare","iso":"BA"},"geometry":{"type":"Point","coordinates":[18.05917,43.65611]}},{"type":"Feature","properties":{"country_en":"Bosnia and Herzegovina","name":"Podgrab","name_adm0":"Bosna i Hercegovina","name_adm1":"Republika Srpska","name_adm2":"Sarajevo-romanija","name_en":"Podgrab","iso":"BA"},"geometry":{"type":"Point","coordinates":[18.79111,43.75389]}},{"type":"Feature","properties":{"country_en":"Bosnia and Herzegovina","name":"Prnjavor","name_adm0":"Bosna i Hercegovina","name_adm1":"Republika Srpska","name_adm2":"Banja Luka","name_en":"Prnjavor","iso":"BA"},"geometry":{"type":"Point","coordinates":[17.20712,44.87217]}},{"type":"Feature","properties":{"country_en":"Bosnia and Herzegovina","name":"Prisoje","name_adm0":"Bosna i Hercegovina","name_adm1":"Federacija Bosne I Hercegovine","name_adm2":"Livanjski Kanton","name_en":"Prisoje","iso":"BA"},"geometry":{"type":"Point","coordinates":[17.07454,43.69289]}},{"type":"Feature","properties":{"country_en":"Bosnia and Herzegovina","name":"Potočari","name_adm0":"Bosna i Hercegovina","name_adm1":"Republika Srpska","name_adm2":"Vlasenica","name_en":"Potočari","iso":"BA"},"geometry":{"type":"Point","coordinates":[19.278089999999995,44.15326]}},{"type":"Feature","properties":{"country_en":"Bosnia and Herzegovina","name":"Banja Luka","name_adm0":"Bosna i Hercegovina","name_adm1":"Republika Srpska","name_adm2":"Banja Luka","name_en":"Banialuca","iso":"BA"},"geometry":{"type":"Point","coordinates":[17.18556,44.77583]}},{"type":"Feature","properties":{"country_en":"Bosnia and Herzegovina","name":"Kozja Luka","name_adm0":"Bosna i Hercegovina","name_adm1":"Republika Srpska","name_adm2":"Foča","name_en":"Kozja Luka","iso":"BA"},"geometry":{"type":"Point","coordinates":[19.07722,42.565]}},{"type":"Feature","properties":{"country_en":"Bosnia and Herzegovina","name":"Ostrožac","name_adm0":"Bosna i Hercegovina","name_adm1":"Federacija Bosne I Hercegovine","name_adm2":"Hercegovacko-neretvanski Kanton","name_en":"Ostrožac","iso":"BA"},"geometry":{"type":"Point","coordinates":[17.8265,43.68446]}},{"type":"Feature","properties":{"country_en":"Bosnia and Herzegovina","name":"Hadžići","name_adm0":"Bosna i Hercegovina","name_adm1":"Federacija Bosne I Hercegovine","name_adm2":"Sarajevski Kanton","name_en":"Hadžići","iso":"BA"},"geometry":{"type":"Point","coordinates":[18.20667,43.82222]}},{"type":"Feature","properties":{"country_en":"Bosnia and Herzegovina","name":"Dvorovi","name_adm0":"Bosna i Hercegovina","name_adm1":"Republika Srpska","name_adm2":"Bijeljina","name_en":"Dvorovi","iso":"BA"},"geometry":{"type":"Point","coordinates":[19.25999,44.80753]}},{"type":"Feature","properties":{"country_en":"Bosnia and Herzegovina","name":"Busovača","name_adm0":"Bosna i Hercegovina","name_adm1":"Federacija Bosne I Hercegovine","name_adm2":"Srednjebosanski Kanton","name_en":"Busovača","iso":"BA"},"geometry":{"type":"Point","coordinates":[17.8783,44.09769]}},{"type":"Feature","properties":{"country_en":"Bosnia and Herzegovina","name":"Gornji Rahić","name_adm0":"Bosna i Hercegovina","name_adm1":"Brčko Distrikt","name_adm2":"Brčko Distrikt","name_en":"Gornji Rahić","iso":"BA"},"geometry":{"type":"Point","coordinates":[18.69389,44.78167]}},{"type":"Feature","properties":{"country_en":"Bosnia and Herzegovina","name":"Kalinovik","name_adm0":"Bosna i Hercegovina","name_adm1":"Republika Srpska","name_adm2":"Foča","name_en":"Kalinovik","iso":"BA"},"geometry":{"type":"Point","coordinates":[18.44649,43.50464]}},{"type":"Feature","properties":{"country_en":"Bosnia and Herzegovina","name":"Milići","name_adm0":"Bosna i Hercegovina","name_adm1":"Republika Srpska","name_adm2":"Vlasenica","name_en":"Milići","iso":"BA"},"geometry":{"type":"Point","coordinates":[19.08235,44.16819]}},{"type":"Feature","properties":{"country_en":"Bosnia and Herzegovina","name":"Orguz","name_adm0":"Bosna i Hercegovina","name_adm1":"Federacija Bosne I Hercegovine","name_adm2":"Livanjski Kanton","name_en":"Orguz","iso":"BA"},"geometry":{"type":"Point","coordinates":[16.86329,43.77414]}},{"type":"Feature","properties":{"country_en":"Bosnia and Herzegovina","name":"Pećigrad","name_adm0":"Bosna i Hercegovina","name_adm1":"Federacija Bosne I Hercegovine","name_adm2":"Unsko-sanski Kanton","name_en":"Pećigrad","iso":"BA"},"geometry":{"type":"Point","coordinates":[15.896939999999999,45.05444]}},{"type":"Feature","properties":{"country_en":"Bosnia and Herzegovina","name":"Oµtrelj","name_adm0":"Bosna i Hercegovina","name_adm1":"Federacija Bosne I Hercegovine","name_adm2":"Unsko-sanski Kanton","name_en":"Oµtrelj","iso":"BA"},"geometry":{"type":"Point","coordinates":[16.40178,44.47771]}},{"type":"Feature","properties":{"country_en":"Bosnia and Herzegovina","name":"Skender Vakuf","name_adm0":"Bosna i Hercegovina","name_adm1":"Republika Srpska","name_adm2":"Banja Luka","name_en":"Skender Vakuf","iso":"BA"},"geometry":{"type":"Point","coordinates":[17.38161,44.49071]}},{"type":"Feature","properties":{"country_en":"Bosnia and Herzegovina","name":"Kula","name_adm0":"Bosna i Hercegovina","name_adm1":"Republika Srpska","name_adm2":"Sarajevo-romanija","name_en":"Kula","iso":"BA"},"geometry":{"type":"Point","coordinates":[19.0625,43.8625]}},{"type":"Feature","properties":{"country_en":"Bosnia and Herzegovina","name":"Donje Crnjelovo","name_adm0":"Bosna i Hercegovina","name_adm1":"Republika Srpska","name_adm2":"Bijeljina","name_en":"Donje Crnjelovo","iso":"BA"},"geometry":{"type":"Point","coordinates":[18.411259999999995,44.3941]}},{"type":"Feature","properties":{"country_en":"Bosnia and Herzegovina","name":"Osječani","name_adm0":"Bosna i Hercegovina","name_adm1":"Federacija Bosne I Hercegovine","name_adm2":"Bosansko-podrinjski Kanton","name_en":"Osječani","iso":"BA"},"geometry":{"type":"Point","coordinates":[18.90255,43.71863]}},{"type":"Feature","properties":{"country_en":"Bosnia and Herzegovina","name":"Osovo","name_adm0":"Bosna i Hercegovina","name_adm1":"Republika Srpska","name_adm2":"Sarajevo-romanija","name_en":"Osovo","iso":"BA"},"geometry":{"type":"Point","coordinates":[19.05132,43.7751]}},{"type":"Feature","properties":{"country_en":"Bosnia and Herzegovina","name":"Tupanari","name_adm0":"Bosna i Hercegovina","name_adm1":"Republika Srpska","name_adm2":"Vlasenica","name_en":"Tupanari","iso":"BA"},"geometry":{"type":"Point","coordinates":[19.74824,44.26962]}},{"type":"Feature","properties":{"country_en":"Bosnia and Herzegovina","name":"Tutnjevac","name_adm0":"Bosna i Hercegovina","name_adm1":"Republika Srpska","name_adm2":"Bijeljina","name_en":"Tutnjevac","iso":"BA"},"geometry":{"type":"Point","coordinates":[18.47533,44.75732]}},{"type":"Feature","properties":{"country_en":"Bosnia and Herzegovina","name":"Ulice","name_adm0":"Bosna i Hercegovina","name_adm1":"Brčko Distrikt","name_adm2":"Brčko Distrikt","name_en":"Ulice","iso":"BA"},"geometry":{"type":"Point","coordinates":[18.680279999999996,44.88139]}},{"type":"Feature","properties":{"country_en":"Bosnia and Herzegovina","name":"Ulog","name_adm0":"Bosna i Hercegovina","name_adm1":"Republika Srpska","name_adm2":"Foča","name_en":"Ulog Borak","iso":"BA"},"geometry":{"type":"Point","coordinates":[18.304529999999996,43.41649999999999]}},{"type":"Feature","properties":{"country_en":"Bosnia and Herzegovina","name":"Zavalje","name_adm0":"Bosna i Hercegovina","name_adm1":"Federacija Bosne I Hercegovine","name_adm2":"Unsko-sanski Kanton","name_en":"Zavalje","iso":"BA"},"geometry":{"type":"Point","coordinates":[15.84268,44.7799]}},{"type":"Feature","properties":{"country_en":"Bosnia and Herzegovina","name":"Zelinja Srednja","name_adm0":"Bosna i Hercegovina","name_adm1":"Republika Srpska","name_adm2":"Doboj","name_en":"Srpska Zelinja","iso":"BA"},"geometry":{"type":"Point","coordinates":[18.35853,44.82036]}},{"type":"Feature","properties":{"country_en":"Bosnia and Herzegovina","name":"Zmajevac","name_adm0":"Bosna i Hercegovina","name_adm1":"Federacija Bosne I Hercegovine","name_adm2":"Unsko-sanski Kanton","name_en":"Zmajevac","iso":"BA"},"geometry":{"type":"Point","coordinates":[16.06132,44.93916999999999]}},{"type":"Feature","properties":{"country_en":"Bosnia and Herzegovina","name":"Župča","name_adm0":"Bosna i Hercegovina","name_adm1":"Federacija Bosne I Hercegovine","name_adm2":"Zeničko-dobojski Kanton","name_en":"Župča","iso":"BA"},"geometry":{"type":"Point","coordinates":[18.27257,43.99072]}},{"type":"Feature","properties":{"country_en":"Bosnia and Herzegovina","name":"Cerovljani","name_adm0":"Bosna i Hercegovina","name_adm1":"Republika Srpska","name_adm2":"Banja Luka","name_en":"Cerovljani","iso":"BA"},"geometry":{"type":"Point","coordinates":[17.165559999999996,45.248889999999996]}},{"type":"Feature","properties":{"country_en":"Bosnia and Herzegovina","name":"Srpsko Gorazde","name_adm0":"Bosna i Hercegovina","name_adm1":"Republika Srpska","name_adm2":"Foča","name_en":"Srpsko Gorazde","iso":"BA"},"geometry":{"type":"Point","coordinates":[18.971328,43.667397]}},{"type":"Feature","properties":{"country_en":"Bosnia and Herzegovina","name":"Foča","name_adm0":"Bosna i Hercegovina","name_adm1":"Republika Srpska","name_adm2":"Foča","name_en":"Foča","iso":"BA"},"geometry":{"type":"Point","coordinates":[18.872451,43.351146]}},{"type":"Feature","properties":{"country_en":"Bosnia and Herzegovina","name":"Novo Sarajevo","name_adm0":"Bosna i Hercegovina","name_adm1":"Federacija Bosne I Hercegovine","name_adm2":"Sarajevski Kanton","name_en":"Novo Sarajevo","iso":"BA"},"geometry":{"type":"Point","coordinates":[18.429479,43.859341]}},{"type":"Feature","properties":{"country_en":"Bosnia and Herzegovina","name":"Grude","name_adm0":"Bosna i Hercegovina","name_adm1":"Federacija Bosne I Hercegovine","name_adm2":"Zapadno-hercegovacki Kanton","name_en":"Grude","iso":"BA"},"geometry":{"type":"Point","coordinates":[17.44596,43.81502]}},{"type":"Feature","properties":{"country_en":"Bosnia and Herzegovina","name":"Gubin","name_adm0":"Bosna i Hercegovina","name_adm1":"Federacija Bosne I Hercegovine","name_adm2":"Livanjski Kanton","name_en":"Gubin","iso":"BA"},"geometry":{"type":"Point","coordinates":[16.65292,43.94911]}},{"type":"Feature","properties":{"country_en":"Bosnia and Herzegovina","name":"Hrasnica","name_adm0":"Bosna i Hercegovina","name_adm1":"Federacija Bosne I Hercegovine","name_adm2":"Sarajevski Kanton","name_en":"Hrasnica","iso":"BA"},"geometry":{"type":"Point","coordinates":[18.31716,43.79466]}},{"type":"Feature","properties":{"country_en":"Bosnia and Herzegovina","name":"Hrvaćani","name_adm0":"Bosna i Hercegovina","name_adm1":"Republika Srpska","name_adm2":"Banja Luka","name_en":"Hrvaćani","iso":"BA"},"geometry":{"type":"Point","coordinates":[16.86586,44.83608]}},{"type":"Feature","properties":{"country_en":"Bosnia and Herzegovina","name":"Kulina","name_adm0":"Bosna i Hercegovina","name_adm1":"Republika Srpska","name_adm2":"Doboj","name_en":"Kulina","iso":"BA"},"geometry":{"type":"Point","coordinates":[18.33861,45.137499999999996]}},{"type":"Feature","properties":{"country_en":"Bosnia and Herzegovina","name":"Kupres","name_adm0":"Bosna i Hercegovina","name_adm1":"Federacija Bosne I Hercegovine","name_adm2":"Srednjebosanski Kanton","name_en":"Kupres","iso":"BA"},"geometry":{"type":"Point","coordinates":[17.862059999999996,44.07547]}},{"type":"Feature","properties":{"country_en":"Bosnia and Herzegovina","name":"Nova Topola","name_adm0":"Bosna i Hercegovina","name_adm1":"Republika Srpska","name_adm2":"Banja Luka","name_en":"Nova Topola","iso":"BA"},"geometry":{"type":"Point","coordinates":[17.30915,45.05267]}},{"type":"Feature","properties":{"country_en":"Bosnia and Herzegovina","name":"Novi Grad","name_adm0":"Bosna i Hercegovina","name_adm1":"Federacija Bosne I Hercegovine","name_adm2":"Posavski Kanton","name_en":"Novi Grad","iso":"BA"},"geometry":{"type":"Point","coordinates":[18.31734,45.09008]}},{"type":"Feature","properties":{"country_en":"Bosnia and Herzegovina","name":"Novo Selo","name_adm0":"Bosna i Hercegovina","name_adm1":"Republika Srpska","name_adm2":"Doboj","name_en":"Novo Selo","iso":"BA"},"geometry":{"type":"Point","coordinates":[17.99639,44.64639]}},{"type":"Feature","properties":{"country_en":"Bosnia and Herzegovina","name":"Nožičko","name_adm0":"Bosna i Hercegovina","name_adm1":"Republika Srpska","name_adm2":"Banja Luka","name_en":"Nožičko","iso":"BA"},"geometry":{"type":"Point","coordinates":[17.49778,45.01511]}},{"type":"Feature","properties":{"country_en":"Bosnia and Herzegovina","name":"Odžaci","name_adm0":"Bosna i Hercegovina","name_adm1":"Federacija Bosne I Hercegovine","name_adm2":"Hercegovacko-neretvanski Kanton","name_en":"Bjelemici","iso":"BA"},"geometry":{"type":"Point","coordinates":[18.22733,43.51888]}},{"type":"Feature","properties":{"country_en":"Bosnia and Herzegovina","name":"Rilić","name_adm0":"Bosna i Hercegovina","name_adm1":"Federacija Bosne I Hercegovine","name_adm2":"Livanjski Kanton","name_en":"Rilić","iso":"BA"},"geometry":{"type":"Point","coordinates":[17.26515,43.91333999999999]}},{"type":"Feature","properties":{"country_en":"Bosnia and Herzegovina","name":"Slatina","name_adm0":"Bosna i Hercegovina","name_adm1":"Republika Srpska","name_adm2":"Banja Luka","name_en":"Slatina Ilice","iso":"BA"},"geometry":{"type":"Point","coordinates":[16.72709,44.93845]}},{"type":"Feature","properties":{"country_en":"Bosnia and Herzegovina","name":"Tomina","name_adm0":"Bosna i Hercegovina","name_adm1":"Federacija Bosne I Hercegovine","name_adm2":"Unsko-sanski Kanton","name_en":"Tomina","iso":"BA"},"geometry":{"type":"Point","coordinates":[16.71749,44.70771]}},{"type":"Feature","properties":{"country_en":"Bosnia and Herzegovina","name":"Trnjani","name_adm0":"Bosna i Hercegovina","name_adm1":"Republika Srpska","name_adm2":"Banja Luka","name_en":"Trnjani","iso":"BA"},"geometry":{"type":"Point","coordinates":[16.80242,44.94098999999999]}},{"type":"Feature","properties":{"country_en":"Bosnia and Herzegovina","name":"Turija","name_adm0":"Bosna i Hercegovina","name_adm1":"Federacija Bosne I Hercegovine","name_adm2":"Tuzlanski Kanton","name_en":"Turija","iso":"BA"},"geometry":{"type":"Point","coordinates":[18.42036,44.51156]}},{"type":"Feature","properties":{"country_en":"Bosnia and Herzegovina","name":"Doboj","name_adm0":"Bosna i Hercegovina","name_adm1":"Republika Srpska","name_adm2":"Doboj","name_en":"Doboj","iso":"BA"},"geometry":{"type":"Point","coordinates":[18.08698,44.73179]}},{"type":"Feature","properties":{"country_en":"Bosnia and Herzegovina","name":"Vitina","name_adm0":"Bosna i Hercegovina","name_adm1":"Federacija Bosne I Hercegovine","name_adm2":"Zapadno-hercegovacki Kanton","name_en":"Vitina","iso":"BA"},"geometry":{"type":"Point","coordinates":[17.48389,43.2375]}},{"type":"Feature","properties":{"country_en":"Bosnia and Herzegovina","name":"Viµegrad","name_adm0":"Bosna i Hercegovina","name_adm1":"Republika Srpska","name_adm2":"Foča","name_en":"Viµegrad","iso":"BA"},"geometry":{"type":"Point","coordinates":[19.29256,43.7826]}},{"type":"Feature","properties":{"country_en":"Bosnia and Herzegovina","name":"Ugljevik","name_adm0":"Bosna i Hercegovina","name_adm1":"Republika Srpska","name_adm2":"Bijeljina","name_en":"Ugljevik","iso":"BA"},"geometry":{"type":"Point","coordinates":[19.02028,44.66361]}},{"type":"Feature","properties":{"country_en":"Bosnia and Herzegovina","name":"Svodna","name_adm0":"Bosna i Hercegovina","name_adm1":"Republika Srpska","name_adm2":"Banja Luka","name_en":"Svodna","iso":"BA"},"geometry":{"type":"Point","coordinates":[16.54019,45.0377]}},{"type":"Feature","properties":{"country_en":"Bosnia and Herzegovina","name":"Rumboci","name_adm0":"Bosna i Hercegovina","name_adm1":"Federacija Bosne I Hercegovine","name_adm2":"Hercegovacko-neretvanski Kanton","name_en":"Rumboci","iso":"BA"},"geometry":{"type":"Point","coordinates":[17.502729999999996,43.83154]}},{"type":"Feature","properties":{"country_en":"Bosnia and Herzegovina","name":"Rogatica","name_adm0":"Bosna i Hercegovina","name_adm1":"Republika Srpska","name_adm2":"Sarajevo-romanija","name_en":"Rogatica","iso":"BA"},"geometry":{"type":"Point","coordinates":[19.003629999999998,43.79894]}},{"type":"Feature","properties":{"country_en":"Bosnia and Herzegovina","name":"Gračanica","name_adm0":"Bosna i Hercegovina","name_adm1":"Federacija Bosne I Hercegovine","name_adm2":"Tuzlanski Kanton","name_en":"Gračanica","iso":"BA"},"geometry":{"type":"Point","coordinates":[18.3101,44.70307]}},{"type":"Feature","properties":{"country_en":"Bosnia and Herzegovina","name":"Gacko","name_adm0":"Bosna i Hercegovina","name_adm1":"Republika Srpska","name_adm2":"Trebinje","name_en":"Gacko","iso":"BA"},"geometry":{"type":"Point","coordinates":[18.53528,43.16722]}},{"type":"Feature","properties":{"country_en":"Bosnia and Herzegovina","name":"Bosanski Å amac","name_adm0":"Bosna i Hercegovina","name_adm1":"Republika Srpska","name_adm2":"Doboj","name_en":"Bosanski Å amac","iso":"BA"},"geometry":{"type":"Point","coordinates":[18.467559999999995,45.05986]}},{"type":"Feature","properties":{"country_en":"Bosnia and Herzegovina","name":"Bosanska Gradiµka","name_adm0":"Bosna i Hercegovina","name_adm1":"Republika Srpska","name_adm2":"Banja Luka","name_en":"Bosanska Gradiµka","iso":"BA"},"geometry":{"type":"Point","coordinates":[17.25453,45.14484]}},{"type":"Feature","properties":{"country_en":"Bosnia and Herzegovina","name":"Bijeljina","name_adm0":"Bosna i Hercegovina","name_adm1":"Republika Srpska","name_adm2":"Bijeljina","name_en":"Bijeljina","iso":"BA"},"geometry":{"type":"Point","coordinates":[19.21437,44.75874]}},{"type":"Feature","properties":{"country_en":"Bosnia and Herzegovina","name":"Celinac","name_adm0":"Bosna i Hercegovina","name_adm1":"Republika Srpska","name_adm2":"Banja Luka","name_en":"Celinac","iso":"BA"},"geometry":{"type":"Point","coordinates":[17.32431,44.72453]}},{"type":"Feature","properties":{"country_en":"Bosnia and Herzegovina","name":"Peći","name_adm0":"Bosna i Hercegovina","name_adm1":"Federacija Bosne I Hercegovine","name_adm2":"Unsko-sanski Kanton","name_en":"Peći","iso":"BA"},"geometry":{"type":"Point","coordinates":[16.24611,45.38472]}},{"type":"Feature","properties":{"country_en":"Bosnia and Herzegovina","name":"Orahova","name_adm0":"Bosna i Hercegovina","name_adm1":"Republika Srpska","name_adm2":"Banja Luka","name_en":"Orahovo Donje","iso":"BA"},"geometry":{"type":"Point","coordinates":[17.47421,44.555879999999995]}},{"type":"Feature","properties":{"country_en":"Bosnia and Herzegovina","name":"Donja Mahala","name_adm0":"Bosna i Hercegovina","name_adm1":"Federacija Bosne I Hercegovine","name_adm2":"Posavski Kanton","name_en":"Donja Mahala","iso":"BA"},"geometry":{"type":"Point","coordinates":[18.49354,44.80012]}},{"type":"Feature","properties":{"country_en":"Bosnia and Herzegovina","name":"Gornji Teslić","name_adm0":"Bosna i Hercegovina","name_adm1":"Republika Srpska","name_adm2":"Banja Luka","name_en":"Gornji Teslić","iso":"BA"},"geometry":{"type":"Point","coordinates":[17.79732,44.58305]}},{"type":"Feature","properties":{"country_en":"Bosnia and Herzegovina","name":"Kiseljak","name_adm0":"Bosna i Hercegovina","name_adm1":"Federacija Bosne I Hercegovine","name_adm2":"Zeničko-dobojski Kanton","name_en":"Kiseljak","iso":"BA"},"geometry":{"type":"Point","coordinates":[18.08132,43.94295]}},{"type":"Feature","properties":{"country_en":"Bosnia and Herzegovina","name":"Grab","name_adm0":"Bosna i Hercegovina","name_adm1":"Republika Srpska","name_adm2":"Trebinje","name_en":"Grab","iso":"BA"},"geometry":{"type":"Point","coordinates":[18.42577,42.605509999999995]}},{"type":"Feature","properties":{"country_en":"Bosnia and Herzegovina","name":"Kozarac","name_adm0":"Bosna i Hercegovina","name_adm1":"Republika Srpska","name_adm2":"Banja Luka","name_en":"Kozarac","iso":"BA"},"geometry":{"type":"Point","coordinates":[16.84162,44.97477]}},{"type":"Feature","properties":{"country_en":"Bosnia and Herzegovina","name":"Čitluk","name_adm0":"Bosna i Hercegovina","name_adm1":"Federacija Bosne I Hercegovine","name_adm2":"Hercegovacko-neretvanski Kanton","name_en":"Čitluk","iso":"BA"},"geometry":{"type":"Point","coordinates":[17.700829999999996,43.22861]}},{"type":"Feature","properties":{"country_en":"Bosnia and Herzegovina","name":"Lukavac","name_adm0":"Bosna i Hercegovina","name_adm1":"Federacija Bosne I Hercegovine","name_adm2":"Tuzlanski Kanton","name_en":"Lukavac Muslimanski","iso":"BA"},"geometry":{"type":"Point","coordinates":[18.52618,44.54245]}},{"type":"Feature","properties":{"country_en":"Bosnia and Herzegovina","name":"Beric","name_adm0":"Bosna i Hercegovina","name_adm1":"Republika Srpska","name_adm2":"Foča","name_en":"Beric","iso":"BA"},"geometry":{"type":"Point","coordinates":[18.88289,43.66407]}},{"type":"Feature","properties":{"country_en":"Bosnia and Herzegovina","name":"Gornji Strpci","name_adm0":"Bosna i Hercegovina","name_adm1":"Republika Srpska","name_adm2":"Banja Luka","name_en":"Gornji Strpci","iso":"BA"},"geometry":{"type":"Point","coordinates":[17.5038,44.04551]}},{"type":"Feature","properties":{"country_en":"Bosnia and Herzegovina","name":"Donji Vrbljani","name_adm0":"Bosna i Hercegovina","name_adm1":"Republika Srpska","name_adm2":"Banja Luka","name_en":"Donji Vrbljani","iso":"BA"},"geometry":{"type":"Point","coordinates":[17.46991,44.223189999999995]}},{"type":"Feature","properties":{"country_en":"Bosnia and Herzegovina","name":"Čapardi","name_adm0":"Bosna i Hercegovina","name_adm1":"Republika Srpska","name_adm2":"Vlasenica","name_en":"Čapardi","iso":"BA"},"geometry":{"type":"Point","coordinates":[19.45963,44.16936]}},{"type":"Feature","properties":{"country_en":"Bosnia and Herzegovina","name":"Begov Han","name_adm0":"Bosna i Hercegovina","name_adm1":"Federacija Bosne I Hercegovine","name_adm2":"Zeničko-dobojski Kanton","name_en":"Begov Han","iso":"BA"},"geometry":{"type":"Point","coordinates":[17.99165,44.351519999999994]}},{"type":"Feature","properties":{"country_en":"Bosnia and Herzegovina","name":"Biljeµevo","name_adm0":"Bosna i Hercegovina","name_adm1":"Federacija Bosne I Hercegovine","name_adm2":"Zeničko-dobojski Kanton","name_en":"Biljeµevo","iso":"BA"},"geometry":{"type":"Point","coordinates":[18.003989999999998,44.13717]}},{"type":"Feature","properties":{"country_en":"Bosnia and Herzegovina","name":"Bužim","name_adm0":"Bosna i Hercegovina","name_adm1":"Federacija Bosne I Hercegovine","name_adm2":"Unsko-sanski Kanton","name_en":"Bužim","iso":"BA"},"geometry":{"type":"Point","coordinates":[16.05083,45.18639]}},{"type":"Feature","properties":{"country_en":"Bosnia and Herzegovina","name":"Čerin","name_adm0":"Bosna i Hercegovina","name_adm1":"Federacija Bosne I Hercegovine","name_adm2":"Hercegovacko-neretvanski Kanton","name_en":"Čerin","iso":"BA"},"geometry":{"type":"Point","coordinates":[17.640369999999997,43.27307]}},{"type":"Feature","properties":{"country_en":"Bosnia and Herzegovina","name":"Drinsko","name_adm0":"Bosna i Hercegovina","name_adm1":"Republika Srpska","name_adm2":"Foča","name_en":"Drinsko","iso":"BA"},"geometry":{"type":"Point","coordinates":[19.29387,43.73895]}},{"type":"Feature","properties":{"country_en":"Bosnia and Herzegovina","name":"Višići","name_adm0":"Bosna i Hercegovina","name_adm1":"Federacija Bosne I Hercegovine","name_adm2":"Hercegovacko-neretvanski Kanton","name_en":"Višići","iso":"BA"},"geometry":{"type":"Point","coordinates":[17.71222,43.06721999999999]}},{"type":"Feature","properties":{"country_en":"Bosnia and Herzegovina","name":"Donji Vijačani","name_adm0":"Bosna i Hercegovina","name_adm1":"Republika Srpska","name_adm2":"Banja Luka","name_en":"Donji Vijačani","iso":"BA"},"geometry":{"type":"Point","coordinates":[17.63871,44.76118]}},{"type":"Feature","properties":{"country_en":"Bosnia and Herzegovina","name":"Donja Dobosnica","name_adm0":"Bosna i Hercegovina","name_adm1":"Federacija Bosne I Hercegovine","name_adm2":"Tuzlanski Kanton","name_en":"Donja Dobosnica","iso":"BA"},"geometry":{"type":"Point","coordinates":[18.4485,44.58448]}},{"type":"Feature","properties":{"country_en":"Bosnia and Herzegovina","name":"Javorani","name_adm0":"Bosna i Hercegovina","name_adm1":"Republika Srpska","name_adm2":"Banja Luka","name_en":"Javorani","iso":"BA"},"geometry":{"type":"Point","coordinates":[17.12052,44.76885]}},{"type":"Feature","properties":{"country_en":"Bosnia and Herzegovina","name":"Jezero","name_adm0":"Bosna i Hercegovina","name_adm1":"Federacija Bosne I Hercegovine","name_adm2":"Hercegovacko-neretvanski Kanton","name_en":"Boracko Jezero","iso":"BA"},"geometry":{"type":"Point","coordinates":[18.02861,43.55833]}},{"type":"Feature","properties":{"country_en":"Bosnia and Herzegovina","name":"Jezero","name_adm0":"Bosna i Hercegovina","name_adm1":"Federacija Bosne I Hercegovine","name_adm2":"Srednjebosanski Kanton","name_en":"Jezero","iso":"BA"},"geometry":{"type":"Point","coordinates":[17.83281,44.22336]}},{"type":"Feature","properties":{"country_en":"Bosnia and Herzegovina","name":"Mašići","name_adm0":"Bosna i Hercegovina","name_adm1":"Republika Srpska","name_adm2":"Banja Luka","name_en":"Mašići","iso":"BA"},"geometry":{"type":"Point","coordinates":[17.07231,44.42752]}},{"type":"Feature","properties":{"country_en":"Bosnia and Herzegovina","name":"Previja","name_adm0":"Bosna i Hercegovina","name_adm1":"Republika Srpska","name_adm2":"Banja Luka","name_en":"Previja","iso":"BA"},"geometry":{"type":"Point","coordinates":[16.83099,44.32735]}},{"type":"Feature","properties":{"country_en":"Bosnia and Herzegovina","name":"Hrasno","name_adm0":"Bosna i Hercegovina","name_adm1":"Federacija Bosne I Hercegovine","name_adm2":"Hercegovacko-neretvanski Kanton","name_en":"Hrasno","iso":"BA"},"geometry":{"type":"Point","coordinates":[18.043609999999997,43.87416999999999]}},{"type":"Feature","properties":{"country_en":"Bosnia and Herzegovina","name":"Sutjeska","name_adm0":"Bosna i Hercegovina","name_adm1":"Federacija Bosne I Hercegovine","name_adm2":"Zeničko-dobojski Kanton","name_en":"Sutjeska","iso":"BA"},"geometry":{"type":"Point","coordinates":[18.18194,43.79222]}},{"type":"Feature","properties":{"country_en":"Bosnia and Herzegovina","name":"Vranjak","name_adm0":"Bosna i Hercegovina","name_adm1":"Republika Srpska","name_adm2":"Doboj","name_en":"Vranjak","iso":"BA"},"geometry":{"type":"Point","coordinates":[17.24524,44.76459]}},{"type":"Feature","properties":{"country_en":"Bosnia and Herzegovina","name":"Avtovac","name_adm0":"Bosna i Hercegovina","name_adm1":"Republika Srpska","name_adm2":"Trebinje","name_en":"Ajvtovac","iso":"BA"},"geometry":{"type":"Point","coordinates":[18.41454,43.03047]}},{"type":"Feature","properties":{"country_en":"Bosnia and Herzegovina","name":"Banja Vrućica","name_adm0":"Bosna i Hercegovina","name_adm1":"Republika Srpska","name_adm2":"Banja Luka","name_en":"Banja Vrućica","iso":"BA"},"geometry":{"type":"Point","coordinates":[17.87953,44.59153]}},{"type":"Feature","properties":{"country_en":"Bosnia and Herzegovina","name":"Boljanić","name_adm0":"Bosna i Hercegovina","name_adm1":"Republika Srpska","name_adm2":"Doboj","name_en":"Boljanić","iso":"BA"},"geometry":{"type":"Point","coordinates":[17.72332,44.26905]}},{"type":"Feature","properties":{"country_en":"Bosnia and Herzegovina","name":"Bosansko Grahovo","name_adm0":"Bosna i Hercegovina","name_adm1":"Federacija Bosne I Hercegovine","name_adm2":"Unsko-sanski Kanton","name_en":"Grahovo","iso":"BA"},"geometry":{"type":"Point","coordinates":[15.8424,45.14521]}},{"type":"Feature","properties":{"country_en":"Bosnia and Herzegovina","name":"Kreµevo","name_adm0":"Bosna i Hercegovina","name_adm1":"Federacija Bosne I Hercegovine","name_adm2":"Srednjebosanski Kanton","name_en":"Kreµevo","iso":"BA"},"geometry":{"type":"Point","coordinates":[18.15306,43.92555999999999]}},{"type":"Feature","properties":{"country_en":"Bosnia and Herzegovina","name":"Mramor","name_adm0":"Bosna i Hercegovina","name_adm1":"Federacija Bosne I Hercegovine","name_adm2":"Tuzlanski Kanton","name_en":"Mramor","iso":"BA"},"geometry":{"type":"Point","coordinates":[18.56458,44.59234]}},{"type":"Feature","properties":{"country_en":"Bosnia and Herzegovina","name":"Piskavica","name_adm0":"Bosna i Hercegovina","name_adm1":"Republika Srpska","name_adm2":"Banja Luka","name_en":"Piskavica","iso":"BA"},"geometry":{"type":"Point","coordinates":[16.97464,44.86717]}},{"type":"Feature","properties":{"country_en":"Bosnia and Herzegovina","name":"Krstac","name_adm0":"Bosna i Hercegovina","name_adm1":"Republika Srpska","name_adm2":"Bijeljina","name_en":"Krstac","iso":"BA"},"geometry":{"type":"Point","coordinates":[18.97967,44.60321]}},{"type":"Feature","properties":{"country_en":"Bosnia and Herzegovina","name":"Majevac","name_adm0":"Bosna i Hercegovina","name_adm1":"Republika Srpska","name_adm2":"Doboj","name_en":"Majevac","iso":"BA"},"geometry":{"type":"Point","coordinates":[18.09318,44.88762]}},{"type":"Feature","properties":{"country_en":"Bosnia and Herzegovina","name":"Malešići","name_adm0":"Bosna i Hercegovina","name_adm1":"Federacija Bosne I Hercegovine","name_adm2":"Tuzlanski Kanton","name_en":"Malešići","iso":"BA"},"geometry":{"type":"Point","coordinates":[18.58164,43.80133]}},{"type":"Feature","properties":{"country_en":"Bosnia and Herzegovina","name":"Mosko","name_adm0":"Bosna i Hercegovina","name_adm1":"Republika Srpska","name_adm2":"Trebinje","name_en":"Mosko","iso":"BA"},"geometry":{"type":"Point","coordinates":[18.40043,42.76986]}},{"type":"Feature","properties":{"country_en":"Bosnia and Herzegovina","name":"Oborci","name_adm0":"Bosna i Hercegovina","name_adm1":"Federacija Bosne I Hercegovine","name_adm2":"Srednjebosanski Kanton","name_en":"Oborci","iso":"BA"},"geometry":{"type":"Point","coordinates":[17.41909,44.19485]}},{"type":"Feature","properties":{"country_en":"Bosnia and Herzegovina","name":"Prokosovići","name_adm0":"Bosna i Hercegovina","name_adm1":"Federacija Bosne I Hercegovine","name_adm2":"Tuzlanski Kanton","name_en":"Prokosovići","iso":"BA"},"geometry":{"type":"Point","coordinates":[18.48817,44.51417]}},{"type":"Feature","properties":{"country_en":"Bosnia and Herzegovina","name":"Scit","name_adm0":"Bosna i Hercegovina","name_adm1":"Federacija Bosne I Hercegovine","name_adm2":"Hercegovacko-neretvanski Kanton","name_en":"Scit","iso":"BA"},"geometry":{"type":"Point","coordinates":[17.53056,43.80583]}},{"type":"Feature","properties":{"country_en":"Bosnia and Herzegovina","name":"Simin Han","name_adm0":"Bosna i Hercegovina","name_adm1":"Federacija Bosne I Hercegovine","name_adm2":"Tuzlanski Kanton","name_en":"Simin Han","iso":"BA"},"geometry":{"type":"Point","coordinates":[18.41558,44.316599999999994]}},{"type":"Feature","properties":{"country_en":"Bosnia and Herzegovina","name":"Vedro Polje","name_adm0":"Bosna i Hercegovina","name_adm1":"Federacija Bosne I Hercegovine","name_adm2":"Unsko-sanski Kanton","name_en":"Vedro Polje","iso":"BA"},"geometry":{"type":"Point","coordinates":[15.83028,44.80667]}},{"type":"Feature","properties":{"country_en":"Bosnia and Herzegovina","name":"Velika Bukovica","name_adm0":"Bosna i Hercegovina","name_adm1":"Republika Srpska","name_adm2":"Doboj","name_en":"Velika Bukovica","iso":"BA"},"geometry":{"type":"Point","coordinates":[17.68737,44.24099999999999]}},{"type":"Feature","properties":{"country_en":"Bosnia and Herzegovina","name":"Vrućica","name_adm0":"Bosna i Hercegovina","name_adm1":"Federacija Bosne I Hercegovine","name_adm2":"Zeničko-dobojski Kanton","name_en":"Vrućica","iso":"BA"},"geometry":{"type":"Point","coordinates":[18.2762,43.81631]}},{"type":"Feature","properties":{"country_en":"Bosnia and Herzegovina","name":"Vranduk","name_adm0":"Bosna i Hercegovina","name_adm1":"Federacija Bosne I Hercegovine","name_adm2":"Zeničko-dobojski Kanton","name_en":"Vranduk","iso":"BA"},"geometry":{"type":"Point","coordinates":[17.90399,44.29328]}},{"type":"Feature","properties":{"country_en":"Bosnia and Herzegovina","name":"Voljevac","name_adm0":"Bosna i Hercegovina","name_adm1":"Federacija Bosne I Hercegovine","name_adm2":"Srednjebosanski Kanton","name_en":"Voljevac","iso":"BA"},"geometry":{"type":"Point","coordinates":[17.658609999999996,43.87873]}},{"type":"Feature","properties":{"country_en":"Bosnia and Herzegovina","name":"Vitkovci","name_adm0":"Bosna i Hercegovina","name_adm1":"Republika Srpska","name_adm2":"Doboj","name_en":"Vitkovci","iso":"BA"},"geometry":{"type":"Point","coordinates":[18.80472,45.28833]}},{"type":"Feature","properties":{"country_en":"Bosnia and Herzegovina","name":"Stjenice","name_adm0":"Bosna i Hercegovina","name_adm1":"Republika Srpska","name_adm2":"Sarajevo-romanija","name_en":"Stjenice","iso":"BA"},"geometry":{"type":"Point","coordinates":[18.8783,43.84197999999999]}},{"type":"Feature","properties":{"country_en":"Bosnia and Herzegovina","name":"Bosanski Petrovac","name_adm0":"Bosna i Hercegovina","name_adm1":"Federacija Bosne I Hercegovine","name_adm2":"Unsko-sanski Kanton","name_en":"Bosanski Petrovac","iso":"BA"},"geometry":{"type":"Point","coordinates":[16.36897,44.55537]}},{"type":"Feature","properties":{"country_en":"Bosnia and Herzegovina","name":"Gromiljak","name_adm0":"Bosna i Hercegovina","name_adm1":"Federacija Bosne I Hercegovine","name_adm2":"Zeničko-dobojski Kanton","name_en":"Gromiljak","iso":"BA"},"geometry":{"type":"Point","coordinates":[18.05504,43.96668]}},{"type":"Feature","properties":{"country_en":"Bosnia and Herzegovina","name":"Janja","name_adm0":"Bosna i Hercegovina","name_adm1":"Republika Srpska","name_adm2":"Bijeljina","name_en":"Janja","iso":"BA"},"geometry":{"type":"Point","coordinates":[19.24691,44.66554]}},{"type":"Feature","properties":{"country_en":"Bosnia and Herzegovina","name":"Priboj","name_adm0":"Bosna i Hercegovina","name_adm1":"Republika Srpska","name_adm2":"Bijeljina","name_en":"Priboj","iso":"BA"},"geometry":{"type":"Point","coordinates":[18.93165,44.60233]}},{"type":"Feature","properties":{"country_en":"Bosnia and Herzegovina","name":"Čelebić","name_adm0":"Bosna i Hercegovina","name_adm1":"Federacija Bosne I Hercegovine","name_adm2":"Livanjski Kanton","name_en":"Čelebić","iso":"BA"},"geometry":{"type":"Point","coordinates":[16.75283,43.94829]}},{"type":"Feature","properties":{"country_en":"Bosnia and Herzegovina","name":"Čitluk","name_adm0":"Bosna i Hercegovina","name_adm1":"Federacija Bosne I Hercegovine","name_adm2":"Zapadno-hercegovacki Kanton","name_en":"Čitluk","iso":"BA"},"geometry":{"type":"Point","coordinates":[17.29075,43.48351999999999]}},{"type":"Feature","properties":{"country_en":"Bosnia and Herzegovina","name":"Crkvina","name_adm0":"Bosna i Hercegovina","name_adm1":"Republika Srpska","name_adm2":"Doboj","name_en":"Crkvina","iso":"BA"},"geometry":{"type":"Point","coordinates":[17.92431,44.21493]}},{"type":"Feature","properties":{"country_en":"Bosnia and Herzegovina","name":"Crnjelovo Donje","name_adm0":"Bosna i Hercegovina","name_adm1":"Republika Srpska","name_adm2":"Bijeljina","name_en":"Crnjelovo Donje","iso":"BA"},"geometry":{"type":"Point","coordinates":[19.1454,44.85351]}},{"type":"Feature","properties":{"country_en":"Bosnia and Herzegovina","name":"Donje Moµtre","name_adm0":"Bosna i Hercegovina","name_adm1":"Federacija Bosne I Hercegovine","name_adm2":"Zeničko-dobojski Kanton","name_en":"Donje Moµtre","iso":"BA"},"geometry":{"type":"Point","coordinates":[18.14162,44.02454]}},