{"type":"FeatureCollection","features":[{"type":"Feature","properties":{"country_en":"Bulgaria","name":"Ardino","name_adm0":"Bulgaria","name_adm1":"Kurdzhali","name_adm2":"Ardino","name_en":"Ardino","iso":"BG"},"geometry":{"type":"Point","coordinates":[25.15,41.599999999999994]}},{"type":"Feature","properties":{"country_en":"Bulgaria","name":"Cherven","name_adm0":"Bulgaria","name_adm1":"Plovdiv","name_adm2":"Asenovgrad","name_en":"Cherven","iso":"BG"},"geometry":{"type":"Point","coordinates":[24.949999999999996,41.95]}},{"type":"Feature","properties":{"country_en":"Bulgaria","name":"Cherven Breg","name_adm0":"Bulgaria","name_adm1":"Kyustendil","name_adm2":"Dupnitsa","name_en":"Cherven Breg","iso":"BG"},"geometry":{"type":"Point","coordinates":[23.166669999999996,42.3]}},{"type":"Feature","properties":{"country_en":"Bulgaria","name":"Chervena","name_adm0":"Bulgaria","name_adm1":"Veliko Turnovo","name_adm2":"Svishtov","name_en":"Chervena","iso":"BG"},"geometry":{"type":"Point","coordinates":[25.23333,43.38333]}},{"type":"Feature","properties":{"country_en":"Bulgaria","name":"Cherventsi","name_adm0":"Bulgaria","name_adm1":"Varna","name_adm2":"Valchi Dol","name_en":"Cherventsi","iso":"BG"},"geometry":{"type":"Point","coordinates":[27.449999999999996,43.51667]}},{"type":"Feature","properties":{"country_en":"Bulgaria","name":"Dobri Dol","name_adm0":"Bulgaria","name_adm1":"Kyustendil","name_adm2":"Treklyano","name_en":"Dobri Dol","iso":"BG"},"geometry":{"type":"Point","coordinates":[22.669999999999998,42.50639]}},{"type":"Feature","properties":{"country_en":"Bulgaria","name":"Dobrintsi","name_adm0":"Bulgaria","name_adm1":"Kurdzhali","name_adm2":"Dzhebel","name_en":"Dobrintsi","iso":"BG"},"geometry":{"type":"Point","coordinates":[25.16667,41.4]}},{"type":"Feature","properties":{"country_en":"Bulgaria","name":"Dobrolevo","name_adm0":"Bulgaria","name_adm1":"Vratsa","name_adm2":"Borovan","name_en":"Dobrolevo","iso":"BG"},"geometry":{"type":"Point","coordinates":[23.78333,43.5]}},{"type":"Feature","properties":{"country_en":"Bulgaria","name":"Dobromirtsi","name_adm0":"Bulgaria","name_adm1":"Kurdzhali","name_adm2":"Kirkovo","name_en":"Dobromirtsi","iso":"BG"},"geometry":{"type":"Point","coordinates":[25.21667,41.38333]}},{"type":"Feature","properties":{"country_en":"Bulgaria","name":"Dobroplodno","name_adm0":"Bulgaria","name_adm1":"Varna","name_adm2":"Vetrino","name_en":"Dobroplodno","iso":"BG"},"geometry":{"type":"Point","coordinates":[27.36667,43.4]}},{"type":"Feature","properties":{"country_en":"Bulgaria","name":"Dobroslavtsi","name_adm0":"Bulgaria","name_adm1":"Sofiya-Grad","name_adm2":"Sofiya","name_en":"Dobroslavtsi","iso":"BG"},"geometry":{"type":"Point","coordinates":[23.28333,42.816669999999995]}},{"type":"Feature","properties":{"country_en":"Bulgaria","name":"Dobrotica","name_adm0":"Bulgaria","name_adm1":"Silistra","name_adm2":"Sitovo","name_en":"Dobrotica","iso":"BG"},"geometry":{"type":"Point","coordinates":[27.03542,43.88125]}},{"type":"Feature","properties":{"country_en":"Bulgaria","name":"Kroyachevo","name_adm0":"Bulgaria","name_adm1":"Kurdzhali","name_adm2":"Ardino","name_en":"Kroyachevo","iso":"BG"},"geometry":{"type":"Point","coordinates":[25.13333,41.58333]}},{"type":"Feature","properties":{"country_en":"Bulgaria","name":"Medovina","name_adm0":"Bulgaria","name_adm1":"Turgovishte","name_adm2":"Popovo","name_en":"Medovina","iso":"BG"},"geometry":{"type":"Point","coordinates":[26.166669999999996,43.31667]}},{"type":"Feature","properties":{"country_en":"Bulgaria","name":"Medovnitsa","name_adm0":"Bulgaria","name_adm1":"Vidin","name_adm2":"Dimovo","name_en":"Medovnitsa","iso":"BG"},"geometry":{"type":"Point","coordinates":[22.78194,43.655]}},{"type":"Feature","properties":{"country_en":"Bulgaria","name":"Medovo","name_adm0":"Bulgaria","name_adm1":"Burgas","name_adm2":"Pomorie","name_en":"Medovo","iso":"BG"},"geometry":{"type":"Point","coordinates":[27.566669999999995,42.699999999999996]}},{"type":"Feature","properties":{"country_en":"Bulgaria","name":"Medovo","name_adm0":"Bulgaria","name_adm1":"Stara Zagora","name_adm2":"Bratya Daskalovi","name_en":"Medovo","iso":"BG"},"geometry":{"type":"Point","coordinates":[25.199999999999996,42.36667]}},{"type":"Feature","properties":{"country_en":"Bulgaria","name":"Melyane","name_adm0":"Bulgaria","name_adm1":"Montana","name_adm2":"Georgi Damyanovo","name_en":"Melyane","iso":"BG"},"geometry":{"type":"Point","coordinates":[23.0175,43.35972]}},{"type":"Feature","properties":{"country_en":"Bulgaria","name":"Mendovo","name_adm0":"Bulgaria","name_adm1":"Blagoevgrad","name_adm2":"Petrich","name_en":"Mendovo","iso":"BG"},"geometry":{"type":"Point","coordinates":[23.11667,41.41667]}},{"type":"Feature","properties":{"country_en":"Bulgaria","name":"Pchelari","name_adm0":"Bulgaria","name_adm1":"Khaskovo","name_adm2":"Stambolovo","name_en":"Pchelari","iso":"BG"},"geometry":{"type":"Point","coordinates":[25.68333,41.63333]}},{"type":"Feature","properties":{"country_en":"Bulgaria","name":"Pchelarovo","name_adm0":"Bulgaria","name_adm1":"Dobrich","name_adm2":"General Toshevo","name_en":"Pchelarovo","iso":"BG"},"geometry":{"type":"Point","coordinates":[27.91667,43.71667]}},{"type":"Feature","properties":{"country_en":"Bulgaria","name":"Pchelarovo","name_adm0":"Bulgaria","name_adm1":"Kurdzhali","name_adm2":"Chernoochene","name_en":"Pchelarovo","iso":"BG"},"geometry":{"type":"Point","coordinates":[25.366669999999996,41.78333]}},{"type":"Feature","properties":{"country_en":"Bulgaria","name":"Pchelin","name_adm0":"Bulgaria","name_adm1":"Burgas","name_adm2":"Sungurlare","name_en":"Pchelin","iso":"BG"},"geometry":{"type":"Point","coordinates":[26.78333,42.88333]}},{"type":"Feature","properties":{"country_en":"Bulgaria","name":"Pchelina","name_adm0":"Bulgaria","name_adm1":"Razgrad","name_adm2":"Samuil","name_en":"Pchelina","iso":"BG"},"geometry":{"type":"Point","coordinates":[26.93333,43.61667]}},{"type":"Feature","properties":{"country_en":"Bulgaria","name":"Pchelino","name_adm0":"Bulgaria","name_adm1":"Dobrich","name_adm2":"Dobrichka","name_en":"Pchelino","iso":"BG"},"geometry":{"type":"Point","coordinates":[27.91667,43.48333]}},{"type":"Feature","properties":{"country_en":"Bulgaria","name":"Smilets","name_adm0":"Bulgaria","name_adm1":"Silistra","name_adm2":"Silistra","name_en":"Smilets","iso":"BG"},"geometry":{"type":"Point","coordinates":[27.149999999999995,44.01666999999999]}},{"type":"Feature","properties":{"country_en":"Bulgaria","name":"Vishlene","name_adm0":"Bulgaria","name_adm1":"Blagoevgrad","name_adm2":"Petrich","name_en":"Vishlene","iso":"BG"},"geometry":{"type":"Point","coordinates":[23.06667,41.43333]}},{"type":"Feature","properties":{"country_en":"Bulgaria","name":"Vishna","name_adm0":"Bulgaria","name_adm1":"Burgas","name_adm2":"Ruen","name_en":"Vishna","iso":"BG"},"geometry":{"type":"Point","coordinates":[27.18333,42.9]}},{"type":"Feature","properties":{"country_en":"Bulgaria","name":"Vladimir","name_adm0":"Bulgaria","name_adm1":"Pernik","name_adm2":"Radomir","name_en":"Vladimir","iso":"BG"},"geometry":{"type":"Point","coordinates":[23.08333,42.43333]}},{"type":"Feature","properties":{"country_en":"Bulgaria","name":"Vladimirovo","name_adm0":"Bulgaria","name_adm1":"Dobrich","name_adm2":"Dobrichka","name_en":"Vladimirovo","iso":"BG"},"geometry":{"type":"Point","coordinates":[27.533329999999996,43.56667]}},{"type":"Feature","properties":{"country_en":"Bulgaria","name":"Vladimirovtsi","name_adm0":"Bulgaria","name_adm1":"Razgrad","name_adm2":"Samuil","name_en":"Vladimirovtsi","iso":"BG"},"geometry":{"type":"Point","coordinates":[26.86667,43.633329999999994]}},{"type":"Feature","properties":{"country_en":"Bulgaria","name":"Vladislav","name_adm0":"Bulgaria","name_adm1":"Veliko Turnovo","name_adm2":"Strazhitsa","name_en":"Vladislav","iso":"BG"},"geometry":{"type":"Point","coordinates":[26,43.18332999999999]}},{"type":"Feature","properties":{"country_en":"Bulgaria","name":"Vlakhovo","name_adm0":"Bulgaria","name_adm1":"Smolyan","name_adm2":"Smolyan","name_en":"Vlakhovo","iso":"BG"},"geometry":{"type":"Point","coordinates":[24.816669999999995,41.58333]}},{"type":"Feature","properties":{"country_en":"Bulgaria","name":"Zet'ovo","name_adm0":"Bulgaria","name_adm1":"Stara Zagora","name_adm2":"Chirpan","name_en":"Zet'ovo","iso":"BG"},"geometry":{"type":"Point","coordinates":[25.366669999999996,42.14999999999999]}},{"type":"Feature","properties":{"country_en":"Bulgaria","name":"Zet'ovo","name_adm0":"Bulgaria","name_adm1":"Burgas","name_adm2":"Aytos","name_en":"Zet'ovo","iso":"BG"},"geometry":{"type":"Point","coordinates":[27.23333,42.74999999999999]}},{"type":"Feature","properties":{"country_en":"Bulgaria","name":"Zgurovo","name_adm0":"Bulgaria","name_adm1":"Kyustendil","name_adm2":"Nevestino","name_en":"Zgurovo","iso":"BG"},"geometry":{"type":"Point","coordinates":[22.78194,42.22221999999999]}},{"type":"Feature","properties":{"country_en":"Bulgaria","name":"Zvinitsa","name_adm0":"Bulgaria","name_adm1":"Kurdzhali","name_adm2":"Kardzhali","name_en":"Zvinitsa","iso":"BG"},"geometry":{"type":"Point","coordinates":[25.58333,41.75]}},{"type":"Feature","properties":{"country_en":"Bulgaria","name":"Zhelezari","name_adm0":"Bulgaria","name_adm1":"Turgovishte","name_adm2":"Omurtag","name_en":"Zhelezari","iso":"BG"},"geometry":{"type":"Point","coordinates":[26.299999999999997,43.06667]}},{"type":"Feature","properties":{"country_en":"Bulgaria","name":"Zhelezino","name_adm0":"Bulgaria","name_adm1":"Khaskovo","name_adm2":"Ivaylovgrad","name_en":"Zhelezino","iso":"BG"},"geometry":{"type":"Point","coordinates":[25.95,41.483329999999995]}},{"type":"Feature","properties":{"country_en":"Bulgaria","name":"Zhelezna","name_adm0":"Bulgaria","name_adm1":"Montana","name_adm2":"Chiprovtsi","name_en":"Zhelezna","iso":"BG"},"geometry":{"type":"Point","coordinates":[22.91472,43.38278]}},{"type":"Feature","properties":{"country_en":"Bulgaria","name":"Zheleznik","name_adm0":"Bulgaria","name_adm1":"Kurdzhali","name_adm2":"Chernoochene","name_en":"Zheleznik","iso":"BG"},"geometry":{"type":"Point","coordinates":[25.35,41.75]}},{"type":"Feature","properties":{"country_en":"Bulgaria","name":"Zheleznik","name_adm0":"Bulgaria","name_adm1":"Burgas","name_adm2":"Karnobat","name_en":"Zheleznik","iso":"BG"},"geometry":{"type":"Point","coordinates":[26.899999999999995,42.56667]}},{"type":"Feature","properties":{"country_en":"Bulgaria","name":"Zlatar","name_adm0":"Bulgaria","name_adm1":"Shumen","name_adm2":"Veliki Preslav","name_en":"Zlatar","iso":"BG"},"geometry":{"type":"Point","coordinates":[26.96667,43.1]}},{"type":"Feature","properties":{"country_en":"Bulgaria","name":"Blagoevgrad","name_adm0":"Bulgaria","name_adm1":"Blagoevgrad","name_adm2":"Blagoevgrad","name_en":"Blagoevgrad","iso":"BG"},"geometry":{"type":"Point","coordinates":[23.166669999999996,42.01667]}},{"type":"Feature","properties":{"country_en":"Bulgaria","name":"Samokov","name_adm0":"Bulgaria","name_adm1":"Sofiya","name_adm2":"Samokov","name_en":"Samokov","iso":"BG"},"geometry":{"type":"Point","coordinates":[23.549999999999997,42.33333]}},{"type":"Feature","properties":{"country_en":"Bulgaria","name":"Bisertsi","name_adm0":"Bulgaria","name_adm1":"Razgrad","name_adm2":"Kubrat","name_en":"Bisertsi","iso":"BG"},"geometry":{"type":"Point","coordinates":[26.5,43.88333]}},{"type":"Feature","properties":{"country_en":"Bulgaria","name":"Govedartsi","name_adm0":"Bulgaria","name_adm1":"Sofiya","name_adm2":"Samokov","name_en":"Govedartsi","iso":"BG"},"geometry":{"type":"Point","coordinates":[23.48333,42.25]}},{"type":"Feature","properties":{"country_en":"Bulgaria","name":"Govezhda","name_adm0":"Bulgaria","name_adm1":"Montana","name_adm2":"Georgi Damyanovo","name_en":"Govezhda","iso":"BG"},"geometry":{"type":"Point","coordinates":[22.96583,43.30055999999999]}},{"type":"Feature","properties":{"country_en":"Bulgaria","name":"Gradets","name_adm0":"Bulgaria","name_adm1":"Sofiya","name_adm2":"Kostinbrod","name_en":"Gradets","iso":"BG"},"geometry":{"type":"Point","coordinates":[23.2,42.88333]}},{"type":"Feature","properties":{"country_en":"Bulgaria","name":"Kamenar","name_adm0":"Bulgaria","name_adm1":"Burgas","name_adm2":"Pomorie","name_en":"Kamenar","iso":"BG"},"geometry":{"type":"Point","coordinates":[27.57313,42.62881]}},{"type":"Feature","properties":{"country_en":"Bulgaria","name":"Marten","name_adm0":"Bulgaria","name_adm1":"Ruse","name_adm2":"Ruse","name_en":"Marten","iso":"BG"},"geometry":{"type":"Point","coordinates":[26.08333,43.916669999999996]}},{"type":"Feature","properties":{"country_en":"Bulgaria","name":"Ribaritsa","name_adm0":"Bulgaria","name_adm1":"Lovech","name_adm2":"Teteven","name_en":"Ribaritsa","iso":"BG"},"geometry":{"type":"Point","coordinates":[24.41667,42.83333]}},{"type":"Feature","properties":{"country_en":"Bulgaria","name":"Rogachevo","name_adm0":"Bulgaria","name_adm1":"Dobrich","name_adm2":"Balchik","name_en":"Rogachevo","iso":"BG"},"geometry":{"type":"Point","coordinates":[28.01667,43.38333]}},{"type":"Feature","properties":{"country_en":"Bulgaria","name":"Senokos","name_adm0":"Bulgaria","name_adm1":"Blagoevgrad","name_adm2":"Simitli","name_en":"Senokos","iso":"BG"},"geometry":{"type":"Point","coordinates":[23.23333,41.81667]}},{"type":"Feature","properties":{"country_en":"Bulgaria","name":"Shiroko Pole","name_adm0":"Bulgaria","name_adm1":"Kurdzhali","name_adm2":"Kardzhali","name_en":"Shiroko Pole","iso":"BG"},"geometry":{"type":"Point","coordinates":[25.46667,41.63333]}},{"type":"Feature","properties":{"country_en":"Bulgaria","name":"Staro Selo","name_adm0":"Bulgaria","name_adm1":"Sliven","name_adm2":"Sliven","name_en":"Staro Selo","iso":"BG"},"geometry":{"type":"Point","coordinates":[26.15,42.58332999999999]}},{"type":"Feature","properties":{"country_en":"Bulgaria","name":"Starosel","name_adm0":"Bulgaria","name_adm1":"Plovdiv","name_adm2":"Hisarya","name_en":"Starosel","iso":"BG"},"geometry":{"type":"Point","coordinates":[24.566669999999995,42.48333]}},{"type":"Feature","properties":{"country_en":"Bulgaria","name":"Vetrintsi","name_adm0":"Bulgaria","name_adm1":"Veliko Turnovo","name_adm2":"Veliko Tarnovo","name_en":"Vetrintsi","iso":"BG"},"geometry":{"type":"Point","coordinates":[25.43333,43.05]}},{"type":"Feature","properties":{"country_en":"Bulgaria","name":"Vis","name_adm0":"Bulgaria","name_adm1":"Khaskovo","name_adm2":"Ivaylovgrad","name_en":"Vis","iso":"BG"},"geometry":{"type":"Point","coordinates":[25.86667,41.45]}},{"type":"Feature","properties":{"country_en":"Bulgaria","name":"Zhizhevo","name_adm0":"Bulgaria","name_adm1":"Blagoevgrad","name_adm2":"Satovcha","name_en":"Zhizhevo","iso":"BG"},"geometry":{"type":"Point","coordinates":[24.03333,41.55]}},{"type":"Feature","properties":{"country_en":"Bulgaria","name":"Belish","name_adm0":"Bulgaria","name_adm1":"Lovech","name_adm2":"Troyan","name_en":"Belish","iso":"BG"},"geometry":{"type":"Point","coordinates":[24.73333,42.93333]}},{"type":"Feature","properties":{"country_en":"Bulgaria","name":"Dulovo","name_adm0":"Bulgaria","name_adm1":"Silistra","name_adm2":"Dulovo","name_en":"Dulovo","iso":"BG"},"geometry":{"type":"Point","coordinates":[27.149999999999995,43.81667]}},{"type":"Feature","properties":{"country_en":"Bulgaria","name":"Drumsha","name_adm0":"Bulgaria","name_adm1":"Sofiya","name_adm2":"Kostinbrod","name_en":"Drumsha","iso":"BG"},"geometry":{"type":"Point","coordinates":[23.2,42.93333]}},{"type":"Feature","properties":{"country_en":"Bulgaria","name":"Gramada","name_adm0":"Bulgaria","name_adm1":"Vidin","name_adm2":"Gramada","name_en":"Gramada","iso":"BG"},"geometry":{"type":"Point","coordinates":[22.65861,43.83444]}},{"type":"Feature","properties":{"country_en":"Bulgaria","name":"Lyulin","name_adm0":"Bulgaria","name_adm1":"Yambol","name_adm2":"Straldzha","name_en":"Lyulin","iso":"BG"},"geometry":{"type":"Point","coordinates":[26.8,42.43333]}},{"type":"Feature","properties":{"country_en":"Bulgaria","name":"Lyutadzhik","name_adm0":"Bulgaria","name_adm1":"Vratsa","name_adm2":"Vratsa","name_en":"Lyutadzhik","iso":"BG"},"geometry":{"type":"Point","coordinates":[23.416669999999996,43.199999999999996]}},{"type":"Feature","properties":{"country_en":"Bulgaria","name":"Skalsko","name_adm0":"Bulgaria","name_adm1":"Gabrovo","name_adm2":"Dryanovo","name_en":"Skalsko","iso":"BG"},"geometry":{"type":"Point","coordinates":[25.366669999999996,42.96667]}},{"type":"Feature","properties":{"country_en":"Bulgaria","name":"Slatina","name_adm0":"Bulgaria","name_adm1":"Montana","name_adm2":"Berkovitsa","name_en":"Slatina","iso":"BG"},"geometry":{"type":"Point","coordinates":[23.22111,43.21556]}},{"type":"Feature","properties":{"country_en":"Bulgaria","name":"Slivak","name_adm0":"Bulgaria","name_adm1":"Shumen","name_adm2":"Hitrino","name_en":"Slivak","iso":"BG"},"geometry":{"type":"Point","coordinates":[26.93333,43.45]}},{"type":"Feature","properties":{"country_en":"Bulgaria","name":"Tabashka","name_adm0":"Bulgaria","name_adm1":"Gabrovo","name_adm2":"Sevlievo","name_en":"Tabashka","iso":"BG"},"geometry":{"type":"Point","coordinates":[25.01667,42.83333]}},{"type":"Feature","properties":{"country_en":"Bulgaria","name":"Tolovitsa","name_adm0":"Bulgaria","name_adm1":"Vidin","name_adm2":"Makresh","name_en":"Tolovitsa","iso":"BG"},"geometry":{"type":"Point","coordinates":[22.58167,43.75361]}},{"type":"Feature","properties":{"country_en":"Bulgaria","name":"Vsemirtsi","name_adm0":"Bulgaria","name_adm1":"Pazardzhik","name_adm2":"Velingrad","name_en":"Vsemirtsi","iso":"BG"},"geometry":{"type":"Point","coordinates":[23.86667,42.03332999999999]}},{"type":"Feature","properties":{"country_en":"Bulgaria","name":"Vulchek","name_adm0":"Bulgaria","name_adm1":"Vidin","name_adm2":"Makresh","name_en":"Vulchek","iso":"BG"},"geometry":{"type":"Point","coordinates":[22.713889999999996,43.78472]}},{"type":"Feature","properties":{"country_en":"Bulgaria","name":"Vurbyane","name_adm0":"Bulgaria","name_adm1":"Shumen","name_adm2":"Kaspichan","name_en":"Vurbyane","iso":"BG"},"geometry":{"type":"Point","coordinates":[27.08333,43.4]}},{"type":"Feature","properties":{"country_en":"Bulgaria","name":"Bolyarovo","name_adm0":"Bulgaria","name_adm1":"Yambol","name_adm2":"Bolyarovo","name_en":"Bolyarovo","iso":"BG"},"geometry":{"type":"Point","coordinates":[26.849999999999998,42.14999999999999]}},{"type":"Feature","properties":{"country_en":"Bulgaria","name":"General Toshevo","name_adm0":"Bulgaria","name_adm1":"Dobrich","name_adm2":"General Toshevo","name_en":"General Toshevo","iso":"BG"},"geometry":{"type":"Point","coordinates":[28.083329999999997,43.73333]}},{"type":"Feature","properties":{"country_en":"Bulgaria","name":"Chiprovtsi","name_adm0":"Bulgaria","name_adm1":"Montana","name_adm2":"Chiprovtsi","name_en":"Chiprovtsi","iso":"BG"},"geometry":{"type":"Point","coordinates":[22.9,43.416669999999996]}},{"type":"Feature","properties":{"country_en":"Bulgaria","name":"Bobovdol","name_adm0":"Bulgaria","name_adm1":"Kyustendil","name_adm2":"Bobovdol","name_en":"Bobovdol","iso":"BG"},"geometry":{"type":"Point","coordinates":[22.98333,42.316669999999995]}},{"type":"Feature","properties":{"country_en":"Bulgaria","name":"Elhovo","name_adm0":"Bulgaria","name_adm1":"Yambol","name_adm2":"Elhovo","name_en":"Elhovo","iso":"BG"},"geometry":{"type":"Point","coordinates":[26.236038,42.152929]}},{"type":"Feature","properties":{"country_en":"Bulgaria","name":"Veliko Turnovo","name_adm0":"Bulgaria","name_adm1":"Veliko Turnovo","name_adm2":"Veliko Tarnovo","name_en":"Veliko Turnovo","iso":"BG"},"geometry":{"type":"Point","coordinates":[25.629039999999996,43.08124]}},{"type":"Feature","properties":{"country_en":"Bulgaria","name":"Leshten","name_adm0":"Bulgaria","name_adm1":"Blagoevgrad","name_adm2":"Garmen","name_en":"Leshten","iso":"BG"},"geometry":{"type":"Point","coordinates":[23.83333,41.63333]}},{"type":"Feature","properties":{"country_en":"Bulgaria","name":"Sofia","name_adm0":"Bulgaria","name_adm1":"Sofiya-Grad","name_adm2":"Sofiya","name_en":"Sofia","iso":"BG"},"geometry":{"type":"Point","coordinates":[23.32415,42.69751]}},{"type":"Feature","properties":{"country_en":"Bulgaria","name":"Cherven","name_adm0":"Bulgaria","name_adm1":"Ruse","name_adm2":"Ivanovo","name_en":"Cherven","iso":"BG"},"geometry":{"type":"Point","coordinates":[26.03333,43.61667]}},{"type":"Feature","properties":{"country_en":"Bulgaria","name":"Kameno","name_adm0":"Bulgaria","name_adm1":"Burgas","name_adm2":"Kameno","name_en":"Kameno","iso":"BG"},"geometry":{"type":"Point","coordinates":[27.29387,42.57446]}},{"type":"Feature","properties":{"country_en":"Bulgaria","name":"Glavinitsa","name_adm0":"Bulgaria","name_adm1":"Silistra","name_adm2":"Glavinitsa","name_en":"Glavinitsa","iso":"BG"},"geometry":{"type":"Point","coordinates":[26.83333,43.916669999999996]}},{"type":"Feature","properties":{"country_en":"Bulgaria","name":"Boyantsi","name_adm0":"Bulgaria","name_adm1":"Plovdiv","name_adm2":"Asenovgrad","name_en":"Boyantsi","iso":"BG"},"geometry":{"type":"Point","coordinates":[24.949999999999996,42.05]}},{"type":"Feature","properties":{"country_en":"Bulgaria","name":"Maritsa","name_adm0":"Bulgaria","name_adm1":"Plovdiv","name_adm2":"Maritsa","name_en":"Maritsa","iso":"BG"},"geometry":{"type":"Point","coordinates":[25.41667,42.816669999999995]}},{"type":"Feature","properties":{"country_en":"Bulgaria","name":"Pordim","name_adm0":"Bulgaria","name_adm1":"Pleven","name_adm2":"Pordim","name_en":"Pordim","iso":"BG"},"geometry":{"type":"Point","coordinates":[24.9,43.38333]}},{"type":"Feature","properties":{"country_en":"Bulgaria","name":"Vetrino","name_adm0":"Bulgaria","name_adm1":"Varna","name_adm2":"Vetrino","name_en":"Vetrino","iso":"BG"},"geometry":{"type":"Point","coordinates":[27.43333,43.31667]}},{"type":"Feature","properties":{"country_en":"Bulgaria","name":"Zlatograd","name_adm0":"Bulgaria","name_adm1":"Smolyan","name_adm2":"Zlatograd","name_en":"Zlatograd","iso":"BG"},"geometry":{"type":"Point","coordinates":[25.06667,41.4]}},{"type":"Feature","properties":{"country_en":"Bulgaria","name":"Chirpan","name_adm0":"Bulgaria","name_adm1":"Stara Zagora","name_adm2":"Chirpan","name_en":"Chirpan","iso":"BG"},"geometry":{"type":"Point","coordinates":[25.38333,42.23333]}},{"type":"Feature","properties":{"country_en":"Bulgaria","name":"Ruzhintsi","name_adm0":"Bulgaria","name_adm1":"Vidin","name_adm2":"Ruzhintsi","name_en":"Ruzhintsi","iso":"BG"},"geometry":{"type":"Point","coordinates":[22.9,43.65]}},{"type":"Feature","properties":{"country_en":"Bulgaria","name":"Stamboliyski","name_adm0":"Bulgaria","name_adm1":"Plovdiv","name_adm2":"Stamboliyski","name_en":"Stamboliyski","iso":"BG"},"geometry":{"type":"Point","coordinates":[24.516669999999998,42.11667]}},{"type":"Feature","properties":{"country_en":"Bulgaria","name":"Devnya","name_adm0":"Bulgaria","name_adm1":"Varna","name_adm2":"Devnya","name_en":"Devnya","iso":"BG"},"geometry":{"type":"Point","coordinates":[27.6,43.24999999999999]}},{"type":"Feature","properties":{"country_en":"Bulgaria","name":"Anton","name_adm0":"Bulgaria","name_adm1":"Sofiya","name_adm2":"Anton","name_en":"Anton","iso":"BG"},"geometry":{"type":"Point","coordinates":[24.3,42.76667]}},{"type":"Feature","properties":{"country_en":"Bulgaria","name":"Kocherinovo","name_adm0":"Bulgaria","name_adm1":"Kyustendil","name_adm2":"Kocherinovo","name_en":"Kocherinovo","iso":"BG"},"geometry":{"type":"Point","coordinates":[23.75,42.41667]}},{"type":"Feature","properties":{"country_en":"Bulgaria","name":"Dzhebel","name_adm0":"Bulgaria","name_adm1":"Kurdzhali","name_adm2":"Dzhebel","name_en":"Dzhebel","iso":"BG"},"geometry":{"type":"Point","coordinates":[25.26667,41.5]}},{"type":"Feature","properties":{"country_en":"Bulgaria","name":"Opaka","name_adm0":"Bulgaria","name_adm1":"Turgovishte","name_adm2":"Opaka","name_en":"Opaka","iso":"BG"},"geometry":{"type":"Point","coordinates":[26.15,43.46667]}},{"type":"Feature","properties":{"country_en":"Bulgaria","name":"Ivaylovgrad","name_adm0":"Bulgaria","name_adm1":"Khaskovo","name_adm2":"Ivaylovgrad","name_en":"Ivaylovgrad","iso":"BG"},"geometry":{"type":"Point","coordinates":[26,41.483329999999995]}},{"type":"Feature","properties":{"country_en":"Bulgaria","name":"Altimir","name_adm0":"Bulgaria","name_adm1":"Vratsa","name_adm2":"Byala Slatina","name_en":"Altimir","iso":"BG"},"geometry":{"type":"Point","coordinates":[23.81667,43.53333]}},{"type":"Feature","properties":{"country_en":"Bulgaria","name":"Banite","name_adm0":"Bulgaria","name_adm1":"Smolyan","name_adm2":"Banite","name_en":"Banite","iso":"BG"},"geometry":{"type":"Point","coordinates":[25.01667,41.61667]}},{"type":"Feature","properties":{"country_en":"Bulgaria","name":"Borisovo","name_adm0":"Bulgaria","name_adm1":"Ruse","name_adm2":"Slivo Pole","name_en":"Borisovo","iso":"BG"},"geometry":{"type":"Point","coordinates":[26.23333,43.93333]}},{"type":"Feature","properties":{"country_en":"Bulgaria","name":"Brestak","name_adm0":"Bulgaria","name_adm1":"Varna","name_adm2":"Valchi Dol","name_en":"Brestak","iso":"BG"},"geometry":{"type":"Point","coordinates":[27.533329999999996,43.45]}},{"type":"Feature","properties":{"country_en":"Bulgaria","name":"Brezovo","name_adm0":"Bulgaria","name_adm1":"Plovdiv","name_adm2":"Brezovo","name_en":"Brezovo","iso":"BG"},"geometry":{"type":"Point","coordinates":[25.083329999999997,42.35]}},{"type":"Feature","properties":{"country_en":"Bulgaria","name":"Breznitsa","name_adm0":"Bulgaria","name_adm1":"Blagoevgrad","name_adm2":"Gotse Delchev","name_en":"Breznitsa","iso":"BG"},"geometry":{"type":"Point","coordinates":[23.66667,41.66667]}},{"type":"Feature","properties":{"country_en":"Bulgaria","name":"Byala Cherkva","name_adm0":"Bulgaria","name_adm1":"Veliko Turnovo","name_adm2":"Pavlikeni","name_en":"Byala Cherkva","iso":"BG"},"geometry":{"type":"Point","coordinates":[25.3,43.199999999999996]}},{"type":"Feature","properties":{"country_en":"Bulgaria","name":"Debelets","name_adm0":"Bulgaria","name_adm1":"Veliko Turnovo","name_adm2":"Veliko Tarnovo","name_en":"Debelets","iso":"BG"},"geometry":{"type":"Point","coordinates":[25.616669999999996,43.03333]}},{"type":"Feature","properties":{"country_en":"Bulgaria","name":"Draganovo","name_adm0":"Bulgaria","name_adm1":"Veliko Turnovo","name_adm2":"Gorna Oryahovitsa","name_en":"Draganovo","iso":"BG"},"geometry":{"type":"Point","coordinates":[25.749999999999996,43.21667]}},{"type":"Feature","properties":{"country_en":"Bulgaria","name":"Dyulevo","name_adm0":"Bulgaria","name_adm1":"Burgas","name_adm2":"Sredets","name_en":"Dyulevo","iso":"BG"},"geometry":{"type":"Point","coordinates":[27.163429999999998,42.39822]}},{"type":"Feature","properties":{"country_en":"Bulgaria","name":"Elkhovo","name_adm0":"Bulgaria","name_adm1":"Stara Zagora","name_adm2":"Stara Zagora","name_en":"Elkhovo","iso":"BG"},"geometry":{"type":"Point","coordinates":[26.56667,42.16667]}},{"type":"Feature","properties":{"country_en":"Bulgaria","name":"Gorna Dubeva","name_adm0":"Bulgaria","name_adm1":"Pazardzhik","name_adm2":"Velingrad","name_en":"Gorna Dubeva","iso":"BG"},"geometry":{"type":"Point","coordinates":[23.81667,41.983329999999995]}},{"type":"Feature","properties":{"country_en":"Bulgaria","name":"Kamenovo","name_adm0":"Bulgaria","name_adm1":"Ruse","name_adm2":"Vetovo","name_en":"Kamenovo","iso":"BG"},"geometry":{"type":"Point","coordinates":[26.466669999999997,43.71667]}},{"type":"Feature","properties":{"country_en":"Bulgaria","name":"Kaynardzha","name_adm0":"Bulgaria","name_adm1":"Silistra","name_adm2":"Kaynardzha","name_en":"Kaynardzha","iso":"BG"},"geometry":{"type":"Point","coordinates":[27.5,43.98333]}},{"type":"Feature","properties":{"country_en":"Bulgaria","name":"Krushari","name_adm0":"Bulgaria","name_adm1":"Dobrich","name_adm2":"Krushari","name_en":"Krushari","iso":"BG"},"geometry":{"type":"Point","coordinates":[27.75,43.81667]}},{"type":"Feature","properties":{"country_en":"Bulgaria","name":"Letnitsa","name_adm0":"Bulgaria","name_adm1":"Lovech","name_adm2":"Letnitsa","name_en":"Letnitsa","iso":"BG"},"geometry":{"type":"Point","coordinates":[25.07333,43.31167]}},{"type":"Feature","properties":{"country_en":"Bulgaria","name":"Novoselets","name_adm0":"Bulgaria","name_adm1":"Sliven","name_adm2":"Nova Zagora","name_en":"Novoselets","iso":"BG"},"geometry":{"type":"Point","coordinates":[26.08333,42.3]}},{"type":"Feature","properties":{"country_en":"Bulgaria","name":"Opaka","name_adm0":"Bulgaria","name_adm1":"Turgovishte","name_adm2":"Opaka","name_en":"Opaka","iso":"BG"},"geometry":{"type":"Point","coordinates":[26.166669999999996,43.45]}},{"type":"Feature","properties":{"country_en":"Bulgaria","name":"Pet Mogili","name_adm0":"Bulgaria","name_adm1":"Shumen","name_adm2":"Nikola Kozlevo","name_en":"Pet Mogili","iso":"BG"},"geometry":{"type":"Point","coordinates":[27.35,43.56667]}},{"type":"Feature","properties":{"country_en":"Bulgaria","name":"Rositsa","name_adm0":"Bulgaria","name_adm1":"Dobrich","name_adm2":"General Toshevo","name_en":"Rositsa","iso":"BG"},"geometry":{"type":"Point","coordinates":[27.9,43.93333]}},{"type":"Feature","properties":{"country_en":"Bulgaria","name":"Selanovtsi","name_adm0":"Bulgaria","name_adm1":"Vratsa","name_adm2":"Oryahovo","name_en":"Selanovtsi","iso":"BG"},"geometry":{"type":"Point","coordinates":[24.01667,43.68332999999999]}},{"type":"Feature","properties":{"country_en":"Bulgaria","name":"Skravena","name_adm0":"Bulgaria","name_adm1":"Sofiya","name_adm2":"Botevgrad","name_en":"Skravena","iso":"BG"},"geometry":{"type":"Point","coordinates":[23.76667,42.95]}},{"type":"Feature","properties":{"country_en":"Bulgaria","name":"Vaksevo","name_adm0":"Bulgaria","name_adm1":"Kyustendil","name_adm2":"Nevestino","name_en":"Vaksevo","iso":"BG"},"geometry":{"type":"Point","coordinates":[22.85972,42.16139]}},{"type":"Feature","properties":{"country_en":"Bulgaria","name":"Vetrino","name_adm0":"Bulgaria","name_adm1":"Varna","name_adm2":"Vetrino","name_en":"Vetrino","iso":"BG"},"geometry":{"type":"Point","coordinates":[27.43333,43.31667]}},{"type":"Feature","properties":{"country_en":"Bulgaria","name":"Vidintsi","name_adm0":"Bulgaria","name_adm1":"Yambol","name_adm2":"Tundzha","name_en":"Vidintsi","iso":"BG"},"geometry":{"type":"Point","coordinates":[26.38333,42.316669999999995]}},{"type":"Feature","properties":{"country_en":"Bulgaria","name":"Vurbitsa","name_adm0":"Bulgaria","name_adm1":"Veliko Turnovo","name_adm2":"Gorna Oryahovitsa","name_en":"Vurbitsa","iso":"BG"},"geometry":{"type":"Point","coordinates":[26.63333,43]}},{"type":"Feature","properties":{"country_en":"Bulgaria","name":"Yankovo","name_adm0":"Bulgaria","name_adm1":"Shumen","name_adm2":"Smyadovo","name_en":"Yankovo","iso":"BG"},"geometry":{"type":"Point","coordinates":[27.11667,43.08333]}},{"type":"Feature","properties":{"country_en":"Bulgaria","name":"Zlatarica","name_adm0":"Bulgaria","name_adm1":"Veliko Turnovo","name_adm2":"Zlataritsa","name_en":"Zlatarica","iso":"BG"},"geometry":{"type":"Point","coordinates":[25.9,43.05]}},{"type":"Feature","properties":{"country_en":"Bulgaria","name":"Zlogosh","name_adm0":"Bulgaria","name_adm1":"Kyustendil","name_adm2":"Treklyano","name_en":"Zlogosh","iso":"BG"},"geometry":{"type":"Point","coordinates":[22.638329999999996,42.45528]}},{"type":"Feature","properties":{"country_en":"Bulgaria","name":"Gurmen","name_adm0":"Bulgaria","name_adm1":"Blagoevgrad","name_adm2":"Garmen","name_en":"Gurmen","iso":"BG"},"geometry":{"type":"Point","coordinates":[23.81667,41.599999999999994]}},{"type":"Feature","properties":{"country_en":"Bulgaria","name":"Levski","name_adm0":"Bulgaria","name_adm1":"Pleven","name_adm2":"Levski","name_en":"Levski","iso":"BG"},"geometry":{"type":"Point","coordinates":[25.13333,43.36667]}},{"type":"Feature","properties":{"country_en":"Bulgaria","name":"Akhryansko","name_adm0":"Bulgaria","name_adm1":"Kurdzhali","name_adm2":"Ardino","name_en":"Akhryansko","iso":"BG"},"geometry":{"type":"Point","coordinates":[25.11667,41.599999999999994]}},{"type":"Feature","properties":{"country_en":"Bulgaria","name":"Smochan","name_adm0":"Bulgaria","name_adm1":"Lovech","name_adm2":"Lovech","name_en":"Smochan","iso":"BG"},"geometry":{"type":"Point","coordinates":[24.8,43.18332999999999]}},{"type":"Feature","properties":{"country_en":"Bulgaria","name":"Strakhilovo","name_adm0":"Bulgaria","name_adm1":"Veliko Turnovo","name_adm2":"Polski Trambesh","name_en":"Strakhilovo","iso":"BG"},"geometry":{"type":"Point","coordinates":[25.55,43.4]}},{"type":"Feature","properties":{"country_en":"Bulgaria","name":"Ikhtiman","name_adm0":"Bulgaria","name_adm1":"Sofiya","name_adm2":"Ihtiman","name_en":"Ikhtiman","iso":"BG"},"geometry":{"type":"Point","coordinates":[23.81667,42.43333]}},{"type":"Feature","properties":{"country_en":"Bulgaria","name":"Vurshets","name_adm0":"Bulgaria","name_adm1":"Montana","name_adm2":"Varshets","name_en":"Vurshets","iso":"BG"},"geometry":{"type":"Point","coordinates":[23.28611,43.19528]}},{"type":"Feature","properties":{"country_en":"Bulgaria","name":"Bakhovitsa","name_adm0":"Bulgaria","name_adm1":"Lovech","name_adm2":"Lovech","name_en":"Bakhovitsa","iso":"BG"},"geometry":{"type":"Point","coordinates":[24.68333,43.18332999999999]}},{"type":"Feature","properties":{"country_en":"Bulgaria","name":"Bliznak","name_adm0":"Bulgaria","name_adm1":"Burgas","name_adm2":"Malko Tarnovo","name_en":"Bliznak","iso":"BG"},"geometry":{"type":"Point","coordinates":[27.30506,42.16298]}},{"type":"Feature","properties":{"country_en":"Bulgaria","name":"Biser","name_adm0":"Bulgaria","name_adm1":"Khaskovo","name_adm2":"Harmanli","name_en":"Biser","iso":"BG"},"geometry":{"type":"Point","coordinates":[25.98333,41.86667]}},{"type":"Feature","properties":{"country_en":"Bulgaria","name":"Dospey","name_adm0":"Bulgaria","name_adm1":"Sofiya","name_adm2":"Samokov","name_en":"Dospey","iso":"BG"},"geometry":{"type":"Point","coordinates":[23.51667,42.316669999999995]}},{"type":"Feature","properties":{"country_en":"Bulgaria","name":"Durzhanitsa","name_adm0":"Bulgaria","name_adm1":"Vidin","name_adm2":"Dimovo","name_en":"Durzhanitsa","iso":"BG"},"geometry":{"type":"Point","coordinates":[22.84361,43.80917]}},{"type":"Feature","properties":{"country_en":"Bulgaria","name":"Durzhaven","name_adm0":"Bulgaria","name_adm1":"Stara Zagora","name_adm2":"Maglizh","name_en":"Durzhaven","iso":"BG"},"geometry":{"type":"Point","coordinates":[25.56667,42.73333]}},{"type":"Feature","properties":{"country_en":"Bulgaria","name":"Golyama Zhelyazna","name_adm0":"Bulgaria","name_adm1":"Lovech","name_adm2":"Troyan","name_en":"Golyama Zhelyazna","iso":"BG"},"geometry":{"type":"Point","coordinates":[24.46667,42.96667]}},{"type":"Feature","properties":{"country_en":"Bulgaria","name":"Goranovtsi","name_adm0":"Bulgaria","name_adm1":"Kyustendil","name_adm2":"Kyustendil","name_en":"Goranovtsi","iso":"BG"},"geometry":{"type":"Point","coordinates":[22.62889,42.38639]}},{"type":"Feature","properties":{"country_en":"Bulgaria","name":"Gorna Bela Rechka","name_adm0":"Bulgaria","name_adm1":"Montana","name_adm2":"Varshets","name_en":"Gorna Bela Rechka","iso":"BG"},"geometry":{"type":"Point","coordinates":[23.35611,43.17916999999999]}},{"type":"Feature","properties":{"country_en":"Bulgaria","name":"Kazachevo","name_adm0":"Bulgaria","name_adm1":"Lovech","name_adm2":"Lovech","name_en":"Kazachevo","iso":"BG"},"geometry":{"type":"Point","coordinates":[24.75,43.08333]}},{"type":"Feature","properties":{"country_en":"Bulgaria","name":"Kladni Dyal","name_adm0":"Bulgaria","name_adm1":"Veliko Turnovo","name_adm2":"Veliko Tarnovo","name_en":"Kladni Dyal","iso":"BG"},"geometry":{"type":"Point","coordinates":[25.68333,42.85]}},{"type":"Feature","properties":{"country_en":"Bulgaria","name":"Kormyansko","name_adm0":"Bulgaria","name_adm1":"Gabrovo","name_adm2":"Sevlievo","name_en":"Kormyansko","iso":"BG"},"geometry":{"type":"Point","coordinates":[25.03333,43.05]}},{"type":"Feature","properties":{"country_en":"Bulgaria","name":"Korten","name_adm0":"Bulgaria","name_adm1":"Sliven","name_adm2":"Nova Zagora","name_en":"Korten","iso":"BG"},"geometry":{"type":"Point","coordinates":[26,42.55]}},{"type":"Feature","properties":{"country_en":"Bulgaria","name":"Kudelin","name_adm0":"Bulgaria","name_adm1":"Vidin","name_adm2":"Bregovo","name_en":"Kudelin","iso":"BG"},"geometry":{"type":"Point","coordinates":[22.66806,44.19167]}},{"type":"Feature","properties":{"country_en":"Bulgaria","name":"Levski","name_adm0":"Bulgaria","name_adm1":"Varna","name_adm2":"Suvorovo","name_en":"Levski","iso":"BG"},"geometry":{"type":"Point","coordinates":[27.66667,43.31667]}},{"type":"Feature","properties":{"country_en":"Bulgaria","name":"Lilyach","name_adm0":"Bulgaria","name_adm1":"Kyustendil","name_adm2":"Nevestino","name_en":"Lilyach","iso":"BG"},"geometry":{"type":"Point","coordinates":[22.86917,42.2925]}},{"type":"Feature","properties":{"country_en":"Bulgaria","name":"Lilyanovo","name_adm0":"Bulgaria","name_adm1":"Blagoevgrad","name_adm2":"Sandanski","name_en":"Lilyanovo","iso":"BG"},"geometry":{"type":"Point","coordinates":[23.31667,41.61667]}},{"type":"Feature","properties":{"country_en":"Bulgaria","name":"Lomnitsa","name_adm0":"Bulgaria","name_adm1":"Pernik","name_adm2":"Tran","name_en":"Lomnitsa","iso":"BG"},"geometry":{"type":"Point","coordinates":[22.629169999999995,42.87222]}},{"type":"Feature","properties":{"country_en":"Bulgaria","name":"Lozen","name_adm0":"Bulgaria","name_adm1":"Khaskovo","name_adm2":"Lyubimets","name_en":"Lozen","iso":"BG"},"geometry":{"type":"Point","coordinates":[26.01667,41.8]}},{"type":"Feature","properties":{"country_en":"Bulgaria","name":"Lozenets","name_adm0":"Bulgaria","name_adm1":"Dobrich","name_adm2":"Krushari","name_en":"Lozenets","iso":"BG"},"geometry":{"type":"Point","coordinates":[27.73333,43.75]}},{"type":"Feature","properties":{"country_en":"Bulgaria","name":"Lozitsa","name_adm0":"Bulgaria","name_adm1":"Pleven","name_adm2":"Nikopol","name_en":"Lozitsa","iso":"BG"},"geometry":{"type":"Point","coordinates":[25,43.6]}},{"type":"Feature","properties":{"country_en":"Bulgaria","name":"Oryakhovitsa","name_adm0":"Bulgaria","name_adm1":"Stara Zagora","name_adm2":"Stara Zagora","name_en":"Oryakhovitsa","iso":"BG"},"geometry":{"type":"Point","coordinates":[25.81667,42.48333]}},{"type":"Feature","properties":{"country_en":"Bulgaria","name":"Osenarite","name_adm0":"Bulgaria","name_adm1":"Veliko Turnovo","name_adm2":"Veliko Tarnovo","name_en":"Osenarite","iso":"BG"},"geometry":{"type":"Point","coordinates":[25.7,42.816669999999995]}},{"type":"Feature","properties":{"country_en":"Bulgaria","name":"Osina","name_adm0":"Bulgaria","name_adm1":"Blagoevgrad","name_adm2":"Satovcha","name_en":"Osina","iso":"BG"},"geometry":{"type":"Point","coordinates":[24.08333,41.63333]}},{"type":"Feature","properties":{"country_en":"Bulgaria","name":"Popovitsa","name_adm0":"Bulgaria","name_adm1":"Plovdiv","name_adm2":"Sadovo","name_en":"Popovitsa","iso":"BG"},"geometry":{"type":"Point","coordinates":[25.05,42.13333]}},{"type":"Feature","properties":{"country_en":"Bulgaria","name":"Ridovo","name_adm0":"Bulgaria","name_adm1":"Kurdzhali","name_adm2":"Kardzhali","name_en":"Ridovo","iso":"BG"},"geometry":{"type":"Point","coordinates":[25.28333,41.66667]}},{"type":"Feature","properties":{"country_en":"Bulgaria","name":"Slivek","name_adm0":"Bulgaria","name_adm1":"Lovech","name_adm2":"Lovech","name_en":"Slivek","iso":"BG"},"geometry":{"type":"Point","coordinates":[24.75,43.1]}},{"type":"Feature","properties":{"country_en":"Bulgaria","name":"Smolsko","name_adm0":"Bulgaria","name_adm1":"Sofiya","name_adm2":"Mirkovo","name_en":"Smolsko","iso":"BG"},"geometry":{"type":"Point","coordinates":[23.95,42.63333]}},{"type":"Feature","properties":{"country_en":"Bulgaria","name":"Chelopech","name_adm0":"Bulgaria","name_adm1":"Sofiya","name_adm2":"Chelopech","name_en":"Chelopech","iso":"BG"},"geometry":{"type":"Point","coordinates":[24.08333,42.699999999999996]}},{"type":"Feature","properties":{"country_en":"Bulgaria","name":"Kamenar","name_adm0":"Bulgaria","name_adm1":"Razgrad","name_adm2":"Loznitsa","name_en":"Kamenar","iso":"BG"},"geometry":{"type":"Point","coordinates":[26.63333,43.46667]}},{"type":"Feature","properties":{"country_en":"Bulgaria","name":"Varna","name_adm0":"Bulgaria","name_adm1":"Varna","name_adm2":"Varna","name_en":"Varna","iso":"BG"},"geometry":{"type":"Point","coordinates":[27.91667,43.21667]}},{"type":"Feature","properties":{"country_en":"Bulgaria","name":"Asenovgrad","name_adm0":"Bulgaria","name_adm1":"Plovdiv","name_adm2":"Asenovgrad","name_en":"Asenovgrad","iso":"BG"},"geometry":{"type":"Point","coordinates":[24.96667,41.95]}},{"type":"Feature","properties":{"country_en":"Bulgaria","name":"Varna","name_adm0":"Bulgaria","name_adm1":"Varna","name_en":"Varna","iso":"BG"},"geometry":{"type":"Point","coordinates":[27.6,43.21667]}},{"type":"Feature","properties":{"country_en":"Bulgaria","name":"Sredets","name_adm0":"Bulgaria","name_adm1":"Sofiya-Grad","name_adm2":"Sofiya","name_en":"Sredets","iso":"BG"},"geometry":{"type":"Point","coordinates":[23.321790999999997,42.687191]}},{"type":"Feature","properties":{"country_en":"Bulgaria","name":"Bunkera","name_adm0":"Bulgaria","name_adm1":"Sofiya-Grad","name_adm2":"Sofiya","name_en":"Bunkera","iso":"BG"},"geometry":{"type":"Point","coordinates":[23.375301,42.624344]}},{"type":"Feature","properties":{"country_en":"Bulgaria","name":"Chakalite","name_adm0":"Bulgaria","name_adm1":"Gabrovo","name_adm2":"Tryavna","name_en":"Chakalite","iso":"BG"},"geometry":{"type":"Point","coordinates":[25.48333,42.83333]}},{"type":"Feature","properties":{"country_en":"Bulgaria","name":"Madzharovo","name_adm0":"Bulgaria","name_adm1":"Khaskovo","name_adm2":"Madzharovo","name_en":"Madzharovo","iso":"BG"},"geometry":{"type":"Point","coordinates":[25.9,41.68333]}},{"type":"Feature","properties":{"country_en":"Bulgaria","name":"Beloslav","name_adm0":"Bulgaria","name_adm1":"Varna","name_adm2":"Beloslav","name_en":"Beloslav","iso":"BG"},"geometry":{"type":"Point","coordinates":[27.73333,43.199999999999996]}},{"type":"Feature","properties":{"country_en":"Bulgaria","name":"Perushtitsa","name_adm0":"Bulgaria","name_adm1":"Plovdiv","name_adm2":"Perushtitsa","name_en":"Perushtitsa","iso":"BG"},"geometry":{"type":"Point","coordinates":[24.55,42.06667]}},{"type":"Feature","properties":{"country_en":"Bulgaria","name":"Aleksandrovo","name_adm0":"Bulgaria","name_adm1":"Stara Zagora","name_adm2":"Pavel Banya","name_en":"Aleksandrovo","iso":"BG"},"geometry":{"type":"Point","coordinates":[25.083329999999997,42.58332999999999]}},{"type":"Feature","properties":{"country_en":"Bulgaria","name":"Antimovo","name_adm0":"Bulgaria","name_adm1":"Silistra","name_adm2":"Tutrakan","name_en":"Antimovo","iso":"BG"},"geometry":{"type":"Point","coordinates":[26.68333,43.98333]}},{"type":"Feature","properties":{"country_en":"Bulgaria","name":"Bogutevo","name_adm0":"Bulgaria","name_adm1":"Smolyan","name_adm2":"Chepelare","name_en":"Bogutevo","iso":"BG"},"geometry":{"type":"Point","coordinates":[24.71667,41.75]}},{"type":"Feature","properties":{"country_en":"Bulgaria","name":"Borskoto","name_adm0":"Bulgaria","name_adm1":"Gabrovo","name_adm2":"Gabrovo","name_en":"Borskoto","iso":"BG"},"geometry":{"type":"Point","coordinates":[25.16667,42.9]}},{"type":"Feature","properties":{"country_en":"Bulgaria","name":"Burdardski Geran","name_adm0":"Bulgaria","name_adm1":"Vratsa","name_adm2":"Byala Slatina","name_en":"Burdardski Geran","iso":"BG"},"geometry":{"type":"Point","coordinates":[23.95,43.55]}},{"type":"Feature","properties":{"country_en":"Bulgaria","name":"Burevo","name_adm0":"Bulgaria","name_adm1":"Smolyan","name_adm2":"Nedelino","name_en":"Burevo","iso":"BG"},"geometry":{"type":"Point","coordinates":[25.13333,41.5]}},{"type":"Feature","properties":{"country_en":"Bulgaria","name":"Burziya","name_adm0":"Bulgaria","name_adm1":"Montana","name_adm2":"Berkovitsa","name_en":"Burziya","iso":"BG"},"geometry":{"type":"Point","coordinates":[23.16111,43.19833]}},{"type":"Feature","properties":{"country_en":"Bulgaria","name":"Chavdar","name_adm0":"Bulgaria","name_adm1":"Smolyan","name_adm2":"Dospat","name_en":"Chavdar","iso":"BG"},"geometry":{"type":"Point","coordinates":[24.23333,41.58333]}},{"type":"Feature","properties":{"country_en":"Bulgaria","name":"Chervena Voda","name_adm0":"Bulgaria","name_adm1":"Ruse","name_adm2":"Ruse","name_en":"Chervena Voda","iso":"BG"},"geometry":{"type":"Point","coordinates":[26.11667,43.8]}},{"type":"Feature","properties":{"country_en":"Bulgaria","name":"Chestimensko","name_adm0":"Bulgaria","name_adm1":"Dobrich","name_adm2":"Tervel","name_en":"Chestimensko","iso":"BG"},"geometry":{"type":"Point","coordinates":[27.36667,43.78333]}},{"type":"Feature","properties":{"country_en":"Bulgaria","name":"Dolna Dikanya","name_adm0":"Bulgaria","name_adm1":"Pernik","name_adm2":"Radomir","name_en":"Dolna Dikanya","iso":"BG"},"geometry":{"type":"Point","coordinates":[23.11667,42.43333]}},{"type":"Feature","properties":{"country_en":"Bulgaria","name":"Dolna Gradeshnitsa","name_adm0":"Bulgaria","name_adm1":"Blagoevgrad","name_adm2":"Kresna","name_en":"Dolna Gradeshnitsa","iso":"BG"},"geometry":{"type":"Point","coordinates":[23.18333,41.68333]}},{"type":"Feature","properties":{"country_en":"Bulgaria","name":"Dolna Margatina","name_adm0":"Bulgaria","name_adm1":"Lovech","name_adm2":"Troyan","name_en":"Dolna Margatina","iso":"BG"},"geometry":{"type":"Point","coordinates":[24.75,42.93333]}},{"type":"Feature","properties":{"country_en":"Bulgaria","name":"Gorski Izvor","name_adm0":"Bulgaria","name_adm1":"Khaskovo","name_adm2":"Dimitrovgrad","name_en":"Gorski Izvor","iso":"BG"},"geometry":{"type":"Point","coordinates":[25.41667,42.01667]}},{"type":"Feature","properties":{"country_en":"Bulgaria","name":"Ivaylovgrad","name_adm0":"Bulgaria","name_adm1":"Khaskovo","name_adm2":"Ivaylovgrad","name_en":"Ivaylovgrad","iso":"BG"},"geometry":{"type":"Point","coordinates":[26.13333,41.53333]}},{"type":"Feature","properties":{"country_en":"Bulgaria","name":"Gulyantsi","name_adm0":"Bulgaria","name_adm1":"Pleven","name_adm2":"Gulyantsi","name_en":"Gulyantsi","iso":"BG"},"geometry":{"type":"Point","coordinates":[24.7,43.633329999999994]}},{"type":"Feature","properties":{"country_en":"Bulgaria","name":"Gorsko Pisarevo","name_adm0":"Bulgaria","name_adm1":"Veliko Turnovo","name_adm2":"Zlataritsa","name_en":"Gorsko Pisarevo","iso":"BG"},"geometry":{"type":"Point","coordinates":[26.049999999999997,43.01667]}},{"type":"Feature","properties":{"country_en":"Bulgaria","name":"Gostilitsa","name_adm0":"Bulgaria","name_adm1":"Gabrovo","name_adm2":"Dryanovo","name_en":"Gostilitsa","iso":"BG"},"geometry":{"type":"Point","coordinates":[25.366669999999996,43.03333]}},{"type":"Feature","properties":{"country_en":"Bulgaria","name":"Grokhotno","name_adm0":"Bulgaria","name_adm1":"Smolyan","name_adm2":"Devin","name_en":"Grokhotno","iso":"BG"},"geometry":{"type":"Point","coordinates":[24.38333,41.7]}},{"type":"Feature","properties":{"country_en":"Bulgaria","name":"Gromshin","name_adm0":"Bulgaria","name_adm1":"Montana","name_adm2":"Boychinovtsi","name_en":"Gromshin","iso":"BG"},"geometry":{"type":"Point","coordinates":[23.5,43.51667]}},{"type":"Feature","properties":{"country_en":"Bulgaria","name":"Grozden","name_adm0":"Bulgaria","name_adm1":"Burgas","name_adm2":"Sungurlare","name_en":"Grozden","iso":"BG"},"geometry":{"type":"Point","coordinates":[26.75,42.71667]}},{"type":"Feature","properties":{"country_en":"Bulgaria","name":"Martinovo","name_adm0":"Bulgaria","name_adm1":"Montana","name_adm2":"Chiprovtsi","name_en":"Martinovo","iso":"BG"},"geometry":{"type":"Point","coordinates":[22.834999999999997,43.40028]}},{"type":"Feature","properties":{"country_en":"Bulgaria","name":"Matochina","name_adm0":"Bulgaria","name_adm1":"Khaskovo","name_adm2":"Svilengrad","name_en":"Matochina","iso":"BG"},"geometry":{"type":"Point","coordinates":[26.543329999999997,41.84944]}},{"type":"Feature","properties":{"country_en":"Bulgaria","name":"Mechka","name_adm0":"Bulgaria","name_adm1":"Pleven","name_adm2":"Pleven","name_en":"Mechka","iso":"BG"},"geometry":{"type":"Point","coordinates":[24.8,43.51667]}},{"type":"Feature","properties":{"country_en":"Bulgaria","name":"Orizare","name_adm0":"Bulgaria","name_adm1":"Burgas","name_adm2":"Nesebar","name_en":"Orizare","iso":"BG"},"geometry":{"type":"Point","coordinates":[27.61667,42.74999999999999]}},{"type":"Feature","properties":{"country_en":"Bulgaria","name":"Orizari","name_adm0":"Bulgaria","name_adm1":"Plovdiv","name_adm2":"Rodopi","name_en":"Orizari","iso":"BG"},"geometry":{"type":"Point","coordinates":[24.65,42.14999999999999]}},{"type":"Feature","properties":{"country_en":"Bulgaria","name":"Ostra Mogila","name_adm0":"Bulgaria","name_adm1":"Stara Zagora","name_adm2":"Stara Zagora","name_en":"Ostra Mogila","iso":"BG"},"geometry":{"type":"Point","coordinates":[25.46667,42.46667]}},{"type":"Feature","properties":{"country_en":"Bulgaria","name":"Plazishte","name_adm0":"Bulgaria","name_adm1":"Kurdzhali","name_adm2":"Dzhebel","name_en":"Plazishte","iso":"BG"},"geometry":{"type":"Point","coordinates":[25.333329999999997,41.53333]}},{"type":"Feature","properties":{"country_en":"Bulgaria","name":"Plodovitovo","name_adm0":"Bulgaria","name_adm1":"Stara Zagora","name_adm2":"Bratya Daskalovi","name_en":"Plodovitovo","iso":"BG"},"geometry":{"type":"Point","coordinates":[25.21667,42.16667]}},{"type":"Feature","properties":{"country_en":"Bulgaria","name":"Prisad","name_adm0":"Bulgaria","name_adm1":"Burgas","name_adm2":"Sozopol","name_en":"Prisad","iso":"BG"},"geometry":{"type":"Point","coordinates":[27.38335,42.37868]}},{"type":"Feature","properties":{"country_en":"Bulgaria","name":"Priseltsi","name_adm0":"Bulgaria","name_adm1":"Varna","name_adm2":"Avren","name_en":"Priseltsi","iso":"BG"},"geometry":{"type":"Point","coordinates":[27.833329999999997,43.11667]}},{"type":"Feature","properties":{"country_en":"Bulgaria","name":"Prodancha","name_adm0":"Bulgaria","name_adm1":"Pernik","name_adm2":"Tran","name_en":"Prodancha","iso":"BG"},"geometry":{"type":"Point","coordinates":[22.75333,42.87556]}},{"type":"Feature","properties":{"country_en":"Bulgaria","name":"Prodanovtsi","name_adm0":"Bulgaria","name_adm1":"Sofiya","name_adm2":"Samokov","name_en":"Prodanovtsi","iso":"BG"},"geometry":{"type":"Point","coordinates":[23.51667,42.35]}},{"type":"Feature","properties":{"country_en":"Bulgaria","name":"Ravno Pole","name_adm0":"Bulgaria","name_adm1":"Sofiya","name_adm2":"Elin Pelin","name_en":"Ravno Pole","iso":"BG"},"geometry":{"type":"Point","coordinates":[23.53333,42.66667]}},{"type":"Feature","properties":{"country_en":"Bulgaria","name":"Raykovtsi","name_adm0":"Bulgaria","name_adm1":"Veliko Turnovo","name_adm2":"Veliko Tarnovo","name_en":"Raykovtsi","iso":"BG"},"geometry":{"type":"Point","coordinates":[25.633329999999997,42.83333]}},{"type":"Feature","properties":{"country_en":"Bulgaria","name":"Razboishte","name_adm0":"Bulgaria","name_adm1":"Sofiya","name_adm2":"Godech","name_en":"Razboishte","iso":"BG"},"geometry":{"type":"Point","coordinates":[22.95667,43.01361]}},{"type":"Feature","properties":{"country_en":"Bulgaria","name":"Rosno","name_adm0":"Bulgaria","name_adm1":"Veliko Turnovo","name_adm2":"Zlataritsa","name_en":"Rosno","iso":"BG"},"geometry":{"type":"Point","coordinates":[25.93333,43.05]}},{"type":"Feature","properties":{"country_en":"Bulgaria","name":"Rosoman","name_adm0":"Bulgaria","name_adm1":"Sofiya","name_adm2":"Bozhurishte","name_en":"Rosoman","iso":"BG"},"geometry":{"type":"Point","coordinates":[23.06667,42.74999999999999]}},{"type":"Feature","properties":{"country_en":"Bulgaria","name":"Ruen","name_adm0":"Bulgaria","name_adm1":"Plovdiv","name_adm2":"Kuklen","name_en":"Ruen","iso":"BG"},"geometry":{"type":"Point","coordinates":[24.816669999999995,42.01667]}},{"type":"Feature","properties":{"country_en":"Bulgaria","name":"Sbor","name_adm0":"Bulgaria","name_adm1":"Pazardzhik","name_adm2":"Pazardzhik","name_en":"Sbor","iso":"BG"},"geometry":{"type":"Point","coordinates":[24.3,42.33333]}},{"type":"Feature","properties":{"country_en":"Bulgaria","name":"Seltse","name_adm0":"Bulgaria","name_adm1":"Stara Zagora","name_adm2":"Maglizh","name_en":"Seltse","iso":"BG"},"geometry":{"type":"Point","coordinates":[25.53333,42.68333]}},{"type":"Feature","properties":{"country_en":"Bulgaria","name":"Seltsi","name_adm0":"Bulgaria","name_adm1":"Plovdiv","name_adm2":"Sadovo","name_en":"Seltsi","iso":"BG"},"geometry":{"type":"Point","coordinates":[25.05,42.13333]}},{"type":"Feature","properties":{"country_en":"Bulgaria","name":"Slivo Pole","name_adm0":"Bulgaria","name_adm1":"Ruse","name_adm2":"Slivo Pole","name_en":"Slivo Pole","iso":"BG"},"geometry":{"type":"Point","coordinates":[26.2,43.95]}},{"type":"Feature","properties":{"country_en":"Bulgaria","name":"Veselie","name_adm0":"Bulgaria","name_adm1":"Burgas","name_adm2":"Primorsko","name_en":"Veselie","iso":"BG"},"geometry":{"type":"Point","coordinates":[27.622709999999998,42.32872]}},{"type":"Feature","properties":{"country_en":"Bulgaria","name":"Veshtitsa","name_adm0":"Bulgaria","name_adm1":"Vidin","name_adm2":"Belogradchik","name_en":"Veshtitsa","iso":"BG"},"geometry":{"type":"Point","coordinates":[22.591669999999997,43.68222]}},{"type":"Feature","properties":{"country_en":"Bulgaria","name":"Vitanovtsi","name_adm0":"Bulgaria","name_adm1":"Pernik","name_adm2":"Pernik","name_en":"Vitanovtsi","iso":"BG"},"geometry":{"type":"Point","coordinates":[22.982779999999998,42.64666999999999]}},{"type":"Feature","properties":{"country_en":"Bulgaria","name":"Vitina","name_adm0":"Bulgaria","name_adm1":"Smolyan","name_adm2":"Rudozem","name_en":"Vitina","iso":"BG"},"geometry":{"type":"Point","coordinates":[24.76667,41.43333]}},{"type":"Feature","properties":{"country_en":"Bulgaria","name":"Mandrica","name_adm0":"Bulgaria","name_adm1":"Khaskovo","name_adm2":"Ivaylovgrad","name_en":"Mandrica","iso":"BG"},"geometry":{"type":"Point","coordinates":[26.13333,41.38333]}},{"type":"Feature","properties":{"country_en":"Bulgaria","name":"Balabansko","name_adm0":"Bulgaria","name_adm1":"Lovech","name_adm2":"Troyan","name_en":"Balabansko","iso":"BG"},"geometry":{"type":"Point","coordinates":[24.65289,42.89489]}},{"type":"Feature","properties":{"country_en":"Bulgaria","name":"Baley","name_adm0":"Bulgaria","name_adm1":"Vidin","name_adm2":"Bregovo","name_en":"Baley","iso":"BG"},"geometry":{"type":"Point","coordinates":[22.64611,44.18778]}},{"type":"Feature","properties":{"country_en":"Bulgaria","name":"Banishte","name_adm0":"Bulgaria","name_adm1":"Pernik","name_adm2":"Breznik","name_en":"Banishte","iso":"BG"},"geometry":{"type":"Point","coordinates":[22.72861,42.72222]}},{"type":"Feature","properties":{"country_en":"Bulgaria","name":"Omurtag","name_adm0":"Bulgaria","name_adm1":"Turgovishte","name_adm2":"Omurtag","name_en":"Omurtag","iso":"BG"},"geometry":{"type":"Point","coordinates":[26.483329999999995,43.08333]}},{"type":"Feature","properties":{"country_en":"Bulgaria","name":"Pancharevo","name_adm0":"Bulgaria","name_adm1":"Sofiya-Grad","name_adm2":"Sofiya","name_en":"Pancharevo","iso":"BG"},"geometry":{"type":"Point","coordinates":[23.41178,42.59461]}},{"type":"Feature","properties":{"country_en":"Bulgaria","name":"Ruse","name_adm0":"Bulgaria","name_adm1":"Ruse","name_en":"Ruse","iso":"BG"},"geometry":{"type":"Point","coordinates":[25.962753,43.858296]}},{"type":"Feature","properties":{"country_en":"Bulgaria","name":"Apriltsi","name_adm0":"Bulgaria","name_adm1":"Lovech","name_adm2":"Apriltsi","name_en":"Apriltsi","iso":"BG"},"geometry":{"type":"Point","coordinates":[24.91667,42.83333]}},{"type":"Feature","properties":{"country_en":"Bulgaria","name":"Kyustendil","name_adm0":"Bulgaria","name_adm1":"Kyustendil","name_adm2":"Kyustendil","name_en":"Kyustendil","iso":"BG"},"geometry":{"type":"Point","coordinates":[22.68333,42.28333]}},{"type":"Feature","properties":{"country_en":"Bulgaria","name":"Devnya","name_adm0":"Bulgaria","name_adm1":"Varna","name_adm2":"Devnya","name_en":"Devnya","iso":"BG"},"geometry":{"type":"Point","coordinates":[27.569439999999997,43.22222]}},{"type":"Feature","properties":{"country_en":"Bulgaria","name":"Kyustendil","name_adm0":"Bulgaria","name_adm1":"Kyustendil","name_adm2":"Kyustendil","name_en":"Kyustendil","iso":"BG"},"geometry":{"type":"Point","coordinates":[22.69111,42.28389]}},{"type":"Feature","properties":{"country_en":"Bulgaria","name":"Vazrazhdane","name_adm0":"Bulgaria","name_adm1":"Sofiya-Grad","name_adm2":"Sofiya","name_en":"Vazrazhdane","iso":"BG"},"geometry":{"type":"Point","coordinates":[23.321388,42.698269999999994]}},{"type":"Feature","properties":{"country_en":"Bulgaria","name":"Kozhari","name_adm0":"Bulgaria","name_adm1":"Smolyan","name_adm2":"Borino","name_en":"Kozhari","iso":"BG"},"geometry":{"type":"Point","coordinates":[24.33333,41.53333]}},{"type":"Feature","properties":{"country_en":"Bulgaria","name":"Popintsi","name_adm0":"Bulgaria","name_adm1":"Pazardzhik","name_adm2":"Panagyurishte","name_en":"Popintsi","iso":"BG"},"geometry":{"type":"Point","coordinates":[24.28333,42.41667]}},{"type":"Feature","properties":{"country_en":"Bulgaria","name":"Smyadovo","name_adm0":"Bulgaria","name_adm1":"Shumen","name_adm2":"Smyadovo","name_en":"Smyadovo","iso":"BG"},"geometry":{"type":"Point","coordinates":[27.016669999999998,43.06667]}},{"type":"Feature","properties":{"country_en":"Bulgaria","name":"Volovo","name_adm0":"Bulgaria","name_adm1":"Ruse","name_adm2":"Borovo","name_en":"Volovo","iso":"BG"},"geometry":{"type":"Point","coordinates":[25.8,43.53333]}},{"type":"Feature","properties":{"country_en":"Bulgaria","name":"Burgas","name_adm0":"Bulgaria","name_adm1":"Burgas","name_en":"Burgas","iso":"BG"},"geometry":{"type":"Point","coordinates":[27.3,42.6]}},{"type":"Feature","properties":{"country_en":"Bulgaria","name":"Svilengrad","name_adm0":"Bulgaria","name_adm1":"Khaskovo","name_adm2":"Svilengrad","name_en":"Svilengrad","iso":"BG"},"geometry":{"type":"Point","coordinates":[26.31667,41.86667]}},{"type":"Feature","properties":{"country_en":"Bulgaria","name":"Venets","name_adm0":"Bulgaria","name_adm1":"Shumen","name_adm2":"Venets","name_en":"Venets","iso":"BG"},"geometry":{"type":"Point","coordinates":[26.93333,43.55]}},{"type":"Feature","properties":{"country_en":"Bulgaria","name":"Alekseevo","name_adm0":"Bulgaria","name_adm1":"Dobrich","name_adm2":"Dobrichka","name_en":"Alekseevo","iso":"BG"},"geometry":{"type":"Point","coordinates":[27.65,43.58333]}},{"type":"Feature","properties":{"country_en":"Bulgaria","name":"Bistrilitsa","name_adm0":"Bulgaria","name_adm1":"Montana","name_adm2":"Berkovitsa","name_en":"Bistrilitsa","iso":"BG"},"geometry":{"type":"Point","coordinates":[23.105,43.3575]}},{"type":"Feature","properties":{"country_en":"Bulgaria","name":"Dragomir","name_adm0":"Bulgaria","name_adm1":"Plovdiv","name_adm2":"Saedinenie","name_en":"Dragomir","iso":"BG"},"geometry":{"type":"Point","coordinates":[24.46667,42.36667]}},{"type":"Feature","properties":{"country_en":"Bulgaria","name":"Druzhintsi","name_adm0":"Bulgaria","name_adm1":"Kurdzhali","name_adm2":"Kirkovo","name_en":"Druzhintsi","iso":"BG"},"geometry":{"type":"Point","coordinates":[25.333329999999997,41.33333]}},{"type":"Feature","properties":{"country_en":"Bulgaria","name":"Dzhokari","name_adm0":"Bulgaria","name_adm1":"Lovech","name_adm2":"Apriltsi","name_en":"Dzhokari","iso":"BG"},"geometry":{"type":"Point","coordinates":[24.85,42.88333]}},{"type":"Feature","properties":{"country_en":"Bulgaria","name":"Gomotartsi","name_adm0":"Bulgaria","name_adm1":"Vidin","name_adm2":"Vidin","name_en":"Gomotartsi","iso":"BG"},"geometry":{"type":"Point","coordinates":[22.96611,44.08833]}},{"type":"Feature","properties":{"country_en":"Bulgaria","name":"Izvorsko","name_adm0":"Bulgaria","name_adm1":"Varna","name_adm2":"Aksakovo","name_en":"Izvorsko","iso":"BG"},"geometry":{"type":"Point","coordinates":[27.76667,43.29999999999999]}},{"type":"Feature","properties":{"country_en":"Bulgaria","name":"K'olmen","name_adm0":"Bulgaria","name_adm1":"Shumen","name_adm2":"Varbitsa","name_en":"K'olmen","iso":"BG"},"geometry":{"type":"Point","coordinates":[26.68333,43.03333]}},{"type":"Feature","properties":{"country_en":"Bulgaria","name":"Kableshkovo","name_adm0":"Bulgaria","name_adm1":"Kurdzhali","name_adm2":"Chernoochene","name_en":"Kableshkovo","iso":"BG"},"geometry":{"type":"Point","coordinates":[25.35,41.76666999999999]}},{"type":"Feature","properties":{"country_en":"Bulgaria","name":"Kalomen","name_adm0":"Bulgaria","name_adm1":"Gabrovo","name_adm2":"Dryanovo","name_en":"Kalomen","iso":"BG"},"geometry":{"type":"Point","coordinates":[25.43333,43.03333]}},{"type":"Feature","properties":{"country_en":"Bulgaria","name":"Karanovo","name_adm0":"Bulgaria","name_adm1":"Burgas","name_adm2":"Aytos","name_en":"Karanovo","iso":"BG"},"geometry":{"type":"Point","coordinates":[27.19173,42.64748]}},{"type":"Feature","properties":{"country_en":"Bulgaria","name":"Karantsi","name_adm0":"Bulgaria","name_adm1":"Veliko Turnovo","name_adm2":"Polski Trambesh","name_en":"Karantsi","iso":"BG"},"geometry":{"type":"Point","coordinates":[25.68333,43.38333]}},{"type":"Feature","properties":{"country_en":"Bulgaria","name":"Khadzhidimitrovo","name_adm0":"Bulgaria","name_adm1":"Veliko Turnovo","name_adm2":"Svishtov","name_en":"Khadzhidimitrovo","iso":"BG"},"geometry":{"type":"Point","coordinates":[25.45,43.51667]}},{"type":"Feature","properties":{"country_en":"Bulgaria","name":"Knyazheva Makhala","name_adm0":"Bulgaria","name_adm1":"Montana","name_adm2":"Brusartsi","name_en":"Knyazheva Makhala","iso":"BG"},"geometry":{"type":"Point","coordinates":[23.05,43.7]}},{"type":"Feature","properties":{"country_en":"Bulgaria","name":"Kokorkovo","name_adm0":"Bulgaria","name_adm1":"Smolyan","name_adm2":"Smolyan","name_en":"Kokorkovo","iso":"BG"},"geometry":{"type":"Point","coordinates":[24.816669999999995,41.599999999999994]}},{"type":"Feature","properties":{"country_en":"Bulgaria","name":"Kosilka","name_adm0":"Bulgaria","name_adm1":"Gabrovo","name_adm2":"Dryanovo","name_en":"Kosilka","iso":"BG"},"geometry":{"type":"Point","coordinates":[25.48333,42.93333]}},{"type":"Feature","properties":{"country_en":"Bulgaria","name":"Kostentsi","name_adm0":"Bulgaria","name_adm1":"Montana","name_adm2":"Berkovitsa","name_en":"Kostentsi","iso":"BG"},"geometry":{"type":"Point","coordinates":[23.12111,43.28444]}},{"type":"Feature","properties":{"country_en":"Bulgaria","name":"Kozanovo","name_adm0":"Bulgaria","name_adm1":"Plovdiv","name_adm2":"Asenovgrad","name_en":"Kozanovo","iso":"BG"},"geometry":{"type":"Point","coordinates":[24.96667,42.01667]}},{"type":"Feature","properties":{"country_en":"Bulgaria","name":"Kozar Belene","name_adm0":"Bulgaria","name_adm1":"Pleven","name_adm2":"Levski","name_en":"Kozar Belene","iso":"BG"},"geometry":{"type":"Point","coordinates":[25.16667,43.4]}},{"type":"Feature","properties":{"country_en":"Bulgaria","name":"Krachimir","name_adm0":"Bulgaria","name_adm1":"Vidin","name_adm2":"Belogradchik","name_en":"Krachimir","iso":"BG"},"geometry":{"type":"Point","coordinates":[22.55722,43.58417]}},{"type":"Feature","properties":{"country_en":"Bulgaria","name":"Kraguevo","name_adm0":"Bulgaria","name_adm1":"Dobrich","name_adm2":"Dobrichka","name_en":"Kraguevo","iso":"BG"},"geometry":{"type":"Point","coordinates":[27.65,43.8]}},{"type":"Feature","properties":{"country_en":"Bulgaria","name":"Lilyak","name_adm0":"Bulgaria","name_adm1":"Turgovishte","name_adm2":"Targovishte","name_en":"Lilyak","iso":"BG"},"geometry":{"type":"Point","coordinates":[26.483329999999995,43.23333]}},{"type":"Feature","properties":{"country_en":"Bulgaria","name":"Lipets","name_adm0":"Bulgaria","name_adm1":"Smolyan","name_adm2":"Smolyan","name_en":"Lipets","iso":"BG"},"geometry":{"type":"Point","coordinates":[24.73333,41.483329999999995]}},{"type":"Feature","properties":{"country_en":"Bulgaria","name":"Lipnik","name_adm0":"Bulgaria","name_adm1":"Razgrad","name_adm2":"Razgrad","name_en":"Lipnik","iso":"BG"},"geometry":{"type":"Point","coordinates":[26.53333,43.58333]}},{"type":"Feature","properties":{"country_en":"Bulgaria","name":"Listets","name_adm0":"Bulgaria","name_adm1":"Burgas","name_adm2":"Ruen","name_en":"Listets","iso":"BG"},"geometry":{"type":"Point","coordinates":[27.13333,42.86666999999999]}},{"type":"Feature","properties":{"country_en":"Bulgaria","name":"Listets","name_adm0":"Bulgaria","name_adm1":"Silistra","name_adm2":"Glavinitsa","name_en":"Listets","iso":"BG"},"geometry":{"type":"Point","coordinates":[26.88333,43.83333]}},{"type":"Feature","properties":{"country_en":"Bulgaria","name":"Litakovo","name_adm0":"Bulgaria","name_adm1":"Sofiya","name_adm2":"Botevgrad","name_en":"Litakovo","iso":"BG"},"geometry":{"type":"Point","coordinates":[23.683329999999998,42.95]}},{"type":"Feature","properties":{"country_en":"Bulgaria","name":"Lovets","name_adm0":"Bulgaria","name_adm1":"Turgovishte","name_adm2":"Targovishte","name_en":"Lovets","iso":"BG"},"geometry":{"type":"Point","coordinates":[26.7,43.24999999999999]}},{"type":"Feature","properties":{"country_en":"Bulgaria","name":"Lovtsi","name_adm0":"Bulgaria","name_adm1":"Smolyan","name_adm2":"Madan","name_en":"Lovtsi","iso":"BG"},"geometry":{"type":"Point","coordinates":[24.93333,41.51667]}},{"type":"Feature","properties":{"country_en":"Bulgaria","name":"Lozen","name_adm0":"Bulgaria","name_adm1":"Veliko Turnovo","name_adm2":"Strazhitsa","name_en":"Lozen","iso":"BG"},"geometry":{"type":"Point","coordinates":[25.883329999999997,43.33333]}},{"type":"Feature","properties":{"country_en":"Bulgaria","name":"Lozengradtsi","name_adm0":"Bulgaria","name_adm1":"Kurdzhali","name_adm2":"Kirkovo","name_en":"Lozengradtsi","iso":"BG"},"geometry":{"type":"Point","coordinates":[25.4,41.28333]}},{"type":"Feature","properties":{"country_en":"Bulgaria","name":"Lozeto","name_adm0":"Bulgaria","name_adm1":"Lovech","name_adm2":"Teteven","name_en":"Lozeto","iso":"BG"},"geometry":{"type":"Point","coordinates":[24.18333,43.03333]}},{"type":"Feature","properties":{"country_en":"Bulgaria","name":"Lukovo","name_adm0":"Bulgaria","name_adm1":"Sofiya","name_adm2":"Svoge","name_en":"Lukovo","iso":"BG"},"geometry":{"type":"Point","coordinates":[23.4,42.86666999999999]}},{"type":"Feature","properties":{"country_en":"Bulgaria","name":"Lulichka","name_adm0":"Bulgaria","name_adm1":"Kurdzhali","name_adm2":"Krumovgrad","name_en":"Lulichka","iso":"BG"},"geometry":{"type":"Point","coordinates":[25.6,41.46667]}},{"type":"Feature","properties":{"country_en":"Bulgaria","name":"Luvino","name_adm0":"Bulgaria","name_adm1":"Razgrad","name_adm2":"Isperih","name_en":"Luvino","iso":"BG"},"geometry":{"type":"Point","coordinates":[26.849999999999998,43.68332999999999]}},{"type":"Feature","properties":{"country_en":"Bulgaria","name":"Luvovo","name_adm0":"Bulgaria","name_adm1":"Kurdzhali","name_adm2":"Kardzhali","name_en":"Luvovo","iso":"BG"},"geometry":{"type":"Point","coordinates":[25.333329999999997,41.56667]}},{"type":"Feature","properties":{"country_en":"Bulgaria","name":"Lyatno","name_adm0":"Bulgaria","name_adm1":"Shumen","name_adm2":"Kaolinovo","name_en":"Lyatno","iso":"BG"},"geometry":{"type":"Point","coordinates":[27.11667,43.55]}},{"type":"Feature","properties":{"country_en":"Bulgaria","name":"Lyubino","name_adm0":"Bulgaria","name_adm1":"Kurdzhali","name_adm2":"Ardino","name_en":"Lyubino","iso":"BG"},"geometry":{"type":"Point","coordinates":[25.11667,41.66667]}},{"type":"Feature","properties":{"country_en":"Bulgaria","name":"Lyublen","name_adm0":"Bulgaria","name_adm1":"Turgovishte","name_adm2":"Opaka","name_en":"Lyublen","iso":"BG"},"geometry":{"type":"Point","coordinates":[26.2,43.51667]}},{"type":"Feature","properties":{"country_en":"Bulgaria","name":"Lyulin","name_adm0":"Bulgaria","name_adm1":"Pernik","name_adm2":"Pernik","name_en":"Lyulin","iso":"BG"},"geometry":{"type":"Point","coordinates":[23.08333,42.63333]}},{"type":"Feature","properties":{"country_en":"Bulgaria","name":"Lyulka","name_adm0":"Bulgaria","name_adm1":"Smolyan","name_adm2":"Smolyan","name_en":"Lyulka","iso":"BG"},"geometry":{"type":"Point","coordinates":[24.68333,41.46667]}},{"type":"Feature","properties":{"country_en":"Bulgaria","name":"Lyulyak","name_adm0":"Bulgaria","name_adm1":"Stara Zagora","name_adm2":"Stara Zagora","name_en":"Lyulyak","iso":"BG"},"geometry":{"type":"Point","coordinates":[25.66667,42.51667]}},{"type":"Feature","properties":{"country_en":"Bulgaria","name":"Malka Cherkovna","name_adm0":"Bulgaria","name_adm1":"Turgovishte","name_adm2":"Antonovo","name_en":"Malka Cherkovna","iso":"BG"},"geometry":{"type":"Point","coordinates":[26.183329999999998,43.08333]}},{"type":"Feature","properties":{"country_en":"Bulgaria","name":"Malko Tsurkvishte","name_adm0":"Bulgaria","name_adm1":"Turgovishte","name_adm2":"Omurtag","name_en":"Malko Tsurkvishte","iso":"BG"},"geometry":{"type":"Point","coordinates":[26.51667,43.06667]}},{"type":"Feature","properties":{"country_en":"Bulgaria","name":"Malko Vranovo","name_adm0":"Bulgaria","name_adm1":"Ruse","name_adm2":"Slivo Pole","name_en":"Malko Vranovo","iso":"BG"},"geometry":{"type":"Point","coordinates":[26.31667,43.93333]}},{"type":"Feature","properties":{"country_en":"Bulgaria","name":"Marino Pole","name_adm0":"Bulgaria","name_adm1":"Plovdiv","name_adm2":"Karlovo","name_en":"Marino Pole","iso":"BG"},"geometry":{"type":"Point","coordinates":[24.86667,42.58332999999999]}},{"type":"Feature","properties":{"country_en":"Bulgaria","name":"Maritsa","name_adm0":"Bulgaria","name_adm1":"Sofiya","name_adm2":"Samokov","name_en":"Maritsa","iso":"BG"},"geometry":{"type":"Point","coordinates":[23.7,42.3]}},{"type":"Feature","properties":{"country_en":"Bulgaria","name":"Markovo","name_adm0":"Bulgaria","name_adm1":"Stara Zagora","name_adm2":"Bratya Daskalovi","name_en":"Markovo","iso":"BG"},"geometry":{"type":"Point","coordinates":[25.21667,42.35]}},{"type":"Feature","properties":{"country_en":"Bulgaria","name":"Meden Kladenets","name_adm0":"Bulgaria","name_adm1":"Yambol","name_adm2":"Tundzha","name_en":"Meden Kladenets","iso":"BG"},"geometry":{"type":"Point","coordinates":[26.31667,42.316669999999995]}},{"type":"Feature","properties":{"country_en":"Bulgaria","name":"Medeni Polyani","name_adm0":"Bulgaria","name_adm1":"Pazardzhik","name_adm2":"Velingrad","name_en":"Medeni Polyani","iso":"BG"},"geometry":{"type":"Point","coordinates":[23.8,41.86667]}},{"type":"Feature","properties":{"country_en":"Bulgaria","name":"Murzyan","name_adm0":"Bulgaria","name_adm1":"Smolyan","name_adm2":"Zlatograd","name_en":"Murzyan","iso":"BG"},"geometry":{"type":"Point","coordinates":[24.949999999999996,41.41667]}},{"type":"Feature","properties":{"country_en":"Bulgaria","name":"Nikolovo","name_adm0":"Bulgaria","name_adm1":"Montana","name_adm2":"Montana","name_en":"Nikolovo","iso":"BG"},"geometry":{"type":"Point","coordinates":[23.274719999999995,43.42]}},{"type":"Feature","properties":{"country_en":"Bulgaria","name":"Novosel","name_adm0":"Bulgaria","name_adm1":"Shumen","name_adm2":"Shumen","name_en":"Novosel","iso":"BG"},"geometry":{"type":"Point","coordinates":[26.81667,43.28333]}},{"type":"Feature","properties":{"country_en":"Bulgaria","name":"Omarchevo","name_adm0":"Bulgaria","name_adm1":"Shumen","name_adm2":"Kaolinovo","name_en":"Omarchevo","iso":"BG"},"geometry":{"type":"Point","coordinates":[27.05,43.56667]}},{"type":"Feature","properties":{"country_en":"Bulgaria","name":"Oreshets","name_adm0":"Bulgaria","name_adm1":"Vidin","name_adm2":"Dimovo","name_en":"Oreshets","iso":"BG"},"geometry":{"type":"Point","coordinates":[22.73278,43.63361]}},{"type":"Feature","properties":{"country_en":"Bulgaria","name":"Orsoya","name_adm0":"Bulgaria","name_adm1":"Montana","name_adm2":"Lom","name_en":"Orsoya","iso":"BG"},"geometry":{"type":"Point","coordinates":[23.1,43.78333]}},{"type":"Feature","properties":{"country_en":"Bulgaria","name":"Osikovo","name_adm0":"Bulgaria","name_adm1":"Turgovishte","name_adm2":"Popovo","name_en":"Osikovo","iso":"BG"},"geometry":{"type":"Point","coordinates":[26,43.38333]}},{"type":"Feature","properties":{"country_en":"Bulgaria","name":"Plovka","name_adm0":"Bulgaria","name_adm1":"Kurdzhali","name_adm2":"Kirkovo","name_en":"Plovka","iso":"BG"},"geometry":{"type":"Point","coordinates":[25.46667,41.4]}},{"type":"Feature","properties":{"country_en":"Bulgaria","name":"Rakovski","name_adm0":"Bulgaria","name_adm1":"Razgrad","name_adm2":"Razgrad","name_en":"Rakovski","iso":"BG"},"geometry":{"type":"Point","coordinates":[26.466669999999997,43.6]}},{"type":"Feature","properties":{"country_en":"Bulgaria","name":"Riben Dol","name_adm0":"Bulgaria","name_adm1":"Smolyan","name_adm2":"Banite","name_en":"Riben Dol","iso":"BG"},"geometry":{"type":"Point","coordinates":[25.03333,41.75]}},{"type":"Feature","properties":{"country_en":"Bulgaria","name":"Saransko","name_adm0":"Bulgaria","name_adm1":"Yambol","name_adm2":"Straldzha","name_en":"Saransko","iso":"BG"},"geometry":{"type":"Point","coordinates":[26.716669999999997,42.36667]}},{"type":"Feature","properties":{"country_en":"Bulgaria","name":"Sarantsi","name_adm0":"Bulgaria","name_adm1":"Sofiya","name_adm2":"Gorna Malina","name_en":"Sarantsi","iso":"BG"},"geometry":{"type":"Point","coordinates":[23.76667,42.71667]}},{"type":"Feature","properties":{"country_en":"Bulgaria","name":"Saraya","name_adm0":"Bulgaria","name_adm1":"Pazardzhik","name_adm2":"Pazardzhik","name_en":"Saraya","iso":"BG"},"geometry":{"type":"Point","coordinates":[24.31667,42.25]}},{"type":"Feature","properties":{"country_en":"Bulgaria","name":"Shuma","name_adm0":"Bulgaria","name_adm1":"Sofiya","name_adm2":"Godech","name_en":"Shuma","iso":"BG"},"geometry":{"type":"Point","coordinates":[23.1,42.98333]}},{"type":"Feature","properties":{"country_en":"Bulgaria","name":"Shumata","name_adm0":"Bulgaria","name_adm1":"Gabrovo","name_adm2":"Sevlievo","name_en":"Shumata","iso":"BG"},"geometry":{"type":"Point","coordinates":[25.06667,42.91667]}},{"type":"Feature","properties":{"country_en":"Bulgaria","name":"Sigmen","name_adm0":"Bulgaria","name_adm1":"Burgas","name_adm2":"Karnobat","name_en":"Sigmen","iso":"BG"},"geometry":{"type":"Point","coordinates":[26.96667,42.699999999999996]}},{"type":"Feature","properties":{"country_en":"Bulgaria","name":"Simeonovo","name_adm0":"Bulgaria","name_adm1":"Yambol","name_adm2":"Tundzha","name_en":"Simeonovo","iso":"BG"},"geometry":{"type":"Point","coordinates":[26.61667,42.38333]}},{"type":"Feature","properties":{"country_en":"Bulgaria","name":"Sin'o Burdo","name_adm0":"Bulgaria","name_adm1":"Vratsa","name_adm2":"Roman","name_en":"Sin'o Burdo","iso":"BG"},"geometry":{"type":"Point","coordinates":[23.83333,43.1]}},{"type":"Feature","properties":{"country_en":"Bulgaria","name":"Sini Rid","name_adm0":"Bulgaria","name_adm1":"Burgas","name_adm2":"Ruen","name_en":"Sini Rid","iso":"BG"},"geometry":{"type":"Point","coordinates":[27.43333,42.816669999999995]}},{"type":"Feature","properties":{"country_en":"Bulgaria","name":"Slivarka","name_adm0":"Bulgaria","name_adm1":"Kurdzhali","name_adm2":"Krumovgrad","name_en":"Slivarka","iso":"BG"},"geometry":{"type":"Point","coordinates":[25.71667,41.45]}},{"type":"Feature","properties":{"country_en":"Bulgaria","name":"Slivito","name_adm0":"Bulgaria","name_adm1":"Stara Zagora","name_adm2":"Maglizh","name_en":"Slivito","iso":"BG"},"geometry":{"type":"Point","coordinates":[25.66667,42.66667]}},{"type":"Feature","properties":{"country_en":"Bulgaria","name":"Smirnenski","name_adm0":"Bulgaria","name_adm1":"Montana","name_adm2":"Brusartsi","name_en":"Smirnenski","iso":"BG"},"geometry":{"type":"Point","coordinates":[23.03333,43.633329999999994]}},{"type":"Feature","properties":{"country_en":"Bulgaria","name":"Smirnentsi","name_adm0":"Bulgaria","name_adm1":"Khaskovo","name_adm2":"Harmanli","name_en":"Smirnentsi","iso":"BG"},"geometry":{"type":"Point","coordinates":[25.883329999999997,41.81667]}},{"type":"Feature","properties":{"country_en":"Bulgaria","name":"Sokolets","name_adm0":"Bulgaria","name_adm1":"Burgas","name_adm2":"Ruen","name_en":"Sokolets","iso":"BG"},"geometry":{"type":"Point","coordinates":[27.18333,42.93333]}},{"type":"Feature","properties":{"country_en":"Bulgaria","name":"Sokolino","name_adm0":"Bulgaria","name_adm1":"Kurdzhali","name_adm2":"Momchilgrad","name_en":"Sokolino","iso":"BG"},"geometry":{"type":"Point","coordinates":[25.45,41.51667]}},{"type":"Feature","properties":{"country_en":"Bulgaria","name":"Suedinenie","name_adm0":"Bulgaria","name_adm1":"Turgovishte","name_adm2":"Targovishte","name_en":"Suedinenie","iso":"BG"},"geometry":{"type":"Point","coordinates":[26.63333,43.31667]}},{"type":"Feature","properties":{"country_en":"Bulgaria","name":"Surnevets","name_adm0":"Bulgaria","name_adm1":"Stara Zagora","name_adm2":"Bratya Daskalovi","name_en":"Surnevets","iso":"BG"},"geometry":{"type":"Point","coordinates":[25.35,42.4]}},{"type":"Feature","properties":{"country_en":"Bulgaria","name":"Tikale","name_adm0":"Bulgaria","name_adm1":"Smolyan","name_adm2":"Smolyan","name_en":"Tikale","iso":"BG"},"geometry":{"type":"Point","coordinates":[24.83333,41.599999999999994]}},{"type":"Feature","properties":{"country_en":"Bulgaria","name":"Tombeto","name_adm0":"Bulgaria","name_adm1":"Veliko Turnovo","name_adm2":"Elena","name_en":"Tombeto","iso":"BG"},"geometry":{"type":"Point","coordinates":[26.06667,42.95]}},{"type":"Feature","properties":{"country_en":"Bulgaria","name":"Tonsko Dabe","name_adm0":"Bulgaria","name_adm1":"Blagoevgrad","name_adm2":"Petrich","name_en":"Tonsko Dabe","iso":"BG"},"geometry":{"type":"Point","coordinates":[23.13068,41.50167]}},{"type":"Feature","properties":{"country_en":"Bulgaria","name":"Trunchovitsa","name_adm0":"Bulgaria","name_adm1":"Pleven","name_adm2":"Levski","name_en":"Trunchovitsa","iso":"BG"},"geometry":{"type":"Point","coordinates":[25,43.48333]}},{"type":"Feature","properties":{"country_en":"Bulgaria","name":"Trunitsa","name_adm0":"Bulgaria","name_adm1":"Shumen","name_adm2":"Novi Pazar","name_en":"Trunitsa","iso":"BG"},"geometry":{"type":"Point","coordinates":[27.316669999999995,43.46667]}},{"type":"Feature","properties":{"country_en":"Bulgaria","name":"Tsar Petrovo","name_adm0":"Bulgaria","name_adm1":"Vidin","name_adm2":"Kula","name_en":"Tsar Petrovo","iso":"BG"},"geometry":{"type":"Point","coordinates":[22.634169999999997,43.9575]}},{"type":"Feature","properties":{"country_en":"Bulgaria","name":"Varnentsi","name_adm0":"Bulgaria","name_adm1":"Silistra","name_adm2":"Tutrakan","name_en":"Varnentsi","iso":"BG"},"geometry":{"type":"Point","coordinates":[26.61667,43.93333]}},{"type":"Feature","properties":{"country_en":"Bulgaria","name":"Vasil Levski","name_adm0":"Bulgaria","name_adm1":"Silistra","name_adm2":"Alfatar","name_en":"Vasil Levski","iso":"BG"},"geometry":{"type":"Point","coordinates":[27.38333,43.93333]}},{"type":"Feature","properties":{"country_en":"Bulgaria","name":"Vasil Levski","name_adm0":"Bulgaria","name_adm1":"Plovdiv","name_adm2":"Karlovo","name_en":"Vasil Levski","iso":"BG"},"geometry":{"type":"Point","coordinates":[24.9,42.61667]}},{"type":"Feature","properties":{"country_en":"Bulgaria","name":"Vasilevo","name_adm0":"Bulgaria","name_adm1":"Dobrich","name_adm2":"General Toshevo","name_en":"Vasilevo","iso":"BG"},"geometry":{"type":"Point","coordinates":[28.16667,43.6]}},{"type":"Feature","properties":{"country_en":"Bulgaria","name":"Vidlitsa","name_adm0":"Bulgaria","name_adm1":"Montana","name_adm2":"Georgi Damyanovo","name_en":"Vidlitsa","iso":"BG"},"geometry":{"type":"Point","coordinates":[23.06583,43.41861]}},{"type":"Feature","properties":{"country_en":"Bulgaria","name":"Vidrar","name_adm0":"Bulgaria","name_adm1":"Pernik","name_adm2":"Tran","name_en":"Vidrar","iso":"BG"},"geometry":{"type":"Point","coordinates":[22.59444,42.67417]}},{"type":"Feature","properties":{"country_en":"Bulgaria","name":"Visokite","name_adm0":"Bulgaria","name_adm1":"Smolyan","name_adm2":"Madan","name_en":"Visokite","iso":"BG"},"geometry":{"type":"Point","coordinates":[24.96667,41.53333]}},{"type":"Feature","properties":{"country_en":"Bulgaria","name":"Volovartsi","name_adm0":"Bulgaria","name_adm1":"Kurdzhali","name_adm2":"Kardzhali","name_en":"Volovartsi","iso":"BG"},"geometry":{"type":"Point","coordinates":[25.31667,41.58333]}},{"type":"Feature","properties":{"country_en":"Bulgaria","name":"Voykova Luka","name_adm0":"Bulgaria","name_adm1":"Smolyan","name_adm2":"Rudozem","name_en":"Voykova Luka","iso":"BG"},"geometry":{"type":"Point","coordinates":[24.83333,41.46667]}},{"type":"Feature","properties":{"country_en":"Bulgaria","name":"Voynegovtsi","name_adm0":"Bulgaria","name_adm1":"Sofiya-Grad","name_adm2":"Sofiya","name_en":"Voynegovtsi","iso":"BG"},"geometry":{"type":"Point","coordinates":[23.42225,42.80088]}},{"type":"Feature","properties":{"country_en":"Bulgaria","name":"Vranino","name_adm0":"Bulgaria","name_adm1":"Dobrich","name_adm2":"Kavarna","name_en":"Vranino","iso":"BG"},"geometry":{"type":"Point","coordinates":[28.3,43.51667]}},{"type":"Feature","properties":{"country_en":"Bulgaria","name":"Vranya Stena","name_adm0":"Bulgaria","name_adm1":"Pernik","name_adm2":"Zemen","name_en":"Vranya Stena","iso":"BG"},"geometry":{"type":"Point","coordinates":[22.73444,42.523889999999994]}},{"type":"Feature","properties":{"country_en":"Bulgaria","name":"Vratarite","name_adm0":"Bulgaria","name_adm1":"Dobrich","name_adm2":"Dobrichka","name_en":"Vratarite","iso":"BG"},"geometry":{"type":"Point","coordinates":[27.55,43.51667]}},{"type":"Feature","properties":{"country_en":"Bulgaria","name":"Vurkhari","name_adm0":"Bulgaria","name_adm1":"Kurdzhali","name_adm2":"Momchilgrad","name_en":"Vurkhari","iso":"BG"},"geometry":{"type":"Point","coordinates":[23.75,41.91667]}},{"type":"Feature","properties":{"country_en":"Bulgaria","name":"Yarebitsa","name_adm0":"Bulgaria","name_adm1":"Silistra","name_adm2":"Dulovo","name_en":"Yarebitsa","iso":"BG"},"geometry":{"type":"Point","coordinates":[27,43.85]}},{"type":"Feature","properties":{"country_en":"Bulgaria","name":"Yarlovtsi","name_adm0":"Bulgaria","name_adm1":"Pernik","name_adm2":"Tran","name_en":"Yarlovtsi","iso":"BG"},"geometry":{"type":"Point","coordinates":[22.55417,42.805]}},{"type":"Feature","properties":{"country_en":"Bulgaria","name":"Yaroslavtsi","name_adm0":"Bulgaria","name_adm1":"Pernik","name_adm2":"Breznik","name_en":"Yaroslavtsi","iso":"BG"},"geometry":{"type":"Point","coordinates":[22.822219999999998,42.81417]}},{"type":"Feature","properties":{"country_en":"Bulgaria","name":"Yastrebna","name_adm0":"Bulgaria","name_adm1":"Silistra","name_adm2":"Sitovo","name_en":"Yastrebna","iso":"BG"},"geometry":{"type":"Point","coordinates":[27.06667,43.96666999999999]}},{"type":"Feature","properties":{"country_en":"Bulgaria","name":"Yordanovo","name_adm0":"Bulgaria","name_adm1":"Silistra","name_adm2":"Silistra","name_en":"Yordanovo","iso":"BG"},"geometry":{"type":"Point","coordinates":[27.1,43.98333]}},{"type":"Feature","properties":{"country_en":"Bulgaria","name":"Zagore","name_adm0":"Bulgaria","name_adm1":"Stara Zagora","name_adm2":"Stara Zagora","name_en":"Zagore","iso":"BG"},"geometry":{"type":"Point","coordinates":[25.66667,42.35]}},{"type":"Feature","properties":{"country_en":"Bulgaria","name":"Zhelezari","name_adm0":"Bulgaria","name_adm1":"Khaskovo","name_adm2":"Ivaylovgrad","name_en":"Zhelezari","iso":"BG"},"geometry":{"type":"Point","coordinates":[26,41.41667]}},{"type":"Feature","properties":{"country_en":"Bulgaria","name":"Zimnitsa","name_adm0":"Bulgaria","name_adm1":"Stara Zagora","name_adm2":"Maglizh","name_en":"Zimnitsa","iso":"BG"},"geometry":{"type":"Point","coordinates":[25.68333,42.58332999999999]}},{"type":"Feature","properties":{"country_en":"Bulgaria","name":"Zimnitsa","name_adm0":"Bulgaria","name_adm1":"Dobrich","name_adm2":"Krushari","name_en":"Zimnitsa","iso":"BG"},"geometry":{"type":"Point","coordinates":[27.61667,43.86667]}},{"type":"Feature","properties":{"country_en":"Bulgaria","name":"Zimovina","name_adm0":"Bulgaria","name_adm1":"Khaskovo","name_adm2":"Stambolovo","name_en":"Zimovina","iso":"BG"},"geometry":{"type":"Point","coordinates":[25.66667,41.7]}},{"type":"Feature","properties":{"country_en":"Bulgaria","name":"Obzor","name_adm0":"Bulgaria","name_adm1":"Burgas","name_adm2":"Nesebar","name_en":"Obzor","iso":"BG"},"geometry":{"type":"Point","coordinates":[27.88333,42.816669999999995]}},{"type":"Feature","properties":{"country_en":"Bulgaria","name":"Zvunartsi","name_adm0":"Bulgaria","name_adm1":"Razgrad","name_adm2":"Kubrat","name_en":"Zvunartsi","iso":"BG"},"geometry":{"type":"Point","coordinates":[26.47636,43.90494]}},{"type":"Feature","properties":{"country_en":"Bulgaria","name":"Pravets","name_adm0":"Bulgaria","name_adm1":"Sofiya","name_adm2":"Pravets","name_en":"Pravets","iso":"BG"},"geometry":{"type":"Point","coordinates":[23.983329999999995,42.96667]}},{"type":"Feature","properties":{"country_en":"Bulgaria","name":"Krichim","name_adm0":"Bulgaria","name_adm1":"Plovdiv","name_adm2":"Krichim","name_en":"Krichim","iso":"BG"},"geometry":{"type":"Point","coordinates":[24.48333,42]}},{"type":"Feature","properties":{"country_en":"Bulgaria","name":"Strazhitsa","name_adm0":"Bulgaria","name_adm1":"Veliko Turnovo","name_adm2":"Strazhitsa","name_en":"Strazhitsa","iso":"BG"},"geometry":{"type":"Point","coordinates":[25.98333,43.26667]}},{"type":"Feature","properties":{"country_en":"Bulgaria","name":"Batak","name_adm0":"Bulgaria","name_adm1":"Pazardzhik","name_adm2":"Batak","name_en":"Batak","iso":"BG"},"geometry":{"type":"Point","coordinates":[24.21667,41.86667]}},{"type":"Feature","properties":{"country_en":"Bulgaria","name":"Razlog","name_adm0":"Bulgaria","name_adm1":"Blagoevgrad","name_adm2":"Razlog","name_en":"Razlog","iso":"BG"},"geometry":{"type":"Point","coordinates":[23.46667,41.95]}},{"type":"Feature","properties":{"country_en":"Bulgaria","name":"Sliven","name_adm0":"Bulgaria","name_adm1":"Sliven","name_adm2":"Sliven","name_en":"Sliven","iso":"BG"},"geometry":{"type":"Point","coordinates":[26.31667,42.66667]}},{"type":"Feature","properties":{"country_en":"Bulgaria","name":"Plovdiv","name_adm0":"Bulgaria","name_adm1":"Plovdiv","name_adm2":"Plovdiv","name_en":"Plovdiv","iso":"BG"},"geometry":{"type":"Point","coordinates":[24.75,42.14999999999999]}},{"type":"Feature","properties":{"country_en":"Bulgaria","name":"Polski Trambesh","name_adm0":"Bulgaria","name_adm1":"Veliko Turnovo","name_adm2":"Polski Trambesh","name_en":"Polski Trambesh","iso":"BG"},"geometry":{"type":"Point","coordinates":[25.621404,43.0894505]}},{"type":"Feature","properties":{"country_en":"Bulgaria","name":"Akhtopol","name_adm0":"Bulgaria","name_adm1":"Burgas","name_adm2":"Tsarevo","name_en":"Akhtopol","iso":"BG"},"geometry":{"type":"Point","coordinates":[27.949999999999996,42.1]}},{"type":"Feature","properties":{"country_en":"Bulgaria","name":"Pirdop","name_adm0":"Bulgaria","name_adm1":"Sofiya","name_adm2":"Pirdop","name_en":"Pirdop","iso":"BG"},"geometry":{"type":"Point","coordinates":[24.18333,42.699999999999996]}},{"type":"Feature","properties":{"country_en":"Bulgaria","name":"Pirin","name_adm0":"Bulgaria","name_adm1":"Blagoevgrad","name_adm2":"Sandanski","name_en":"Pirin","iso":"BG"},"geometry":{"type":"Point","coordinates":[23.56667,41.55]}},{"type":"Feature","properties":{"country_en":"Bulgaria","name":"Botevgrad","name_adm0":"Bulgaria","name_adm1":"Sofiya","name_adm2":"Botevgrad","name_en":"Botevgrad","iso":"BG"},"geometry":{"type":"Point","coordinates":[23.78333,42.9]}},{"type":"Feature","properties":{"country_en":"Bulgaria","name":"Ivanovo","name_adm0":"Bulgaria","name_adm1":"Ruse","name_adm2":"Ivanovo","name_en":"Ivanovo","iso":"BG"},"geometry":{"type":"Point","coordinates":[25.98333,43.7]}},{"type":"Feature","properties":{"country_en":"Bulgaria","name":"Kuklen","name_adm0":"Bulgaria","name_adm1":"Plovdiv","name_adm2":"Kuklen","name_en":"Kuklen","iso":"BG"},"geometry":{"type":"Point","coordinates":[24.783329999999996,42.03332999999999]}},{"type":"Feature","properties":{"country_en":"Bulgaria","name":"Kulata","name_adm0":"Bulgaria","name_adm1":"Blagoevgrad","name_adm2":"Petrich","name_en":"Kulata","iso":"BG"},"geometry":{"type":"Point","coordinates":[23.36667,41.38333]}},{"type":"Feature","properties":{"country_en":"Bulgaria","name":"Trun","name_adm0":"Bulgaria","name_adm1":"Pernik","name_adm2":"Tran","name_en":"Trun","iso":"BG"},"geometry":{"type":"Point","coordinates":[22.65167,42.83528]}},{"type":"Feature","properties":{"country_en":"Bulgaria","name":"Vladaya","name_adm0":"Bulgaria","name_adm1":"Sofiya-Grad","name_adm2":"Sofiya","name_en":"Vladaya","iso":"BG"},"geometry":{"type":"Point","coordinates":[23.2,42.63333]}},{"type":"Feature","properties":{"country_en":"Bulgaria","name":"Gortalovo","name_adm0":"Bulgaria","name_adm1":"Pleven","name_adm2":"Pleven","name_en":"Gortalovo","iso":"BG"},"geometry":{"type":"Point","coordinates":[24.566669999999995,43.31667]}},{"type":"Feature","properties":{"country_en":"Bulgaria","name":"Krumovo","name_adm0":"Bulgaria","name_adm1":"Plovdiv","name_adm2":"Rodopi","name_en":"Krumovo","iso":"BG"},"geometry":{"type":"Point","coordinates":[24.816669999999995,42.08332999999999]}},{"type":"Feature","properties":{"country_en":"Bulgaria","name":"Bivolyane","name_adm0":"Bulgaria","name_adm1":"Kurdzhali","name_adm2":"Momchilgrad","name_en":"Bivolyane","iso":"BG"},"geometry":{"type":"Point","coordinates":[25.51667,41.58333]}},{"type":"Feature","properties":{"country_en":"Bulgaria","name":"Bogorovo","name_adm0":"Bulgaria","name_adm1":"Silistra","name_adm2":"Silistra","name_en":"Bogorovo","iso":"BG"},"geometry":{"type":"Point","coordinates":[27.36667,44.01666999999999]}},{"type":"Feature","properties":{"country_en":"Bulgaria","name":"Bor","name_adm0":"Bulgaria","name_adm1":"Plovdiv","name_adm2":"Asenovgrad","name_en":"Bor","iso":"BG"},"geometry":{"type":"Point","coordinates":[25.05,41.81667]}},{"type":"Feature","properties":{"country_en":"Bulgaria","name":"Khan Krum","name_adm0":"Bulgaria","name_adm1":"Shumen","name_adm2":"Veliki Preslav","name_en":"Khan Krum","iso":"BG"},"geometry":{"type":"Point","coordinates":[26.899999999999995,43.199999999999996]}},{"type":"Feature","properties":{"country_en":"Bulgaria","name":"Kiselichevo","name_adm0":"Bulgaria","name_adm1":"Smolyan","name_adm2":"Smolyan","name_en":"Kiselichevo","iso":"BG"},"geometry":{"type":"Point","coordinates":[24.58333,41.53333]}},{"type":"Feature","properties":{"country_en":"Bulgaria","name":"Kubratovo","name_adm0":"Bulgaria","name_adm1":"Sofiya-Grad","name_adm2":"Sofiya","name_en":"Kubratovo","iso":"BG"},"geometry":{"type":"Point","coordinates":[23.35899,42.77291]}},{"type":"Feature","properties":{"country_en":"Bulgaria","name":"Kurnare","name_adm0":"Bulgaria","name_adm1":"Plovdiv","name_adm2":"Karlovo","name_en":"Kurnare","iso":"BG"},"geometry":{"type":"Point","coordinates":[24.63333,42.699999999999996]}},{"type":"Feature","properties":{"country_en":"Bulgaria","name":"Saraevo","name_adm0":"Bulgaria","name_adm1":"Vratsa","name_adm2":"Miziya","name_en":"Saraevo","iso":"BG"},"geometry":{"type":"Point","coordinates":[23.86667,43.71667]}},{"type":"Feature","properties":{"country_en":"Bulgaria","name":"Satovcha","name_adm0":"Bulgaria","name_adm1":"Blagoevgrad","name_adm2":"Satovcha","name_en":"Satovcha","iso":"BG"},"geometry":{"type":"Point","coordinates":[23.983329999999995,41.61667]}},{"type":"Feature","properties":{"country_en":"Bulgaria","name":"Ugarchin","name_adm0":"Bulgaria","name_adm1":"Lovech","name_adm2":"Ugarchin","name_en":"Ugarchin","iso":"BG"},"geometry":{"type":"Point","coordinates":[24.691772,42.93022]}},{"type":"Feature","properties":{"country_en":"Bulgaria","name":"Rila","name_adm0":"Bulgaria","name_adm1":"Kyustendil","name_adm2":"Rila","name_en":"Rila","iso":"BG"},"geometry":{"type":"Point","coordinates":[23.133329999999997,42.13333]}},{"type":"Feature","properties":{"country_en":"Bulgaria","name":"Nikolovo","name_adm0":"Bulgaria","name_adm1":"Ruse","name_adm2":"Ruse","name_en":"Nikolovo","iso":"BG"},"geometry":{"type":"Point","coordinates":[26.1,43.85]}},{"type":"Feature","properties":{"country_en":"Bulgaria","name":"San Konstant. I Elena","name_adm0":"Bulgaria","name_adm1":"Varna","name_adm2":"Varna","name_en":"San Konstant. I Elena","iso":"BG"},"geometry":{"type":"Point","coordinates":[28.01003,43.22923]}},{"type":"Feature","properties":{"country_en":"Bulgaria","name":"Smolyan","name_adm0":"Bulgaria","name_adm1":"Smolyan","name_en":"Smolyan","iso":"BG"},"geometry":{"type":"Point","coordinates":[24.65,41.61667]}},{"type":"Feature","properties":{"country_en":"Bulgaria","name":"Svishtov","name_adm0":"Bulgaria","name_adm1":"Veliko Turnovo","name_adm2":"Svishtov","name_en":"Svishtov","iso":"BG"},"geometry":{"type":"Point","coordinates":[25.353889999999996,43.62306]}},{"type":"Feature","properties":{"country_en":"Bulgaria","name":"Granitovo","name_adm0":"Bulgaria","name_adm1":"Vidin","name_adm2":"Belogradchik","name_en":"Granitovo","iso":"BG"},"geometry":{"type":"Point","coordinates":[22.69139,43.67860999999999]}},{"type":"Feature","properties":{"country_en":"Bulgaria","name":"Sveti Nikola","name_adm0":"Bulgaria","name_adm1":"Dobrich","name_adm2":"Kavarna","name_en":"Sveti Nikola","iso":"BG"},"geometry":{"type":"Point","coordinates":[28.499999999999996,43.43333]}},{"type":"Feature","properties":{"country_en":"Bulgaria","name":"Bansko","name_adm0":"Bulgaria","name_adm1":"Blagoevgrad","name_adm2":"Bansko","name_en":"Bansko","iso":"BG"},"geometry":{"type":"Point","coordinates":[23.431434,41.7667815]}},{"type":"Feature","properties":{"country_en":"Bulgaria","name":"Rozovets","name_adm0":"Bulgaria","name_adm1":"Plovdiv","name_adm2":"Brezovo","name_en":"Rozovets","iso":"BG"},"geometry":{"type":"Point","coordinates":[25.11667,42.46667]}},{"type":"Feature","properties":{"country_en":"Bulgaria","name":"Ihtiman","name_adm0":"Bulgaria","name_adm1":"Sofiya","name_adm2":"Ihtiman","name_en":"Ihtiman","iso":"BG"},"geometry":{"type":"Point","coordinates":[23.8677975,42.401657]}},{"type":"Feature","properties":{"country_en":"Bulgaria","name":"Alino","name_adm0":"Bulgaria","name_adm1":"Sofiya","name_adm2":"Samokov","name_en":"Alino","iso":"BG"},"geometry":{"type":"Point","coordinates":[23.38333,42.4]}},{"type":"Feature","properties":{"country_en":"Bulgaria","name":"Bogdansko","name_adm0":"Bulgaria","name_adm1":"Veliko Turnovo","name_adm2":"Elena","name_en":"Bogdansko","iso":"BG"},"geometry":{"type":"Point","coordinates":[26.01667,42.95]}},{"type":"Feature","properties":{"country_en":"Bulgaria","name":"Dobri Dol","name_adm0":"Bulgaria","name_adm1":"Plovdiv","name_adm2":"Parvomay","name_en":"Dobri Dol","iso":"BG"},"geometry":{"type":"Point","coordinates":[25.31667,42.13333]}},{"type":"Feature","properties":{"country_en":"Bulgaria","name":"Dobri Dyal","name_adm0":"Bulgaria","name_adm1":"Veliko Turnovo","name_adm2":"Lyaskovets","name_en":"Dobri Dyal","iso":"BG"},"geometry":{"type":"Point","coordinates":[25.83333,43.11667]}},{"type":"Feature","properties":{"country_en":"Bulgaria","name":"Dobrogled","name_adm0":"Bulgaria","name_adm1":"Varna","name_adm2":"Aksakovo","name_en":"Dobrogled","iso":"BG"},"geometry":{"type":"Point","coordinates":[27.76667,43.26667]}},{"type":"Feature","properties":{"country_en":"Bulgaria","name":"Dobrudzhanka","name_adm0":"Bulgaria","name_adm1":"Silistra","name_adm2":"Kaynardzha","name_en":"Dobrudzhanka","iso":"BG"},"geometry":{"type":"Point","coordinates":[27.58333,43.96666999999999]}},{"type":"Feature","properties":{"country_en":"Bulgaria","name":"G'ovren","name_adm0":"Bulgaria","name_adm1":"Smolyan","name_adm2":"Devin","name_en":"G'ovren","iso":"BG"},"geometry":{"type":"Point","coordinates":[24.23,41.4]}},{"type":"Feature","properties":{"country_en":"Bulgaria","name":"Egulnitsa","name_adm0":"Bulgaria","name_adm1":"Pernik","name_adm2":"Kovachevtsi","name_en":"Egulnitsa","iso":"BG"},"geometry":{"type":"Point","coordinates":[22.85,42.46667]}},{"type":"Feature","properties":{"country_en":"Bulgaria","name":"Gorno Prakhovo","name_adm0":"Bulgaria","name_adm1":"Kurdzhali","name_adm2":"Ardino","name_en":"Gorno Prakhovo","iso":"BG"},"geometry":{"type":"Point","coordinates":[25.15,41.64999999999999]}},{"type":"Feature","properties":{"country_en":"Bulgaria","name":"Gorno Sakhrane","name_adm0":"Bulgaria","name_adm1":"Stara Zagora","name_adm2":"Pavel Banya","name_en":"Gorno Sakhrane","iso":"BG"},"geometry":{"type":"Point","coordinates":[25.21667,42.65]}},{"type":"Feature","properties":{"country_en":"Bulgaria","name":"Izbul","name_adm0":"Bulgaria","name_adm1":"Shumen","name_adm2":"Novi Pazar","name_en":"Izbul","iso":"BG"},"geometry":{"type":"Point","coordinates":[27.11667,43.43333]}},{"type":"Feature","properties":{"country_en":"Bulgaria","name":"Izgrev","name_adm0":"Bulgaria","name_adm1":"Varna","name_adm2":"Suvorovo","name_en":"Izgrev","iso":"BG"},"geometry":{"type":"Point","coordinates":[27.699999999999996,43.29999999999999]}},{"type":"Feature","properties":{"country_en":"Bulgaria","name":"Latinka","name_adm0":"Bulgaria","name_adm1":"Kurdzhali","name_adm2":"Ardino","name_en":"Latinka","iso":"BG"},"geometry":{"type":"Point","coordinates":[25.13333,41.58333]}},{"type":"Feature","properties":{"country_en":"Bulgaria","name":"Lesicharka","name_adm0":"Bulgaria","name_adm1":"Gabrovo","name_adm2":"Gabrovo","name_en":"Lesicharka","iso":"BG"},"geometry":{"type":"Point","coordinates":[25.38333,42.93333]}},{"type":"Feature","properties":{"country_en":"Bulgaria","name":"Marikostinovo","name_adm0":"Bulgaria","name_adm1":"Blagoevgrad","name_adm2":"Petrich","name_en":"Marikostinovo","iso":"BG"},"geometry":{"type":"Point","coordinates":[23.35,41.43333]}},{"type":"Feature","properties":{"country_en":"Bulgaria","name":"Oreshe","name_adm0":"Bulgaria","name_adm1":"Blagoevgrad","name_adm2":"Garmen","name_en":"Oreshe","iso":"BG"},"geometry":{"type":"Point","coordinates":[23.88333,41.61667]}},{"type":"Feature","properties":{"country_en":"Bulgaria","name":"Polyantsi","name_adm0":"Bulgaria","name_adm1":"Sofiya","name_adm2":"Ihtiman","name_en":"Polyantsi","iso":"BG"},"geometry":{"type":"Point","coordinates":[23.73333,42.41667]}},{"type":"Feature","properties":{"country_en":"Bulgaria","name":"Pomoshtitsa","name_adm0":"Bulgaria","name_adm1":"Turgovishte","name_adm2":"Popovo","name_en":"Pomoshtitsa","iso":"BG"},"geometry":{"type":"Point","coordinates":[26.33333,43.46667]}},{"type":"Feature","properties":{"country_en":"Bulgaria","name":"Rakovo","name_adm0":"Bulgaria","name_adm1":"Sliven","name_adm2":"Sliven","name_en":"Rakovo","iso":"BG"},"geometry":{"type":"Point","coordinates":[26.299999999999997,42.8]}},{"type":"Feature","properties":{"country_en":"Bulgaria","name":"Ralevo","name_adm0":"Bulgaria","name_adm1":"Pleven","name_adm2":"Pleven","name_en":"Ralevo","iso":"BG"},"geometry":{"type":"Point","coordinates":[24.6,43.29999999999999]}},{"type":"Feature","properties":{"country_en":"Bulgaria","name":"Samoranovo","name_adm0":"Bulgaria","name_adm1":"Kyustendil","name_adm2":"Dupnitsa","name_en":"Samoranovo","iso":"BG"},"geometry":{"type":"Point","coordinates":[23.166669999999996,42.25]}},{"type":"Feature","properties":{"country_en":"Bulgaria","name":"Samovodene","name_adm0":"Bulgaria","name_adm1":"Veliko Turnovo","name_adm2":"Veliko Tarnovo","name_en":"Samovodene","iso":"BG"},"geometry":{"type":"Point","coordinates":[25.6,43.133329999999994]}},{"type":"Feature","properties":{"country_en":"Bulgaria","name":"Samuilovo","name_adm0":"Bulgaria","name_adm1":"Blagoevgrad","name_adm2":"Petrich","name_en":"Samuilovo","iso":"BG"},"geometry":{"type":"Point","coordinates":[23.08333,41.36667]}},{"type":"Feature","properties":{"country_en":"Bulgaria","name":"Sitovo","name_adm0":"Bulgaria","name_adm1":"Plovdiv","name_adm2":"Rodopi","name_en":"Sitovo","iso":"BG"},"geometry":{"type":"Point","coordinates":[24.61667,41.93333]}},{"type":"Feature","properties":{"country_en":"Bulgaria","name":"Skalak","name_adm0":"Bulgaria","name_adm1":"Kurdzhali","name_adm2":"Krumovgrad","name_en":"Skalak","iso":"BG"},"geometry":{"type":"Point","coordinates":[25.66667,41.46667]}},