{"type":"FeatureCollection","features":[{"type":"Feature","properties":{"country_en":"Belize","name":"Teakettle Camp","name_adm0":"Belize","name_adm1":"Toledo","name_en":"Teakettle Camp","iso":"BZ"},"geometry":{"type":"Point","coordinates":[-88.81667,16.5]}},{"type":"Feature","properties":{"country_en":"Belize","name":"Sierra de Agua","name_adm0":"Belize","name_adm1":"Orange Walk","name_en":"Sierra de Agua","iso":"BZ"},"geometry":{"type":"Point","coordinates":[-88.86667,17.53333]}},{"type":"Feature","properties":{"country_en":"Belize","name":"Solomon Camp","name_adm0":"Belize","name_adm1":"Toledo","name_en":"Solomon Camp","iso":"BZ"},"geometry":{"type":"Point","coordinates":[-88.74999999999999,16.55]}},{"type":"Feature","properties":{"country_en":"Belize","name":"San Lazaro","name_adm0":"Belize","name_adm1":"Orange Walk","name_en":"San Lazaro","iso":"BZ"},"geometry":{"type":"Point","coordinates":[-88.64999999999999,18.03333]}},{"type":"Feature","properties":{"country_en":"Belize","name":"San Estevan","name_adm0":"Belize","name_adm1":"Orange Walk","name_en":"San Estevan","iso":"BZ"},"geometry":{"type":"Point","coordinates":[-88.5,18.15]}},{"type":"Feature","properties":{"country_en":"Belize","name":"Rancho","name_adm0":"Belize","name_adm1":"Orange Walk","name_en":"Rancho","iso":"BZ"},"geometry":{"type":"Point","coordinates":[-88.36666999999998,17.95]}},{"type":"Feature","properties":{"country_en":"Belize","name":"Palmar Camp","name_adm0":"Belize","name_adm1":"Toledo","name_en":"Palmar Camp","iso":"BZ"},"geometry":{"type":"Point","coordinates":[-88.88333,16.43333]}},{"type":"Feature","properties":{"country_en":"Belize","name":"Cayo","name_adm0":"Belize","name_adm1":"Cayo","name_en":"Cayo","iso":"BZ"},"geometry":{"type":"Point","coordinates":[-88.91667,16.83333]}},{"type":"Feature","properties":{"country_en":"Belize","name":"Toledo Settlement","name_adm0":"Belize","name_adm1":"Toledo","name_en":"Toledo Settlement","iso":"BZ"},"geometry":{"type":"Point","coordinates":[-88.81667,16.13333]}},{"type":"Feature","properties":{"country_en":"Belize","name":"Locust Bank","name_adm0":"Belize","name_adm1":"Stann Creek","name_en":"Locust Bank","iso":"BZ"},"geometry":{"type":"Point","coordinates":[-88.48333,16.76667]}},{"type":"Feature","properties":{"country_en":"Belize","name":"Punta Gorda","name_adm0":"Belize","name_adm1":"Toledo","name_en":"Punta Gorda","iso":"BZ"},"geometry":{"type":"Point","coordinates":[-88.80969999999999,16.09835]}},{"type":"Feature","properties":{"country_en":"Belize","name":"Santana","name_adm0":"Belize","name_adm1":"Belize","name_en":"Santana","iso":"BZ"},"geometry":{"type":"Point","coordinates":[-88.28333,17.8]}},{"type":"Feature","properties":{"country_en":"Belize","name":"Corozal","name_adm0":"Belize","name_adm1":"Corozal","name_en":"Corozal","iso":"BZ"},"geometry":{"type":"Point","coordinates":[-88.39419,18.39794]}},{"type":"Feature","properties":{"country_en":"Belize","name":"Orange Walk","name_adm0":"Belize","name_adm1":"Orange Walk","name_en":"Orange Walk","iso":"BZ"},"geometry":{"type":"Point","coordinates":[-88.83333,17.83333]}},{"type":"Feature","properties":{"country_en":"Belize","name":"Belize","name_adm0":"Belize","name_en":"Belize","iso":"BZ"},"geometry":{"type":"Point","coordinates":[-88.420715,17.19292]}},{"type":"Feature","properties":{"country_en":"Belize","name":"Lopez","name_adm0":"Belize","name_adm1":"Corozal","name_en":"Lopez","iso":"BZ"},"geometry":{"type":"Point","coordinates":[-88.3925625,18.491636]}},{"type":"Feature","properties":{"country_en":"Belize","name":"Hattieville","name_adm0":"Belize","name_adm1":"Belize","name_en":"Hattieville","iso":"BZ"},"geometry":{"type":"Point","coordinates":[-88.38333,17.45]}},{"type":"Feature","properties":{"country_en":"Belize","name":"Tower Hill","name_adm0":"Belize","name_adm1":"Orange Walk","name_en":"Tower Hill","iso":"BZ"},"geometry":{"type":"Point","coordinates":[-88.556973,18.028281]}},{"type":"Feature","properties":{"country_en":"Belize","name":"Melvin's Bank","name_adm0":"Belize","name_adm1":"Toledo","name_en":"Melvin's Bank","iso":"BZ"},"geometry":{"type":"Point","coordinates":[-88.63333,16.43333]}},{"type":"Feature","properties":{"country_en":"Belize","name":"Douglas","name_adm0":"Belize","name_adm1":"Orange Walk","name_en":"Douglas","iso":"BZ"},"geometry":{"type":"Point","coordinates":[-88.6,18.23333]}},{"type":"Feature","properties":{"country_en":"Belize","name":"Orange Walk","name_adm0":"Belize","name_adm1":"Orange Walk","name_en":"Orange Walk","iso":"BZ"},"geometry":{"type":"Point","coordinates":[-88.56328,18.08124]}},{"type":"Feature","properties":{"country_en":"Belize","name":"San Ignacio","name_adm0":"Belize","name_adm1":"Cayo","name_en":"San Ignacio","iso":"BZ"},"geometry":{"type":"Point","coordinates":[-89.07139,17.15611]}},{"type":"Feature","properties":{"country_en":"Belize","name":"Bermudian Landing","name_adm0":"Belize","name_adm1":"Belize","name_en":"Bermudian Landing","iso":"BZ"},"geometry":{"type":"Point","coordinates":[-88.53573,17.5573]}},{"type":"Feature","properties":{"country_en":"Belize","name":"Rockville","name_adm0":"Belize","name_adm1":"Belize","name_en":"Rockville","iso":"BZ"},"geometry":{"type":"Point","coordinates":[-88.46666999999998,17.4]}},{"type":"Feature","properties":{"country_en":"Belize","name":"San Antonio","name_adm0":"Belize","name_adm1":"Toledo","name_en":"San Antonio","iso":"BZ"},"geometry":{"type":"Point","coordinates":[-89.02417,16.24361]}},{"type":"Feature","properties":{"country_en":"Belize","name":"Big Fall","name_adm0":"Belize","name_adm1":"Toledo","name_en":"Big Fall","iso":"BZ"},"geometry":{"type":"Point","coordinates":[-88.88333,16.25]}},{"type":"Feature","properties":{"country_en":"Belize","name":"Belize","name_adm0":"Belize","name_adm1":"Belize","name_en":"Belize","iso":"BZ"},"geometry":{"type":"Point","coordinates":[-88.16667,17.25]}},{"type":"Feature","properties":{"country_en":"Belize","name":"Belmopan","name_adm0":"Belize","name_adm1":"Cayo","name_en":"Belmopan","iso":"BZ"},"geometry":{"type":"Point","coordinates":[-88.778511,17.256943]}},{"type":"Feature","properties":{"country_en":"Belize","name":"Fort George","name_adm0":"Belize","name_adm1":"Belize","name_en":"Fort George","iso":"BZ"},"geometry":{"type":"Point","coordinates":[-88.16667,17.48333]}},{"type":"Feature","properties":{"country_en":"Belize","name":"Toledo","name_adm0":"Belize","name_adm1":"Toledo","name_en":"Toledo","iso":"BZ"},"geometry":{"type":"Point","coordinates":[-88.74999999999999,16.33333]}},{"type":"Feature","properties":{"country_en":"Belize","name":"Stann Creek","name_adm0":"Belize","name_adm1":"Stann Creek","name_en":"Stann Creek","iso":"BZ"},"geometry":{"type":"Point","coordinates":[-88.5,16.83333]}},{"type":"Feature","properties":{"country_en":"Belize","name":"Water Bank","name_adm0":"Belize","name_adm1":"Orange Walk","name_en":"Water Bank","iso":"BZ"},"geometry":{"type":"Point","coordinates":[-88.64999999999999,17.78333]}},{"type":"Feature","properties":{"country_en":"Belize","name":"Rockstone Pond","name_adm0":"Belize","name_adm1":"Belize","name_en":"Rockstone Pond","iso":"BZ"},"geometry":{"type":"Point","coordinates":[-88.33333,17.75]}},{"type":"Feature","properties":{"country_en":"Belize","name":"Rancho Grande","name_adm0":"Belize","name_adm1":"Stann Creek","name_en":"Rancho Grande","iso":"BZ"},"geometry":{"type":"Point","coordinates":[-88.6,16.71667]}},{"type":"Feature","properties":{"country_en":"Belize","name":"Mountain Cow","name_adm0":"Belize","name_adm1":"Cayo","name_en":"Mountain Cow","iso":"BZ"},"geometry":{"type":"Point","coordinates":[-89.04889,16.7875]}},{"type":"Feature","properties":{"country_en":"Belize","name":"Hill Bank","name_adm0":"Belize","name_adm1":"Orange Walk","name_en":"Hill Bank","iso":"BZ"},"geometry":{"type":"Point","coordinates":[-88.68333,17.6]}},{"type":"Feature","properties":{"country_en":"Belize","name":"Churchyard","name_adm0":"Belize","name_adm1":"Belize","name_en":"Churchyard","iso":"BZ"},"geometry":{"type":"Point","coordinates":[-88.55,17.3]}},{"type":"Feature","properties":{"country_en":"Belize","name":"Corozal","name_adm0":"Belize","name_adm1":"Corozal","name_en":"Corozal","iso":"BZ"},"geometry":{"type":"Point","coordinates":[-88.33333,18.25]}}]}