{"type":"FeatureCollection","features":[{"type":"Feature","properties":{"country_en":"Canada","name":"Warden Woods","name_adm0":"Canada","name_adm1":"Ontario","name_adm2":"Toronto","name_en":"Warden Woods","iso":"CA"},"geometry":{"type":"Point","coordinates":[-79.280834,43.712545]}},{"type":"Feature","properties":{"country_en":"Canada","name":"Centre Ville","name_adm0":"Canada","name_adm1":"Québec","name_adm2":"Beauharnois-Salaberry","name_en":"Centre Ville","iso":"CA"},"geometry":{"type":"Point","coordinates":[-74.13290899999998,45.257367]}},{"type":"Feature","properties":{"country_en":"Canada","name":"Outlook","name_adm0":"Canada","name_adm1":"Saskatchewan","name_adm2":"Saskatchewan","name_en":"Outlook","iso":"CA"},"geometry":{"type":"Point","coordinates":[-107.05128,51.50008]}},{"type":"Feature","properties":{"country_en":"Canada","name":"Crumlin","name_adm0":"Canada","name_adm1":"Ontario","name_adm2":"Middlesex","name_en":"Crumlin","iso":"CA"},"geometry":{"type":"Point","coordinates":[-81.140674,42.99505]}},{"type":"Feature","properties":{"country_en":"Canada","name":"Lakehurst","name_adm0":"Canada","name_adm1":"Ontario","name_adm2":"Peterborough","name_en":"Lakehurst","iso":"CA"},"geometry":{"type":"Point","coordinates":[-78.412599,44.545191]}},{"type":"Feature","properties":{"country_en":"Canada","name":"St-Louis-de-Gonzague-du-Cap-Tourmen","name_adm0":"Canada","name_adm1":"Québec","name_adm2":"La Côte-de-beaupré","name_en":"St-Louis-de-Gonzague-du-Cap-Tourmen","iso":"CA"},"geometry":{"type":"Point","coordinates":[-70.776329,47.080116999999994]}},{"type":"Feature","properties":{"country_en":"Canada","name":"Bear River","name_adm0":"Canada","name_adm1":"Nova Scotia","name_adm2":"Digby","name_en":"Bear River","iso":"CA"},"geometry":{"type":"Point","coordinates":[-65.64884,44.56685]}},{"type":"Feature","properties":{"country_en":"Canada","name":"Cardigan","name_adm0":"Canada","name_adm1":"Prince Edward Island","name_adm2":"Kings","name_en":"Cardigan","iso":"CA"},"geometry":{"type":"Point","coordinates":[-62.61534999999999,46.23341]}},{"type":"Feature","properties":{"country_en":"Canada","name":"Main-À-Dieu","name_adm0":"Canada","name_adm1":"Nova Scotia","name_adm2":"Cape Breton","name_en":"Main-À-Dieu","iso":"CA"},"geometry":{"type":"Point","coordinates":[-59.84843,46.00014]}},{"type":"Feature","properties":{"country_en":"Canada","name":"Port Greville","name_adm0":"Canada","name_adm1":"Nova Scotia","name_adm2":"Cumberland","name_en":"Port Greville","iso":"CA"},"geometry":{"type":"Point","coordinates":[-64.54876,45.40014]}},{"type":"Feature","properties":{"country_en":"Canada","name":"Salvage","name_adm0":"Canada","name_adm1":"Newfoundland and Labrador","name_adm2":"Newfoundland and Labrador","name_en":"Salvage","iso":"CA"},"geometry":{"type":"Point","coordinates":[-53.63139,48.68319999999999]}},{"type":"Feature","properties":{"country_en":"Canada","name":"St.-Éphrem-de-Beauce","name_adm0":"Canada","name_adm1":"Québec","name_adm2":"Beauce-Sartigan","name_en":"St.-Éphrem-de-Beauce","iso":"CA"},"geometry":{"type":"Point","coordinates":[-70.97795299999999,46.110277]}},{"type":"Feature","properties":{"country_en":"Canada","name":"St.-Janvier-de-Joly","name_adm0":"Canada","name_adm1":"Québec","name_adm2":"Lotbinière","name_en":"St.-Janvier-de-Joly","iso":"CA"},"geometry":{"type":"Point","coordinates":[-71.64527799999999,46.471384]}},{"type":"Feature","properties":{"country_en":"Canada","name":"St.-norbert-d'arthabaska","name_adm0":"Canada","name_adm1":"Québec","name_adm2":"Arthabaska","name_en":"St.-norbert-d'arthabaska","iso":"CA"},"geometry":{"type":"Point","coordinates":[-71.825523,46.117037]}},{"type":"Feature","properties":{"country_en":"Canada","name":"Dupuy","name_adm0":"Canada","name_adm1":"Québec","name_adm2":"Abitibi-Ouest","name_en":"Dupuy","iso":"CA"},"geometry":{"type":"Point","coordinates":[-79.34965,48.83348999999999]}},{"type":"Feature","properties":{"country_en":"Canada","name":"Hermitage","name_adm0":"Canada","name_adm1":"Newfoundland and Labrador","name_adm2":"Newfoundland and Labrador","name_en":"Hermitage","iso":"CA"},"geometry":{"type":"Point","coordinates":[-55.93164,47.53325]}},{"type":"Feature","properties":{"country_en":"Canada","name":"Beauval","name_adm0":"Canada","name_adm1":"Saskatchewan","name_adm2":"Saskatchewan","name_en":"Beauval","iso":"CA"},"geometry":{"type":"Point","coordinates":[-107.61807,55.15018]}},{"type":"Feature","properties":{"country_en":"Canada","name":"Denholm","name_adm0":"Canada","name_adm1":"Saskatchewan","name_adm2":"Saskatchewan","name_en":"Denholm","iso":"CA"},"geometry":{"type":"Point","coordinates":[-108.01803,52.65012999999999]}},{"type":"Feature","properties":{"country_en":"Canada","name":"Laird","name_adm0":"Canada","name_adm1":"Saskatchewan","name_adm2":"Saskatchewan","name_en":"Laird","iso":"CA"},"geometry":{"type":"Point","coordinates":[-106.58446999999998,52.71679]}},{"type":"Feature","properties":{"country_en":"Canada","name":"Middle Lake","name_adm0":"Canada","name_adm1":"Saskatchewan","name_adm2":"Saskatchewan","name_en":"Middle Lake","iso":"CA"},"geometry":{"type":"Point","coordinates":[-105.30108,52.48335]}},{"type":"Feature","properties":{"country_en":"Canada","name":"Richard","name_adm0":"Canada","name_adm1":"Saskatchewan","name_adm2":"Saskatchewan","name_en":"Richard","iso":"CA"},"geometry":{"type":"Point","coordinates":[-107.66798,52.70012]}},{"type":"Feature","properties":{"country_en":"Canada","name":"Benito","name_adm0":"Canada","name_adm1":"Manitoba","name_adm2":"Manitoba","name_en":"Benito","iso":"CA"},"geometry":{"type":"Point","coordinates":[-101.54921,51.91389]}},{"type":"Feature","properties":{"country_en":"Canada","name":"Atwater","name_adm0":"Canada","name_adm1":"Saskatchewan","name_adm2":"Saskatchewan","name_en":"Atwater","iso":"CA"},"geometry":{"type":"Point","coordinates":[-102.21765999999998,50.78331]}},{"type":"Feature","properties":{"country_en":"Canada","name":"Fairford","name_adm0":"Canada","name_adm1":"Manitoba","name_adm2":"Manitoba","name_en":"Fairford","iso":"CA"},"geometry":{"type":"Point","coordinates":[-98.72314,51.58411]}},{"type":"Feature","properties":{"country_en":"Canada","name":"Coachman's Cove","name_adm0":"Canada","name_adm1":"Newfoundland and Labrador","name_adm2":"Newfoundland and Labrador","name_en":"Coachman's Cove","iso":"CA"},"geometry":{"type":"Point","coordinates":[-56.11484,50.06667]}},{"type":"Feature","properties":{"country_en":"Canada","name":"Great Harbour Deep","name_adm0":"Canada","name_adm1":"Newfoundland and Labrador","name_adm2":"Newfoundland and Labrador","name_en":"Great Harbour Deep","iso":"CA"},"geometry":{"type":"Point","coordinates":[-56.51484,50.36672]}},{"type":"Feature","properties":{"country_en":"Canada","name":"La Tabatière","name_adm0":"Canada","name_adm1":"Québec","name_adm2":"Basse-Côte-Nord","name_en":"La Tabatière","iso":"CA"},"geometry":{"type":"Point","coordinates":[-58.96495,50.83341]}},{"type":"Feature","properties":{"country_en":"Canada","name":"Benson","name_adm0":"Canada","name_adm1":"Saskatchewan","name_adm2":"Saskatchewan","name_en":"Benson","iso":"CA"},"geometry":{"type":"Point","coordinates":[-103.01766,49.45006]}},{"type":"Feature","properties":{"country_en":"Canada","name":"Gardiner","name_adm0":"Canada","name_adm1":"Ontario","name_adm2":"Cochrane","name_en":"Gardiner","iso":"CA"},"geometry":{"type":"Point","coordinates":[-81.03307,49.30019]}},{"type":"Feature","properties":{"country_en":"Canada","name":"Rencontre East","name_adm0":"Canada","name_adm1":"Newfoundland and Labrador","name_adm2":"Newfoundland and Labrador","name_en":"Rencontre East","iso":"CA"},"geometry":{"type":"Point","coordinates":[-55.21498,47.63323]}},{"type":"Feature","properties":{"country_en":"Canada","name":"St. Jacques-coomb's Cove","name_adm0":"Canada","name_adm1":"Newfoundland and Labrador","name_adm2":"Newfoundland and Labrador","name_en":"St. Jacques-coomb's Cove","iso":"CA"},"geometry":{"type":"Point","coordinates":[-55.51501,47.46664]}},{"type":"Feature","properties":{"country_en":"Canada","name":"Botha","name_adm0":"Canada","name_adm1":"Alberta","name_adm2":"Alberta","name_en":"Botha","iso":"CA"},"geometry":{"type":"Point","coordinates":[-112.53519,52.30013]}},{"type":"Feature","properties":{"country_en":"Canada","name":"Gadsby","name_adm0":"Canada","name_adm1":"Alberta","name_adm2":"Alberta","name_en":"Gadsby","iso":"CA"},"geometry":{"type":"Point","coordinates":[-112.35185999999999,52.30013]}},{"type":"Feature","properties":{"country_en":"Canada","name":"Lomond","name_adm0":"Canada","name_adm1":"Alberta","name_adm2":"Alberta","name_en":"Lomond","iso":"CA"},"geometry":{"type":"Point","coordinates":[-112.65184999999998,50.35008]}},{"type":"Feature","properties":{"country_en":"Canada","name":"Beach Corner","name_adm0":"Canada","name_adm1":"Alberta","name_adm2":"Alberta","name_en":"Beach Corner","iso":"CA"},"geometry":{"type":"Point","coordinates":[-114.11876,53.53343]}},{"type":"Feature","properties":{"country_en":"Canada","name":"Alix","name_adm0":"Canada","name_adm1":"Alberta","name_adm2":"Alberta","name_en":"Alix","iso":"CA"},"geometry":{"type":"Point","coordinates":[-113.18524999999998,52.40012]}},{"type":"Feature","properties":{"country_en":"Canada","name":"Bentley","name_adm0":"Canada","name_adm1":"Alberta","name_adm2":"Alberta","name_en":"Bentley","iso":"CA"},"geometry":{"type":"Point","coordinates":[-114.06871,52.46681]}},{"type":"Feature","properties":{"country_en":"Canada","name":"Morrisburg","name_adm0":"Canada","name_adm1":"Ontario","name_adm2":"Stormont Dundas and Glengarry","name_en":"Morrisburg","iso":"CA"},"geometry":{"type":"Point","coordinates":[-75.18260999999998,44.9001]}},{"type":"Feature","properties":{"country_en":"Canada","name":"Ridgetown","name_adm0":"Canada","name_adm1":"Ontario","name_adm2":"Chatham-Kent","name_en":"Ridgetown","iso":"CA"},"geometry":{"type":"Point","coordinates":[-81.89978,42.43339]}},{"type":"Feature","properties":{"country_en":"Canada","name":"Tormore","name_adm0":"Canada","name_adm1":"Ontario","name_adm2":"Peel","name_en":"Tormore","iso":"CA"},"geometry":{"type":"Point","coordinates":[-79.69499999999998,43.848389999999995]}},{"type":"Feature","properties":{"country_en":"Canada","name":"Downtown","name_adm0":"Canada","name_adm1":"British Columbia","name_adm2":"Central Okanagan","name_en":"Downtown","iso":"CA"},"geometry":{"type":"Point","coordinates":[-119.497818,49.884653]}},{"type":"Feature","properties":{"country_en":"Canada","name":"Lower Lonsdale","name_adm0":"Canada","name_adm1":"British Columbia","name_adm2":"Greater Vancouver","name_en":"Lower Lonsdale","iso":"CA"},"geometry":{"type":"Point","coordinates":[-123.082065,49.31046549999999]}},{"type":"Feature","properties":{"country_en":"Canada","name":"Burnaby Mountain","name_adm0":"Canada","name_adm1":"British Columbia","name_adm2":"Greater Vancouver","name_en":"Burnaby Mountain","iso":"CA"},"geometry":{"type":"Point","coordinates":[-122.92773599999998,49.279273499999995]}},{"type":"Feature","properties":{"country_en":"Canada","name":"Heinsburg","name_adm0":"Canada","name_adm1":"Alberta","name_adm2":"Alberta","name_en":"Heinsburg","iso":"CA"},"geometry":{"type":"Point","coordinates":[-110.51835,53.76687]}},{"type":"Feature","properties":{"country_en":"Canada","name":"Bindloss","name_adm0":"Canada","name_adm1":"Alberta","name_adm2":"Alberta","name_en":"Bindloss","iso":"CA"},"geometry":{"type":"Point","coordinates":[-110.26834,50.86683]}},{"type":"Feature","properties":{"country_en":"Canada","name":"Kinnaird","name_adm0":"Canada","name_adm1":"British Columbia","name_adm2":"Central Kootenay","name_en":"Kinnaird","iso":"CA"},"geometry":{"type":"Point","coordinates":[-117.65224,49.28594]}},{"type":"Feature","properties":{"country_en":"Canada","name":"Pebble Hill","name_adm0":"Canada","name_adm1":"British Columbia","name_adm2":"Greater Vancouver","name_en":"Pebble Hill","iso":"CA"},"geometry":{"type":"Point","coordinates":[-123.069158,49.035619]}},{"type":"Feature","properties":{"country_en":"Canada","name":"Nelson","name_adm0":"Canada","name_adm1":"British Columbia","name_adm2":"Central Kootenay","name_en":"Nelson","iso":"CA"},"geometry":{"type":"Point","coordinates":[-117.28553,49.49985]}},{"type":"Feature","properties":{"country_en":"Canada","name":"Comber","name_adm0":"Canada","name_adm1":"Ontario","name_adm2":"Essex","name_en":"Comber","iso":"CA"},"geometry":{"type":"Point","coordinates":[-82.551206,42.233738]}},{"type":"Feature","properties":{"country_en":"Canada","name":"St Vincent de Paul","name_adm0":"Canada","name_adm1":"Québec","name_adm2":"Laval","name_en":"St Vincent de Paul","iso":"CA"},"geometry":{"type":"Point","coordinates":[-73.660326,45.60638149999999]}},{"type":"Feature","properties":{"country_en":"Canada","name":"Edmonton","name_adm0":"Canada","name_adm1":"Alberta","name_adm2":"Alberta","name_en":"Edmonton","iso":"CA"},"geometry":{"type":"Point","coordinates":[-113.490371,53.546218]}},{"type":"Feature","properties":{"country_en":"Canada","name":"Wilmot","name_adm0":"Canada","name_adm1":"Ontario","name_adm2":"Waterloo","name_en":"Wilmot","iso":"CA"},"geometry":{"type":"Point","coordinates":[-80.670526,43.405483]}},{"type":"Feature","properties":{"country_en":"Canada","name":"East Garafraxa","name_adm0":"Canada","name_adm1":"Ontario","name_adm2":"Dufferin","name_en":"East Garafraxa","iso":"CA"},"geometry":{"type":"Point","coordinates":[-80.19101099999999,43.82859799999999]}},{"type":"Feature","properties":{"country_en":"Canada","name":"Huntsville","name_adm0":"Canada","name_adm1":"Ontario","name_adm2":"Muskoka","name_en":"Huntsville","iso":"CA"},"geometry":{"type":"Point","coordinates":[-79.21632,45.33341]}},{"type":"Feature","properties":{"country_en":"Canada","name":"Roberval","name_adm0":"Canada","name_adm1":"Québec","name_adm2":"Le Domaine-du-Roy","name_en":"Roberval","iso":"CA"},"geometry":{"type":"Point","coordinates":[-72.23244,48.5168]}},{"type":"Feature","properties":{"country_en":"Canada","name":"Dovecourt Park","name_adm0":"Canada","name_adm1":"Ontario","name_adm2":"Toronto","name_en":"Dovecourt Park","iso":"CA"},"geometry":{"type":"Point","coordinates":[-79.432144,43.66461199999999]}},{"type":"Feature","properties":{"country_en":"Canada","name":"Lower Sumas Mountain","name_adm0":"Canada","name_adm1":"British Columbia","name_adm2":"Fraser Valley","name_en":"Lower Sumas Mountain","iso":"CA"},"geometry":{"type":"Point","coordinates":[-122.23088200000001,49.038993]}},{"type":"Feature","properties":{"country_en":"Canada","name":"Notre Dame de Grâces","name_adm0":"Canada","name_adm1":"Québec","name_adm2":"Longueuil","name_en":"Notre Dame de Grâces","iso":"CA"},"geometry":{"type":"Point","coordinates":[-73.503277,45.52687]}},{"type":"Feature","properties":{"country_en":"Canada","name":"Tweed","name_adm0":"Canada","name_adm1":"Ontario","name_adm2":"Hastings","name_en":"Tweed","iso":"CA"},"geometry":{"type":"Point","coordinates":[-77.31616,44.47512]}},{"type":"Feature","properties":{"country_en":"Canada","name":"St.-Antoine-de-Tilly","name_adm0":"Canada","name_adm1":"Québec","name_adm2":"Lotbinière","name_en":"St.-Antoine-de-Tilly","iso":"CA"},"geometry":{"type":"Point","coordinates":[-71.57335,46.66346]}},{"type":"Feature","properties":{"country_en":"Canada","name":"St.-Charles-Borromée","name_adm0":"Canada","name_adm1":"Québec","name_adm2":"Joliette","name_en":"St.-Charles-Borromée","iso":"CA"},"geometry":{"type":"Point","coordinates":[-73.46586,46.05007]}},{"type":"Feature","properties":{"country_en":"Canada","name":"Ste.-Catherine","name_adm0":"Canada","name_adm1":"Québec","name_adm2":"Roussillon","name_en":"Ste.-Catherine","iso":"CA"},"geometry":{"type":"Point","coordinates":[-73.58248,45.40008]}},{"type":"Feature","properties":{"country_en":"Canada","name":"Boulevard Saint Jean-Baptiste","name_adm0":"Canada","name_adm1":"Québec","name_adm2":"Roussillon","name_en":"Boulevard Saint Jean-Baptiste","iso":"CA"},"geometry":{"type":"Point","coordinates":[-73.7182875,45.353502]}},{"type":"Feature","properties":{"country_en":"Canada","name":"Senneville Marina","name_adm0":"Canada","name_adm1":"Québec","name_adm2":"Montréal","name_en":"Senneville Marina","iso":"CA"},"geometry":{"type":"Point","coordinates":[-73.97107549999998,45.42056349999999]}},{"type":"Feature","properties":{"country_en":"Canada","name":"St-François-de-Montmagny","name_adm0":"Canada","name_adm1":"Québec","name_adm2":"Montmagny","name_en":"St-François-de-Montmagny","iso":"CA"},"geometry":{"type":"Point","coordinates":[-70.695819,46.9018]}},{"type":"Feature","properties":{"country_en":"Canada","name":"Mt Carmel-Mitchells Brook-St Cather","name_adm0":"Canada","name_adm1":"Newfoundland and Labrador","name_adm2":"Newfoundland and Labrador","name_en":"Mt Carmel-Mitchells Brook-St Cather","iso":"CA"},"geometry":{"type":"Point","coordinates":[-53.4814,47.1499]}},{"type":"Feature","properties":{"country_en":"Canada","name":"Shippagan","name_adm0":"Canada","name_adm1":"New Brunswick","name_adm2":"Gloucester","name_en":"Shippagan","iso":"CA"},"geometry":{"type":"Point","coordinates":[-64.70271299999999,47.743399]}},{"type":"Feature","properties":{"country_en":"Canada","name":"Gull Harbour","name_adm0":"Canada","name_adm1":"Manitoba","name_adm2":"Manitoba","name_en":"Gull Harbour","iso":"CA"},"geometry":{"type":"Point","coordinates":[-96.624927,51.192365]}},{"type":"Feature","properties":{"country_en":"Canada","name":"Wikwemikong","name_adm0":"Canada","name_adm1":"Ontario","name_adm2":"Manitoulin","name_en":"Wikwemikong","iso":"CA"},"geometry":{"type":"Point","coordinates":[-81.692667,45.8175]}},{"type":"Feature","properties":{"country_en":"Canada","name":"Rolly View","name_adm0":"Canada","name_adm1":"Alberta","name_adm2":"Alberta","name_en":"Rolly View","iso":"CA"},"geometry":{"type":"Point","coordinates":[-113.317014,53.251657]}},{"type":"Feature","properties":{"country_en":"Canada","name":"Millerton","name_adm0":"Canada","name_adm1":"New Brunswick","name_adm2":"Northumberland","name_en":"Millerton","iso":"CA"},"geometry":{"type":"Point","coordinates":[-65.63205,46.90011]}},{"type":"Feature","properties":{"country_en":"Canada","name":"Mississippi Station","name_adm0":"Canada","name_adm1":"Ontario","name_adm2":"Frontenac","name_en":"Mississippi Station","iso":"CA"},"geometry":{"type":"Point","coordinates":[-76.68271,44.91680999999999]}},{"type":"Feature","properties":{"country_en":"Canada","name":"Monteith","name_adm0":"Canada","name_adm1":"Ontario","name_adm2":"Cochrane","name_en":"Monteith","iso":"CA"},"geometry":{"type":"Point","coordinates":[-80.68307,48.65017]}},{"type":"Feature","properties":{"country_en":"Canada","name":"Mervin","name_adm0":"Canada","name_adm1":"Saskatchewan","name_adm2":"Saskatchewan","name_en":"Mervin","iso":"CA"},"geometry":{"type":"Point","coordinates":[-108.88472999999999,53.33347]}},{"type":"Feature","properties":{"country_en":"Canada","name":"Rivière-St.-Jean","name_adm0":"Canada","name_adm1":"Québec","name_adm2":"Minganie","name_en":"Rivière-St.-Jean","iso":"CA"},"geometry":{"type":"Point","coordinates":[-64.33197,50.30013999999999]}},{"type":"Feature","properties":{"country_en":"Canada","name":"Sperling","name_adm0":"Canada","name_adm1":"Manitoba","name_adm2":"Manitoba","name_en":"Sperling","iso":"CA"},"geometry":{"type":"Point","coordinates":[-97.7054,49.50811]}},{"type":"Feature","properties":{"country_en":"Canada","name":"Arborfield","name_adm0":"Canada","name_adm1":"Saskatchewan","name_adm2":"Saskatchewan","name_en":"Arborfield","iso":"CA"},"geometry":{"type":"Point","coordinates":[-103.65092,53.10006]}},{"type":"Feature","properties":{"country_en":"Canada","name":"Tompkins","name_adm0":"Canada","name_adm1":"Saskatchewan","name_adm2":"Saskatchewan","name_en":"Tompkins","iso":"CA"},"geometry":{"type":"Point","coordinates":[-108.78473999999999,50.06677]}},{"type":"Feature","properties":{"country_en":"Canada","name":"Webb","name_adm0":"Canada","name_adm1":"Saskatchewan","name_adm2":"Saskatchewan","name_en":"Webb","iso":"CA"},"geometry":{"type":"Point","coordinates":[-108.20138,50.18337]}},{"type":"Feature","properties":{"country_en":"Canada","name":"Maple","name_adm0":"Canada","name_adm1":"Ontario","name_adm2":"York","name_en":"Maple","iso":"CA"},"geometry":{"type":"Point","coordinates":[-79.51631,43.85011]}},{"type":"Feature","properties":{"country_en":"Canada","name":"Duff","name_adm0":"Canada","name_adm1":"Saskatchewan","name_adm2":"Saskatchewan","name_en":"Duff","iso":"CA"},"geometry":{"type":"Point","coordinates":[-103.08430999999999,50.88332]}},{"type":"Feature","properties":{"country_en":"Canada","name":"Kelliher","name_adm0":"Canada","name_adm1":"Saskatchewan","name_adm2":"Saskatchewan","name_en":"Kelliher","iso":"CA"},"geometry":{"type":"Point","coordinates":[-103.73434999999999,51.26676]}},{"type":"Feature","properties":{"country_en":"Canada","name":"Sedley","name_adm0":"Canada","name_adm1":"Saskatchewan","name_adm2":"Saskatchewan","name_en":"Sedley","iso":"CA"},"geometry":{"type":"Point","coordinates":[-104.00109,50.16677]}},{"type":"Feature","properties":{"country_en":"Canada","name":"Matheson Island","name_adm0":"Canada","name_adm1":"Manitoba","name_adm2":"Manitoba","name_en":"Matheson Island","iso":"CA"},"geometry":{"type":"Point","coordinates":[-96.92283999999998,51.74111]}},{"type":"Feature","properties":{"country_en":"Canada","name":"Gardenton","name_adm0":"Canada","name_adm1":"Manitoba","name_adm2":"Manitoba","name_en":"Gardenton","iso":"CA"},"geometry":{"type":"Point","coordinates":[-96.69562,49.08687]}},{"type":"Feature","properties":{"country_en":"Canada","name":"Birchy Bay","name_adm0":"Canada","name_adm1":"Newfoundland and Labrador","name_adm2":"Newfoundland and Labrador","name_en":"Birchy Bay","iso":"CA"},"geometry":{"type":"Point","coordinates":[-54.73143,49.34993]}},{"type":"Feature","properties":{"country_en":"Canada","name":"Enterprise","name_adm0":"Canada","name_adm1":"Northwest Territories","name_adm2":"Northwest Territories","name_en":"Enterprise","iso":"CA"},"geometry":{"type":"Point","coordinates":[-116.13604,60.550230000000006]}},{"type":"Feature","properties":{"country_en":"Canada","name":"Benton","name_adm0":"Canada","name_adm1":"Newfoundland and Labrador","name_adm2":"Newfoundland and Labrador","name_en":"Benton","iso":"CA"},"geometry":{"type":"Point","coordinates":[-54.41483,48.89991]}},{"type":"Feature","properties":{"country_en":"Canada","name":"Herschel","name_adm0":"Canada","name_adm1":"Yukon Territory","name_adm2":"Yukon Territory","name_en":"Herschel","iso":"CA"},"geometry":{"type":"Point","coordinates":[-138.90535,69.56635]}},{"type":"Feature","properties":{"country_en":"Canada","name":"Admiral's Beach","name_adm0":"Canada","name_adm1":"Newfoundland and Labrador","name_adm2":"Newfoundland and Labrador","name_en":"Admiral's Beach","iso":"CA"},"geometry":{"type":"Point","coordinates":[-53.64812,46.9999]}},{"type":"Feature","properties":{"country_en":"Canada","name":"Craigmyle","name_adm0":"Canada","name_adm1":"Alberta","name_adm2":"Alberta","name_en":"Craigmyle","iso":"CA"},"geometry":{"type":"Point","coordinates":[-112.25183,51.66683]}},{"type":"Feature","properties":{"country_en":"Canada","name":"Grandes-Piles","name_adm0":"Canada","name_adm1":"Québec","name_adm2":"Mékinac","name_en":"Grandes-Piles","iso":"CA"},"geometry":{"type":"Point","coordinates":[-72.73242,46.68336]}},{"type":"Feature","properties":{"country_en":"Canada","name":"Hazelton","name_adm0":"Canada","name_adm1":"British Columbia","name_adm2":"Kitimat-Stikine","name_en":"Hazelton","iso":"CA"},"geometry":{"type":"Point","coordinates":[-127.67024999999998,55.24973]}},{"type":"Feature","properties":{"country_en":"Canada","name":"Bayview Glen","name_adm0":"Canada","name_adm1":"Ontario","name_adm2":"York","name_en":"Bayview Glen","iso":"CA"},"geometry":{"type":"Point","coordinates":[-79.394631,43.8036]}},{"type":"Feature","properties":{"country_en":"Canada","name":"Ashcroft Indian Reserve 4","name_adm0":"Canada","name_adm1":"British Columbia","name_adm2":"Thompson-Nicola","name_en":"Ashcroft Indian Reserve 4","iso":"CA"},"geometry":{"type":"Point","coordinates":[-121.32940899999998,50.71733]}},{"type":"Feature","properties":{"country_en":"Canada","name":"Écluse Saint Lambert","name_adm0":"Canada","name_adm1":"Québec","name_adm2":"Longueuil","name_en":"Écluse Saint Lambert","iso":"CA"},"geometry":{"type":"Point","coordinates":[-73.52232,45.49797]}},{"type":"Feature","properties":{"country_en":"Canada","name":"Marché Atwater","name_adm0":"Canada","name_adm1":"Québec","name_adm2":"Montréal","name_en":"Marché Atwater","iso":"CA"},"geometry":{"type":"Point","coordinates":[-73.576067,45.480414999999994]}},{"type":"Feature","properties":{"country_en":"Canada","name":"Greenview","name_adm0":"Canada","name_adm1":"Alberta","name_adm2":"Alberta","name_en":"Greenview","iso":"CA"},"geometry":{"type":"Point","coordinates":[-114.052001,51.095686]}},{"type":"Feature","properties":{"country_en":"Canada","name":"Taradale","name_adm0":"Canada","name_adm1":"Alberta","name_adm2":"Alberta","name_en":"Taradale","iso":"CA"},"geometry":{"type":"Point","coordinates":[-113.93592499999998,51.120037]}},{"type":"Feature","properties":{"country_en":"Canada","name":"Lake Laberge 1","name_adm0":"Canada","name_adm1":"Yukon Territory","name_adm2":"Yukon Territory","name_en":"Lake Laberge 1","iso":"CA"},"geometry":{"type":"Point","coordinates":[-135.129915,61.016965000000006]}},{"type":"Feature","properties":{"country_en":"Canada","name":"Jeddore Oyster Ponds","name_adm0":"Canada","name_adm1":"Nova Scotia","name_adm2":"Halifax","name_en":"Jeddore Oyster Ponds","iso":"CA"},"geometry":{"type":"Point","coordinates":[-63.00541100000001,44.781484]}},{"type":"Feature","properties":{"country_en":"Canada","name":"Dundonald","name_adm0":"Canada","name_adm1":"Saskatchewan","name_adm2":"Saskatchewan","name_en":"Dundonald","iso":"CA"},"geometry":{"type":"Point","coordinates":[-106.7258095,52.1468305]}},{"type":"Feature","properties":{"country_en":"Canada","name":"Haultain","name_adm0":"Canada","name_adm1":"Saskatchewan","name_adm2":"Saskatchewan","name_en":"Haultain","iso":"CA"},"geometry":{"type":"Point","coordinates":[-106.649136,52.114477]}},{"type":"Feature","properties":{"country_en":"Canada","name":"Holliston","name_adm0":"Canada","name_adm1":"Saskatchewan","name_adm2":"Saskatchewan","name_en":"Holliston","iso":"CA"},"geometry":{"type":"Point","coordinates":[-106.632537,52.114722]}},{"type":"Feature","properties":{"country_en":"Canada","name":"Barrowtown","name_adm0":"Canada","name_adm1":"British Columbia","name_adm2":"Fraser Valley","name_en":"Barrowtown","iso":"CA"},"geometry":{"type":"Point","coordinates":[-122.07308899999998,49.117843]}},{"type":"Feature","properties":{"country_en":"Canada","name":"Dawsons Landing","name_adm0":"Canada","name_adm1":"British Columbia","name_adm2":"Central Coast","name_en":"Dawsons Landing","iso":"CA"},"geometry":{"type":"Point","coordinates":[-127.58653199999999,51.58295]}},{"type":"Feature","properties":{"country_en":"Canada","name":"Westgate","name_adm0":"Canada","name_adm1":"Alberta","name_adm2":"Alberta","name_en":"Westgate","iso":"CA"},"geometry":{"type":"Point","coordinates":[-114.161682,51.045392]}},{"type":"Feature","properties":{"country_en":"Canada","name":"Hunt Club","name_adm0":"Canada","name_adm1":"Ontario","name_adm2":"Ottawa","name_en":"Hunt Club","iso":"CA"},"geometry":{"type":"Point","coordinates":[-75.668506,45.347319]}},{"type":"Feature","properties":{"country_en":"Canada","name":"Carson Grove","name_adm0":"Canada","name_adm1":"Ontario","name_adm2":"Ottawa","name_en":"Carson Grove","iso":"CA"},"geometry":{"type":"Point","coordinates":[-75.606397,45.423094]}},{"type":"Feature","properties":{"country_en":"Canada","name":"Hawthorn Meadows","name_adm0":"Canada","name_adm1":"Ontario","name_adm2":"Ottawa","name_en":"Hawthorn Meadows","iso":"CA"},"geometry":{"type":"Point","coordinates":[-75.631942,45.379281]}},{"type":"Feature","properties":{"country_en":"Canada","name":"L'isle-verte","name_adm0":"Canada","name_adm1":"Québec","name_adm2":"Rivière-du-Loup","name_en":"L'isle-verte","iso":"CA"},"geometry":{"type":"Point","coordinates":[-69.34064,48.01347]}},{"type":"Feature","properties":{"country_en":"Canada","name":"Saint Vincent de Paul","name_adm0":"Canada","name_adm1":"Québec","name_adm2":"Longueuil","name_en":"Saint Vincent de Paul","iso":"CA"},"geometry":{"type":"Point","coordinates":[-73.64918,45.61678]}},{"type":"Feature","properties":{"country_en":"Canada","name":"Boston","name_adm0":"Canada","name_adm1":"Ontario","name_adm2":"Halton","name_en":"Boston","iso":"CA"},"geometry":{"type":"Point","coordinates":[-79.73791,43.87952]}},{"type":"Feature","properties":{"country_en":"Canada","name":"Candle Lake","name_adm0":"Canada","name_adm1":"Saskatchewan","name_adm2":"Saskatchewan","name_en":"Candle Lake","iso":"CA"},"geometry":{"type":"Point","coordinates":[-105.25094,53.7501]}},{"type":"Feature","properties":{"country_en":"Canada","name":"Maidstone","name_adm0":"Canada","name_adm1":"Saskatchewan","name_adm2":"Saskatchewan","name_en":"Maidstone","iso":"CA"},"geometry":{"type":"Point","coordinates":[-109.28477999999998,53.10016]}},{"type":"Feature","properties":{"country_en":"Canada","name":"Rosthern","name_adm0":"Canada","name_adm1":"Saskatchewan","name_adm2":"Saskatchewan","name_en":"Rosthern","iso":"CA"},"geometry":{"type":"Point","coordinates":[-106.33446,52.66679]}},{"type":"Feature","properties":{"country_en":"Canada","name":"St.-Albert","name_adm0":"Canada","name_adm1":"Québec","name_adm2":"Arthabaska","name_en":"St.-Albert","iso":"CA"},"geometry":{"type":"Point","coordinates":[-72.08239,46.00006]}},{"type":"Feature","properties":{"country_en":"Canada","name":"St.-Simon","name_adm0":"Canada","name_adm1":"Québec","name_adm2":"Les Maskoutains","name_en":"St.-Simon","iso":"CA"},"geometry":{"type":"Point","coordinates":[-72.86583,45.73337]}},{"type":"Feature","properties":{"country_en":"Canada","name":"Ste.-Florence","name_adm0":"Canada","name_adm1":"Québec","name_adm2":"La Matapédia","name_en":"Ste.-Florence","iso":"CA"},"geometry":{"type":"Point","coordinates":[-67.25246399999999,48.303977999999994]}},{"type":"Feature","properties":{"country_en":"Canada","name":"St.-Godefroi","name_adm0":"Canada","name_adm1":"Québec","name_adm2":"Bonaventure","name_en":"St.-Godefroi","iso":"CA"},"geometry":{"type":"Point","coordinates":[-65.11888499999999,48.075899]}},{"type":"Feature","properties":{"country_en":"Canada","name":"Yukon Crossing","name_adm0":"Canada","name_adm1":"Yukon Territory","name_adm2":"Yukon Territory","name_en":"Yukon Crossing","iso":"CA"},"geometry":{"type":"Point","coordinates":[-136.409478,62.3506885]}},{"type":"Feature","properties":{"country_en":"Canada","name":"Lower Laberge","name_adm0":"Canada","name_adm1":"Yukon Territory","name_adm2":"Yukon Territory","name_en":"Lower Laberge","iso":"CA"},"geometry":{"type":"Point","coordinates":[-135.21964,61.379908]}},{"type":"Feature","properties":{"country_en":"Canada","name":"Burk's Falls","name_adm0":"Canada","name_adm1":"Ontario","name_adm2":"Parry Sound","name_en":"Burk's Falls","iso":"CA"},"geometry":{"type":"Point","coordinates":[-79.39965,45.61679999999999]}},{"type":"Feature","properties":{"country_en":"Canada","name":"Woodstock 23","name_adm0":"Canada","name_adm1":"New Brunswick","name_adm2":"Carleton","name_en":"Woodstock 23","iso":"CA"},"geometry":{"type":"Point","coordinates":[-67.58377,46.157959999999996]}},{"type":"Feature","properties":{"country_en":"Canada","name":"Old Toronto","name_adm0":"Canada","name_adm1":"Ontario","name_adm2":"Toronto","name_en":"Old Toronto","iso":"CA"},"geometry":{"type":"Point","coordinates":[-79.38206,43.64999]}},{"type":"Feature","properties":{"country_en":"Canada","name":"Chase River","name_adm0":"Canada","name_adm1":"British Columbia","name_adm2":"Nanaimo","name_en":"Chase River","iso":"CA"},"geometry":{"type":"Point","coordinates":[-123.92238999999998,49.133037]}},{"type":"Feature","properties":{"country_en":"Canada","name":"Brougham","name_adm0":"Canada","name_adm1":"Ontario","name_adm2":"Durham","name_en":"Brougham","iso":"CA"},"geometry":{"type":"Point","coordinates":[-79.112334,43.91892699999999]}},{"type":"Feature","properties":{"country_en":"Canada","name":"Norman's Cove-long Cove","name_adm0":"Canada","name_adm1":"Newfoundland and Labrador","name_adm2":"Newfoundland and Labrador","name_en":"Norman's Cove-long Cove","iso":"CA"},"geometry":{"type":"Point","coordinates":[-53.67096,47.56674]}},{"type":"Feature","properties":{"country_en":"Canada","name":"Uplands","name_adm0":"Canada","name_adm1":"Ontario","name_adm2":"York","name_en":"Uplands","iso":"CA"},"geometry":{"type":"Point","coordinates":[-79.436667,43.81949999999999]}},{"type":"Feature","properties":{"country_en":"Canada","name":"Emerald","name_adm0":"Canada","name_adm1":"Nova Scotia","name_adm2":"Inverness","name_en":"Emerald","iso":"CA"},"geometry":{"type":"Point","coordinates":[-61.0318,46.31684]}},{"type":"Feature","properties":{"country_en":"Canada","name":"North Side Whycocomagh Bay","name_adm0":"Canada","name_adm1":"Nova Scotia","name_adm2":"Inverness","name_en":"North Side Whycocomagh Bay","iso":"CA"},"geometry":{"type":"Point","coordinates":[-61.04861999999999,45.94335]}},{"type":"Feature","properties":{"country_en":"Canada","name":"Burton","name_adm0":"Canada","name_adm1":"Ontario","name_adm2":"Durham","name_en":"Burton","iso":"CA"},"geometry":{"type":"Point","coordinates":[-78.72201999999999,44.11877]}},{"type":"Feature","properties":{"country_en":"Canada","name":"Derry West","name_adm0":"Canada","name_adm1":"Ontario","name_adm2":"Peel","name_en":"Derry West","iso":"CA"},"geometry":{"type":"Point","coordinates":[-79.70701,43.64583]}},{"type":"Feature","properties":{"country_en":"Canada","name":"River Canard","name_adm0":"Canada","name_adm1":"Ontario","name_adm2":"Essex","name_en":"River Canard","iso":"CA"},"geometry":{"type":"Point","coordinates":[-83.08315,42.18338]}},{"type":"Feature","properties":{"country_en":"Canada","name":"Sunset Corners","name_adm0":"Canada","name_adm1":"Ontario","name_adm2":"York","name_en":"Sunset Corners","iso":"CA"},"geometry":{"type":"Point","coordinates":[-79.64719,43.76724999999999]}},{"type":"Feature","properties":{"country_en":"Canada","name":"Khedive","name_adm0":"Canada","name_adm1":"Saskatchewan","name_adm2":"Saskatchewan","name_en":"Khedive","iso":"CA"},"geometry":{"type":"Point","coordinates":[-104.51779,49.61677]}},{"type":"Feature","properties":{"country_en":"Canada","name":"Leross","name_adm0":"Canada","name_adm1":"Saskatchewan","name_adm2":"Saskatchewan","name_en":"Leross","iso":"CA"},"geometry":{"type":"Point","coordinates":[-103.86777,51.28337]}},{"type":"Feature","properties":{"country_en":"Canada","name":"Spring Lake","name_adm0":"Canada","name_adm1":"Alberta","name_adm2":"Alberta","name_en":"Spring Lake","iso":"CA"},"geometry":{"type":"Point","coordinates":[-114.11876,53.51682999999999]}},{"type":"Feature","properties":{"country_en":"Canada","name":"Leslie Beach","name_adm0":"Canada","name_adm1":"Saskatchewan","name_adm2":"Saskatchewan","name_en":"Leslie Beach","iso":"CA"},"geometry":{"type":"Point","coordinates":[-103.55931,51.8111]}},{"type":"Feature","properties":{"country_en":"Canada","name":"Bondiss","name_adm0":"Canada","name_adm1":"Alberta","name_adm2":"Alberta","name_en":"Bondiss","iso":"CA"},"geometry":{"type":"Point","coordinates":[-112.702,54.60018999999999]}},{"type":"Feature","properties":{"country_en":"Canada","name":"Mewatha Beach","name_adm0":"Canada","name_adm1":"Alberta","name_adm2":"Alberta","name_en":"Mewatha Beach","iso":"CA"},"geometry":{"type":"Point","coordinates":[-112.7395,54.60849]}},{"type":"Feature","properties":{"country_en":"Canada","name":"Norris Beach","name_adm0":"Canada","name_adm1":"Alberta","name_adm2":"Alberta","name_en":"Norris Beach","iso":"CA"},"geometry":{"type":"Point","coordinates":[-114.01874,52.97512]}},{"type":"Feature","properties":{"country_en":"Canada","name":"Côte Saint Paul","name_adm0":"Canada","name_adm1":"Québec","name_adm2":"Montréal","name_en":"Côte Saint Paul","iso":"CA"},"geometry":{"type":"Point","coordinates":[-73.58826,45.461368]}},{"type":"Feature","properties":{"country_en":"Canada","name":"Blockhouse","name_adm0":"Canada","name_adm1":"Nova Scotia","name_adm2":"Lunenburg","name_en":"Blockhouse","iso":"CA"},"geometry":{"type":"Point","coordinates":[-64.421,44.448977]}},{"type":"Feature","properties":{"country_en":"Canada","name":"West Pennant","name_adm0":"Canada","name_adm1":"Nova Scotia","name_adm2":"Halifax","name_en":"West Pennant","iso":"CA"},"geometry":{"type":"Point","coordinates":[-63.655149,44.4685415]}},{"type":"Feature","properties":{"country_en":"Canada","name":"Port la Tour","name_adm0":"Canada","name_adm1":"Nova Scotia","name_adm2":"Shelburne","name_en":"Port la Tour","iso":"CA"},"geometry":{"type":"Point","coordinates":[-65.47388,43.496767]}},{"type":"Feature","properties":{"country_en":"Canada","name":"Ste. Anne du Ruisseau","name_adm0":"Canada","name_adm1":"Nova Scotia","name_adm2":"Yarmouth","name_en":"Ste. Anne du Ruisseau","iso":"CA"},"geometry":{"type":"Point","coordinates":[-65.92857399999998,43.833256]}},{"type":"Feature","properties":{"country_en":"Canada","name":"Atholville","name_adm0":"Canada","name_adm1":"New Brunswick","name_adm2":"Restigouche","name_en":"Atholville","iso":"CA"},"geometry":{"type":"Point","coordinates":[-66.73645,47.988543]}},{"type":"Feature","properties":{"country_en":"Canada","name":"Bethel","name_adm0":"Canada","name_adm1":"New Brunswick","name_adm2":"Charlotte","name_en":"Bethel","iso":"CA"},"geometry":{"type":"Point","coordinates":[-66.9241345,45.152596]}},{"type":"Feature","properties":{"country_en":"Canada","name":"Bloomfield","name_adm0":"Canada","name_adm1":"New Brunswick","name_adm2":"Kings","name_en":"Bloomfield","iso":"CA"},"geometry":{"type":"Point","coordinates":[-65.759675,45.581011999999994]}},{"type":"Feature","properties":{"country_en":"Canada","name":"Beiseker","name_adm0":"Canada","name_adm1":"Alberta","name_adm2":"Alberta","name_en":"Beiseker","iso":"CA"},"geometry":{"type":"Point","coordinates":[-113.53525,51.383419999999994]}},{"type":"Feature","properties":{"country_en":"Canada","name":"Red Lake","name_adm0":"Canada","name_adm1":"Ontario","name_adm2":"Kenora","name_en":"Red Lake","iso":"CA"},"geometry":{"type":"Point","coordinates":[-93.73373,51.066759999999995]}},{"type":"Feature","properties":{"country_en":"Canada","name":"Les Chenaux","name_adm0":"Canada","name_adm1":"Québec","name_adm2":"Vaudreuil-Soulanges","name_en":"Les Chenaux","iso":"CA"},"geometry":{"type":"Point","coordinates":[-74.010584,45.414958]}},{"type":"Feature","properties":{"country_en":"Canada","name":"Les Galeries Laval","name_adm0":"Canada","name_adm1":"Québec","name_adm2":"Laval","name_en":"Les Galeries Laval","iso":"CA"},"geometry":{"type":"Point","coordinates":[-73.72800299999999,45.562655]}},{"type":"Feature","properties":{"country_en":"Canada","name":"Kivimaa-Moonlight Bay","name_adm0":"Canada","name_adm1":"Saskatchewan","name_adm2":"Saskatchewan","name_en":"Kivimaa-Moonlight Bay","iso":"CA"},"geometry":{"type":"Point","coordinates":[-108.66809999999998,53.600179999999995]}},{"type":"Feature","properties":{"country_en":"Canada","name":"Parkland Beach","name_adm0":"Canada","name_adm1":"Alberta","name_adm2":"Alberta","name_en":"Parkland Beach","iso":"CA"},"geometry":{"type":"Point","coordinates":[-114.06871999999998,52.60011]}},{"type":"Feature","properties":{"country_en":"Canada","name":"Metinota","name_adm0":"Canada","name_adm1":"Saskatchewan","name_adm2":"Saskatchewan","name_en":"Metinota","iso":"CA"},"geometry":{"type":"Point","coordinates":[-108.40136,53.03345999999999]}},{"type":"Feature","properties":{"country_en":"Canada","name":"Whitefish","name_adm0":"Canada","name_adm1":"Ontario","name_adm2":"Greater Sudbury","name_en":"Whitefish","iso":"CA"},"geometry":{"type":"Point","coordinates":[-81.31646,46.38338]}},{"type":"Feature","properties":{"country_en":"Canada","name":"Lac-au-Saumon","name_adm0":"Canada","name_adm1":"Québec","name_adm2":"La Matapédia","name_en":"Lac-au-Saumon","iso":"CA"},"geometry":{"type":"Point","coordinates":[-67.34756,48.42099999999999]}},{"type":"Feature","properties":{"country_en":"Canada","name":"Avonlea","name_adm0":"Canada","name_adm1":"Saskatchewan","name_adm2":"Saskatchewan","name_en":"Avonlea","iso":"CA"},"geometry":{"type":"Point","coordinates":[-105.06781,50.01677]}},{"type":"Feature","properties":{"country_en":"Canada","name":"Greenspond","name_adm0":"Canada","name_adm1":"Newfoundland and Labrador","name_adm2":"Newfoundland and Labrador","name_en":"Greenspond","iso":"CA"},"geometry":{"type":"Point","coordinates":[-53.56476,49.06658]}},{"type":"Feature","properties":{"country_en":"Canada","name":"Inglis","name_adm0":"Canada","name_adm1":"Manitoba","name_adm2":"Manitoba","name_en":"Inglis","iso":"CA"},"geometry":{"type":"Point","coordinates":[-101.252,50.94469]}},{"type":"Feature","properties":{"country_en":"Canada","name":"Norquay","name_adm0":"Canada","name_adm1":"Saskatchewan","name_adm2":"Saskatchewan","name_en":"Norquay","iso":"CA"},"geometry":{"type":"Point","coordinates":[-102.08423,51.88328]}},{"type":"Feature","properties":{"country_en":"Canada","name":"Lac-aux-Sables","name_adm0":"Canada","name_adm1":"Québec","name_adm2":"Mékinac","name_en":"Lac-aux-Sables","iso":"CA"},"geometry":{"type":"Point","coordinates":[-72.3991,46.86676]}},{"type":"Feature","properties":{"country_en":"Canada","name":"Rivière-À-Pierre","name_adm0":"Canada","name_adm1":"Québec","name_adm2":"Portneuf","name_en":"Rivière-À-Pierre","iso":"CA"},"geometry":{"type":"Point","coordinates":[-72.18238,46.98336]}},{"type":"Feature","properties":{"country_en":"Canada","name":"Ocean Falls","name_adm0":"Canada","name_adm1":"British Columbia","name_adm2":"Central Coast","name_en":"Ocean Falls","iso":"CA"},"geometry":{"type":"Point","coordinates":[-127.70329999999998,52.34965]}},{"type":"Feature","properties":{"country_en":"Canada","name":"Crescent Bay","name_adm0":"Canada","name_adm1":"British Columbia","name_adm2":"Central Kootenay","name_en":"Crescent Bay","iso":"CA"},"geometry":{"type":"Point","coordinates":[-117.55223999999998,49.44984]}},{"type":"Feature","properties":{"country_en":"Canada","name":"Elko","name_adm0":"Canada","name_adm1":"British Columbia","name_adm2":"East Kootenay","name_en":"Elko","iso":"CA"},"geometry":{"type":"Point","coordinates":[-115.11871999999998,49.29994]}},{"type":"Feature","properties":{"country_en":"Canada","name":"Rapid City","name_adm0":"Canada","name_adm1":"Manitoba","name_adm2":"Manitoba","name_en":"Rapid City","iso":"CA"},"geometry":{"type":"Point","coordinates":[-100.03667,50.120819999999995]}},{"type":"Feature","properties":{"country_en":"Canada","name":"Baie-du-Febvre","name_adm0":"Canada","name_adm1":"Québec","name_adm2":"Nicolet-Yamaska","name_en":"Baie-du-Febvre","iso":"CA"},"geometry":{"type":"Point","coordinates":[-72.71583,46.13336]}},{"type":"Feature","properties":{"country_en":"Canada","name":"South West Margaree","name_adm0":"Canada","name_adm1":"Nova Scotia","name_adm2":"Inverness","name_en":"South West Margaree","iso":"CA"},"geometry":{"type":"Point","coordinates":[-61.005019999999995,46.32773]}},{"type":"Feature","properties":{"country_en":"Canada","name":"Valley","name_adm0":"Canada","name_adm1":"Nova Scotia","name_adm2":"Colchester","name_en":"Valley","iso":"CA"},"geometry":{"type":"Point","coordinates":[-62.78197,46.06680999999999]}},{"type":"Feature","properties":{"country_en":"Canada","name":"Cayamant","name_adm0":"Canada","name_adm1":"Québec","name_adm2":"La Vallée-del-la-Gatineau","name_en":"Cayamant","iso":"CA"},"geometry":{"type":"Point","coordinates":[-76.24937,46.13341]}},{"type":"Feature","properties":{"country_en":"Canada","name":"Chartierville","name_adm0":"Canada","name_adm1":"Québec","name_adm2":"Le Haut-St-François","name_en":"Chartierville","iso":"CA"},"geometry":{"type":"Point","coordinates":[-71.19903999999998,45.30009]}},{"type":"Feature","properties":{"country_en":"Canada","name":"Escuminac","name_adm0":"Canada","name_adm1":"Québec","name_adm2":"Avignon","name_en":"Escuminac","iso":"CA"},"geometry":{"type":"Point","coordinates":[-66.49475,48.122099999999996]}},{"type":"Feature","properties":{"country_en":"Canada","name":"Pabos","name_adm0":"Canada","name_adm1":"Québec","name_adm2":"Le Rocher-Percé","name_en":"Pabos","iso":"CA"},"geometry":{"type":"Point","coordinates":[-64.60716,48.36127]}},{"type":"Feature","properties":{"country_en":"Canada","name":"Preissac","name_adm0":"Canada","name_adm1":"Québec","name_adm2":"Abitibi","name_en":"Preissac","iso":"CA"},"geometry":{"type":"Point","coordinates":[-78.36626,48.40018]}},{"type":"Feature","properties":{"country_en":"Canada","name":"St.-Antoine-sur-Richelieu","name_adm0":"Canada","name_adm1":"Québec","name_adm2":"La Vallée-du-Richelieu","name_en":"St.-Antoine-sur-Richelieu","iso":"CA"},"geometry":{"type":"Point","coordinates":[-73.18245,45.783379999999994]}},{"type":"Feature","properties":{"country_en":"Canada","name":"St.-Armand","name_adm0":"Canada","name_adm1":"Québec","name_adm2":"Brome-Missisquoi","name_en":"St.-Armand","iso":"CA"},"geometry":{"type":"Point","coordinates":[-73.04915,45.03338]}},{"type":"Feature","properties":{"country_en":"Canada","name":"Stukely-Sud","name_adm0":"Canada","name_adm1":"Québec","name_adm2":"Memphrémagog","name_en":"Stukely-Sud","iso":"CA"},"geometry":{"type":"Point","coordinates":[-72.41581,45.316779999999994]}},{"type":"Feature","properties":{"country_en":"Canada","name":"St.-Joseph-de-la-Rive","name_adm0":"Canada","name_adm1":"Québec","name_adm2":"Charlevoix","name_en":"St.-Joseph-de-la-Rive","iso":"CA"},"geometry":{"type":"Point","coordinates":[-70.36782,47.45665]}},{"type":"Feature","properties":{"country_en":"Canada","name":"Harrington","name_adm0":"Canada","name_adm1":"Québec","name_adm2":"Argenteuil","name_en":"Harrington","iso":"CA"},"geometry":{"type":"Point","coordinates":[-74.66595,45.83339]}},{"type":"Feature","properties":{"country_en":"Canada","name":"St.-Camille","name_adm0":"Canada","name_adm1":"Québec","name_adm2":"Asbestos","name_en":"St.-Camille","iso":"CA"},"geometry":{"type":"Point","coordinates":[-71.69908,45.68338]}},{"type":"Feature","properties":{"country_en":"Canada","name":"St.-Lucien","name_adm0":"Canada","name_adm1":"Québec","name_adm2":"Drummond","name_en":"St.-Lucien","iso":"CA"},"geometry":{"type":"Point","coordinates":[-72.2658,45.86677]}},{"type":"Feature","properties":{"country_en":"Canada","name":"Stratford","name_adm0":"Canada","name_adm1":"Québec","name_adm2":"Le Granit","name_en":"Stratford","iso":"CA"},"geometry":{"type":"Point","coordinates":[-71.28238,45.78337]}},{"type":"Feature","properties":{"country_en":"Canada","name":"St.-Esprit","name_adm0":"Canada","name_adm1":"Québec","name_adm2":"Montcalm","name_en":"St.-Esprit","iso":"CA"},"geometry":{"type":"Point","coordinates":[-73.66587,45.90007]}},{"type":"Feature","properties":{"country_en":"Canada","name":"St.-Edmond-de-Grantham","name_adm0":"Canada","name_adm1":"Québec","name_adm2":"Drummond","name_en":"St.-Edmond-de-Grantham","iso":"CA"},"geometry":{"type":"Point","coordinates":[-72.66583,45.88336999999999]}},{"type":"Feature","properties":{"country_en":"Canada","name":"St.-Julien","name_adm0":"Canada","name_adm1":"Québec","name_adm2":"l'Amiante","name_en":"St.-Julien","iso":"CA"},"geometry":{"type":"Point","coordinates":[-71.53238,46.00007]}},{"type":"Feature","properties":{"country_en":"Canada","name":"Rockton","name_adm0":"Canada","name_adm1":"Ontario","name_adm2":"Hamilton","name_en":"Rockton","iso":"CA"},"geometry":{"type":"Point","coordinates":[-79.86185,43.9183]}},{"type":"Feature","properties":{"country_en":"Canada","name":"Stoney Point","name_adm0":"Canada","name_adm1":"Ontario","name_adm2":"Essex","name_en":"Stoney Point","iso":"CA"},"geometry":{"type":"Point","coordinates":[-83.26493,41.94143]}},{"type":"Feature","properties":{"country_en":"Canada","name":"Belcarra","name_adm0":"Canada","name_adm1":"British Columbia","name_adm2":"Greater Vancouver","name_en":"Belcarra","iso":"CA"},"geometry":{"type":"Point","coordinates":[-122.93043,49.31777]}},{"type":"Feature","properties":{"country_en":"Canada","name":"Clarenceville","name_adm0":"Canada","name_adm1":"Québec","name_adm2":"Le Haut-Richelieu","name_en":"Clarenceville","iso":"CA"},"geometry":{"type":"Point","coordinates":[-72.34911,45.41678]}},{"type":"Feature","properties":{"country_en":"Canada","name":"Waugh","name_adm0":"Canada","name_adm1":"Manitoba","name_adm2":"Manitoba","name_en":"Waugh","iso":"CA"},"geometry":{"type":"Point","coordinates":[-95.19719,49.6253]}},{"type":"Feature","properties":{"country_en":"Canada","name":"Carmel","name_adm0":"Canada","name_adm1":"Québec","name_adm2":"Trois-Rivières","name_en":"Carmel","iso":"CA"},"geometry":{"type":"Point","coordinates":[-72.3769,45.97226]}},{"type":"Feature","properties":{"country_en":"Canada","name":"Davenport","name_adm0":"Canada","name_adm1":"Ontario","name_adm2":"Toronto","name_en":"Davenport","iso":"CA"},"geometry":{"type":"Point","coordinates":[-79.43776,43.67106999999999]}},{"type":"Feature","properties":{"country_en":"Canada","name":"Richelieu","name_adm0":"Canada","name_adm1":"Québec","name_adm2":"Rouville","name_en":"Richelieu","iso":"CA"},"geometry":{"type":"Point","coordinates":[-73.24601999999999,45.44336]}},{"type":"Feature","properties":{"country_en":"Canada","name":"Weymouth","name_adm0":"Canada","name_adm1":"Nova Scotia","name_adm2":"Digby","name_en":"Weymouth","iso":"CA"},"geometry":{"type":"Point","coordinates":[-65.99886,44.41684999999999]}},{"type":"Feature","properties":{"country_en":"Canada","name":"Grand Forks","name_adm0":"Canada","name_adm1":"British Columbia","name_adm2":"Kootenay Boundary","name_en":"Grand Forks","iso":"CA"},"geometry":{"type":"Point","coordinates":[-118.4356,49.03309]}},{"type":"Feature","properties":{"country_en":"Canada","name":"Osoyoos","name_adm0":"Canada","name_adm1":"British Columbia","name_adm2":"Okanagan-Similkameen","name_en":"Osoyoos","iso":"CA"},"geometry":{"type":"Point","coordinates":[-119.45237,49.03306]}},{"type":"Feature","properties":{"country_en":"Canada","name":"Berthierville","name_adm0":"Canada","name_adm1":"Québec","name_adm2":"d'Autray","name_en":"Berthierville","iso":"CA"},"geometry":{"type":"Point","coordinates":[-73.18245,46.08335999999999]}},{"type":"Feature","properties":{"country_en":"Canada","name":"Amherst","name_adm0":"Canada","name_adm1":"Nova Scotia","name_adm2":"Cumberland","name_en":"Amherst","iso":"CA"},"geometry":{"type":"Point","coordinates":[-64.19874,45.83345]}},{"type":"Feature","properties":{"country_en":"Canada","name":"Huntingdon","name_adm0":"Canada","name_adm1":"Québec","name_adm2":"Le Haut-St-Laurent","name_en":"Huntingdon","iso":"CA"},"geometry":{"type":"Point","coordinates":[-74.16593,45.083389999999994]}},{"type":"Feature","properties":{"country_en":"Canada","name":"Sackville","name_adm0":"Canada","name_adm1":"New Brunswick","name_adm2":"Westmorland","name_en":"Sackville","iso":"CA"},"geometry":{"type":"Point","coordinates":[-64.38455,45.91875]}},{"type":"Feature","properties":{"country_en":"Canada","name":"Lake Cowichan","name_adm0":"Canada","name_adm1":"British Columbia","name_adm2":"Cowichan Valley","name_en":"Lake Cowichan","iso":"CA"},"geometry":{"type":"Point","coordinates":[-124.05461,48.824949999999994]}},{"type":"Feature","properties":{"country_en":"Canada","name":"Cabri","name_adm0":"Canada","name_adm1":"Saskatchewan","name_adm2":"Saskatchewan","name_en":"Cabri","iso":"CA"},"geometry":{"type":"Point","coordinates":[-108.4681,50.61679]}},{"type":"Feature","properties":{"country_en":"Canada","name":"Burstall","name_adm0":"Canada","name_adm1":"Saskatchewan","name_adm2":"Saskatchewan","name_en":"Burstall","iso":"CA"},"geometry":{"type":"Point","coordinates":[-109.90159,50.65012]}},{"type":"Feature","properties":{"country_en":"Canada","name":"Morden","name_adm0":"Canada","name_adm1":"Manitoba","name_adm2":"Manitoba","name_en":"Morden","iso":"CA"},"geometry":{"type":"Point","coordinates":[-98.10136,49.1919]}},{"type":"Feature","properties":{"country_en":"Canada","name":"Kenora","name_adm0":"Canada","name_adm1":"Ontario","name_adm2":"Kenora","name_en":"Kenora","iso":"CA"},"geometry":{"type":"Point","coordinates":[-94.43373,49.81671]}},{"type":"Feature","properties":{"country_en":"Canada","name":"Claresholm","name_adm0":"Canada","name_adm1":"Alberta","name_adm2":"Alberta","name_en":"Claresholm","iso":"CA"},"geometry":{"type":"Point","coordinates":[-113.58524,50.03332]}},{"type":"Feature","properties":{"country_en":"Canada","name":"Bow Island","name_adm0":"Canada","name_adm1":"Alberta","name_adm2":"Alberta","name_en":"Bow Island","iso":"CA"},"geometry":{"type":"Point","coordinates":[-111.36843,49.86676]}},{"type":"Feature","properties":{"country_en":"Canada","name":"Mackenzie","name_adm0":"Canada","name_adm1":"British Columbia","name_adm2":"Fraser-Fort George","name_en":"Mackenzie","iso":"CA"},"geometry":{"type":"Point","coordinates":[-123.09374,55.33637]}},{"type":"Feature","properties":{"country_en":"Canada","name":"Ucluelet","name_adm0":"Canada","name_adm1":"British Columbia","name_adm2":"Alberni-Clayoquot","name_en":"Ucluelet","iso":"CA"},"geometry":{"type":"Point","coordinates":[-125.55282999999999,48.93291]}},{"type":"Feature","properties":{"country_en":"Canada","name":"Searsville","name_adm0":"Canada","name_adm1":"New Brunswick","name_adm2":"Kings","name_en":"Searsville","iso":"CA"},"geometry":{"type":"Point","coordinates":[-66.58218,45.98340999999999]}},{"type":"Feature","properties":{"country_en":"Canada","name":"Lac-La Motte","name_adm0":"Canada","name_adm1":"Québec","name_adm2":"Abitibi","name_en":"Lac-La Motte","iso":"CA"},"geometry":{"type":"Point","coordinates":[-78.11624,48.333479999999994]}},{"type":"Feature","properties":{"country_en":"Canada","name":"St.-David","name_adm0":"Canada","name_adm1":"Québec","name_adm2":"Le Bas-Richelieu","name_en":"St.-David","iso":"CA"},"geometry":{"type":"Point","coordinates":[-72.84913,45.95006]}},{"type":"Feature","properties":{"country_en":"Canada","name":"Change Islands","name_adm0":"Canada","name_adm1":"Newfoundland and Labrador","name_adm2":"Newfoundland and Labrador","name_en":"Change Islands","iso":"CA"},"geometry":{"type":"Point","coordinates":[-54.41483,49.66662]}},{"type":"Feature","properties":{"country_en":"Canada","name":"Glenwood","name_adm0":"Canada","name_adm1":"Newfoundland and Labrador","name_adm2":"Newfoundland and Labrador","name_en":"Glenwood","iso":"CA"},"geometry":{"type":"Point","coordinates":[-54.88146,48.98322]}},{"type":"Feature","properties":{"country_en":"Canada","name":"Salem","name_adm0":"Canada","name_adm1":"Ontario","name_adm2":"Wellington","name_en":"Salem","iso":"CA"},"geometry":{"type":"Point","coordinates":[-80.03935,43.95995]}},{"type":"Feature","properties":{"country_en":"Canada","name":"Loon Lake","name_adm0":"Canada","name_adm1":"British Columbia","name_adm2":"Thompson-Nicola","name_en":"Loon Lake","iso":"CA"},"geometry":{"type":"Point","coordinates":[-120.80252999999999,50.49976]}},{"type":"Feature","properties":{"country_en":"Canada","name":"Swartz Bay","name_adm0":"Canada","name_adm1":"British Columbia","name_adm2":"Capital","name_en":"Swartz Bay","iso":"CA"},"geometry":{"type":"Point","coordinates":[-123.41933,48.68294]}},{"type":"Feature","properties":{"country_en":"Canada","name":"Punnichy","name_adm0":"Canada","name_adm1":"Saskatchewan","name_adm2":"Saskatchewan","name_en":"Punnichy","iso":"CA"},"geometry":{"type":"Point","coordinates":[-104.30109,51.38337]}},{"type":"Feature","properties":{"country_en":"Canada","name":"St.-Germain","name_adm0":"Canada","name_adm1":"Québec","name_adm2":"Kamouraska","name_en":"St.-Germain","iso":"CA"},"geometry":{"type":"Point","coordinates":[-69.793739,47.5897425]}},{"type":"Feature","properties":{"country_en":"Canada","name":"Duntroon","name_adm0":"Canada","name_adm1":"Ontario","name_adm2":"Simcoe","name_en":"Duntroon","iso":"CA"},"geometry":{"type":"Point","coordinates":[-80.233411,44.38252]}},{"type":"Feature","properties":{"country_en":"Canada","name":"South Walkerville","name_adm0":"Canada","name_adm1":"Ontario","name_adm2":"Essex","name_en":"South Walkerville","iso":"CA"},"geometry":{"type":"Point","coordinates":[-83.005614,42.299061]}},{"type":"Feature","properties":{"country_en":"Canada","name":"Ringwood","name_adm0":"Canada","name_adm1":"Ontario","name_adm2":"York","name_en":"Ringwood","iso":"CA"},"geometry":{"type":"Point","coordinates":[-79.2759,43.96228]}},{"type":"Feature","properties":{"country_en":"Canada","name":"Glasgow","name_adm0":"Canada","name_adm1":"Ontario","name_adm2":"Durham","name_en":"Glasgow","iso":"CA"},"geometry":{"type":"Point","coordinates":[-79.181857,43.942569]}},{"type":"Feature","properties":{"country_en":"Canada","name":"Harwood","name_adm0":"Canada","name_adm1":"Ontario","name_adm2":"Durham","name_en":"Harwood","iso":"CA"},"geometry":{"type":"Point","coordinates":[-79.020795,43.837266]}},{"type":"Feature","properties":{"country_en":"Canada","name":"Woodlands","name_adm0":"Canada","name_adm1":"Ontario","name_adm2":"Durham","name_en":"Woodlands","iso":"CA"},"geometry":{"type":"Point","coordinates":[-79.11858349999999,43.81873649999999]}},{"type":"Feature","properties":{"country_en":"Canada","name":"Madawaska","name_adm0":"Canada","name_adm1":"New Brunswick","name_adm2":"Madawaska","name_en":"Madawaska","iso":"CA"},"geometry":{"type":"Point","coordinates":[-68.32881999999998,47.35612]}},{"type":"Feature","properties":{"country_en":"Canada","name":"Caledon Village","name_adm0":"Canada","name_adm1":"Ontario","name_adm2":"Peel","name_en":"Caledon Village","iso":"CA"},"geometry":{"type":"Point","coordinates":[-79.99605,43.86015]}},{"type":"Feature","properties":{"country_en":"Canada","name":"Léry Ville","name_adm0":"Canada","name_adm1":"Québec","name_adm2":"Roussillon","name_en":"Léry Ville","iso":"CA"},"geometry":{"type":"Point","coordinates":[-73.18245,45.13338]}},{"type":"Feature","properties":{"country_en":"Canada","name":"Sutton West","name_adm0":"Canada","name_adm1":"Ontario","name_adm2":"York","name_en":"Sutton West","iso":"CA"},"geometry":{"type":"Point","coordinates":[-79.36631,44.30011]}},{"type":"Feature","properties":{"country_en":"Canada","name":"Varennes","name_adm0":"Canada","name_adm1":"Québec","name_adm2":"Lajemmerais","name_en":"Varennes","iso":"CA"},"geometry":{"type":"Point","coordinates":[-73.43246,45.68338]}},{"type":"Feature","properties":{"country_en":"Canada","name":"Chatham","name_adm0":"Canada","name_adm1":"Ontario","name_adm2":"Chatham-Kent","name_en":"Chatham","iso":"CA"},"geometry":{"type":"Point","coordinates":[-82.18494,42.41224]}},{"type":"Feature","properties":{"country_en":"Canada","name":"Pike River","name_adm0":"Canada","name_adm1":"Québec","name_adm2":"Brome-Missisquoi","name_en":"Pike River","iso":"CA"},"geometry":{"type":"Point","coordinates":[-73.067665,45.1223765]}},{"type":"Feature","properties":{"country_en":"Canada","name":"Glenn Falls","name_adm0":"Canada","name_adm1":"New Brunswick","name_adm2":"Saint John","name_en":"Glenn Falls","iso":"CA"},"geometry":{"type":"Point","coordinates":[-66.015,45.31903199999999]}},{"type":"Feature","properties":{"country_en":"Canada","name":"Ilderton","name_adm0":"Canada","name_adm1":"Ontario","name_adm2":"Middlesex","name_en":"Ilderton","iso":"CA"},"geometry":{"type":"Point","coordinates":[-81.388478,43.079107]}},{"type":"Feature","properties":{"country_en":"Canada","name":"Kiamika","name_adm0":"Canada","name_adm1":"Québec","name_adm2":"Antoine-Labelle","name_en":"Kiamika","iso":"CA"},"geometry":{"type":"Point","coordinates":[-75.3771,46.41871]}},{"type":"Feature","properties":{"country_en":"Canada","name":"St. Louis","name_adm0":"Canada","name_adm1":"Saskatchewan","name_adm2":"Saskatchewan","name_en":"St. Louis","iso":"CA"},"geometry":{"type":"Point","coordinates":[-105.81777,52.91678]}},{"type":"Feature","properties":{"country_en":"Canada","name":"Launay","name_adm0":"Canada","name_adm1":"Québec","name_adm2":"Abitibi","name_en":"Launay","iso":"CA"},"geometry":{"type":"Point","coordinates":[-78.53287,48.65018]}},{"type":"Feature","properties":{"country_en":"Canada","name":"Hartney","name_adm0":"Canada","name_adm1":"Manitoba","name_adm2":"Manitoba","name_en":"Hartney","iso":"CA"},"geometry":{"type":"Point","coordinates":[-100.5234,49.4808]}},{"type":"Feature","properties":{"country_en":"Canada","name":"Joussard","name_adm0":"Canada","name_adm1":"Alberta","name_adm2":"Alberta","name_en":"Joussard","iso":"CA"},"geometry":{"type":"Point","coordinates":[-115.93572999999999,55.366809999999994]}},{"type":"Feature","properties":{"country_en":"Canada","name":"Centre Ville","name_adm0":"Canada","name_adm1":"Québec","name_adm2":"Montréal","name_en":"Centre Ville","iso":"CA"},"geometry":{"type":"Point","coordinates":[-73.85402799999999,45.495276999999994]}},{"type":"Feature","properties":{"country_en":"Canada","name":"Grassland","name_adm0":"Canada","name_adm1":"Alberta","name_adm2":"Alberta","name_en":"Grassland","iso":"CA"},"geometry":{"type":"Point","coordinates":[-112.68528999999998,54.81689]}},{"type":"Feature","properties":{"country_en":"Canada","name":"Village East","name_adm0":"Canada","name_adm1":"Ontario","name_adm2":"Durham","name_en":"Village East","iso":"CA"},"geometry":{"type":"Point","coordinates":[-79.069375,43.852664]}},{"type":"Feature","properties":{"country_en":"Canada","name":"Omerville","name_adm0":"Canada","name_adm1":"Québec","name_adm2":"Memphrémagog","name_en":"Omerville","iso":"CA"},"geometry":{"type":"Point","coordinates":[-72.1102,45.29453]}},{"type":"Feature","properties":{"country_en":"Canada","name":"Pacquet","name_adm0":"Canada","name_adm1":"Newfoundland and Labrador","name_adm2":"Newfoundland and Labrador","name_en":"Pacquet","iso":"CA"},"geometry":{"type":"Point","coordinates":[-55.88145999999999,49.98326]}},{"type":"Feature","properties":{"country_en":"Canada","name":"Lake Alma","name_adm0":"Canada","name_adm1":"Saskatchewan","name_adm2":"Saskatchewan","name_en":"Lake Alma","iso":"CA"},"geometry":{"type":"Point","coordinates":[-104.20102,49.15006]}},{"type":"Feature","properties":{"country_en":"Canada","name":"Upper Tantallon","name_adm0":"Canada","name_adm1":"Nova Scotia","name_adm2":"Halifax","name_en":"Upper Tantallon","iso":"CA"},"geometry":{"type":"Point","coordinates":[-63.879524499999995,44.6993765]}},{"type":"Feature","properties":{"country_en":"Canada","name":"West Dover","name_adm0":"Canada","name_adm1":"Nova Scotia","name_adm2":"Halifax","name_en":"West Dover","iso":"CA"},"geometry":{"type":"Point","coordinates":[-63.877182499999996,44.495556]}},{"type":"Feature","properties":{"country_en":"Canada","name":"Erinsville","name_adm0":"Canada","name_adm1":"Ontario","name_adm2":"Lennox and Addington","name_en":"Erinsville","iso":"CA"},"geometry":{"type":"Point","coordinates":[-77.036046,44.498219]}},{"type":"Feature","properties":{"country_en":"Canada","name":"Rocky View No 44","name_adm0":"Canada","name_adm1":"Alberta","name_adm2":"Alberta","name_en":"Rocky View No 44","iso":"CA"},"geometry":{"type":"Point","coordinates":[-114.316778,51.1024505]}},{"type":"Feature","properties":{"country_en":"Canada","name":"Tsuu T'ina Indian Reserve 145","name_adm0":"Canada","name_adm1":"Alberta","name_adm2":"Alberta","name_en":"Tsuu T'ina Indian Reserve 145","iso":"CA"},"geometry":{"type":"Point","coordinates":[-114.13110399999998,50.951026]}},{"type":"Feature","properties":{"country_en":"Canada","name":"Elgin","name_adm0":"Canada","name_adm1":"Ontario","name_adm2":"Elgin","name_en":"Elgin","iso":"CA"},"geometry":{"type":"Point","coordinates":[-80.723891,42.62266999999999]}},{"type":"Feature","properties":{"country_en":"Canada","name":"Chameran","name_adm0":"Canada","name_adm1":"Québec","name_adm2":"Montréal","name_en":"Chameran","iso":"CA"},"geometry":{"type":"Point","coordinates":[-73.669792,45.533033]}},{"type":"Feature","properties":{"country_en":"Canada","name":"Iron Mountain","name_adm0":"Canada","name_adm1":"British Columbia","name_adm2":"Greater Vancouver","name_en":"Iron Mountain","iso":"CA"},"geometry":{"type":"Point","coordinates":[-122.451219,49.209288]}},{"type":"Feature","properties":{"country_en":"Canada","name":"Cornell","name_adm0":"Canada","name_adm1":"Ontario","name_adm2":"York","name_en":"Cornell","iso":"CA"},"geometry":{"type":"Point","coordinates":[-79.232411,43.892782]}},{"type":"Feature","properties":{"country_en":"Canada","name":"Potter's Bend","name_adm0":"Canada","name_adm1":"Ontario","name_adm2":"York","name_en":"Potter's Bend","iso":"CA"},"geometry":{"type":"Point","coordinates":[-79.261379,43.893918]}},{"type":"Feature","properties":{"country_en":"Canada","name":"Pleasantside","name_adm0":"Canada","name_adm1":"British Columbia","name_adm2":"Greater Vancouver","name_en":"Pleasantside","iso":"CA"},"geometry":{"type":"Point","coordinates":[-122.845834,49.290555]}},{"type":"Feature","properties":{"country_en":"Canada","name":"Parkcrest","name_adm0":"Canada","name_adm1":"British Columbia","name_adm2":"Greater Vancouver","name_en":"Parkcrest","iso":"CA"},"geometry":{"type":"Point","coordinates":[-122.97732999999998,49.265779]}},{"type":"Feature","properties":{"country_en":"Canada","name":"Aurora Grove","name_adm0":"Canada","name_adm1":"Ontario","name_adm2":"York","name_en":"Aurora Grove","iso":"CA"},"geometry":{"type":"Point","coordinates":[-79.452622,43.997166]}},{"type":"Feature","properties":{"country_en":"Canada","name":"Rosedale North","name_adm0":"Canada","name_adm1":"Ontario","name_adm2":"York","name_en":"Rosedale North","iso":"CA"},"geometry":{"type":"Point","coordinates":[-79.448586,43.813023]}},{"type":"Feature","properties":{"country_en":"Canada","name":"Greensborough","name_adm0":"Canada","name_adm1":"Ontario","name_adm2":"York","name_en":"Greensborough","iso":"CA"},"geometry":{"type":"Point","coordinates":[-79.259338,43.902671]}},{"type":"Feature","properties":{"country_en":"Canada","name":"Beaverbrook","name_adm0":"Canada","name_adm1":"British Columbia","name_adm2":"Greater Vancouver","name_en":"Beaverbrook","iso":"CA"},"geometry":{"type":"Point","coordinates":[-122.905026,49.25871599999999]}},{"type":"Feature","properties":{"country_en":"Canada","name":"Bay de Verde","name_adm0":"Canada","name_adm1":"Newfoundland and Labrador","name_adm2":"Newfoundland and Labrador","name_en":"Bay de Verde","iso":"CA"},"geometry":{"type":"Point","coordinates":[-52.89805,48.08319]}},{"type":"Feature","properties":{"country_en":"Canada","name":"The Plateau","name_adm0":"Canada","name_adm1":"Québec","name_adm2":"Montréal","name_en":"The Plateau","iso":"CA"},"geometry":{"type":"Point","coordinates":[-73.573053,45.52192399999999]}},{"type":"Feature","properties":{"country_en":"Canada","name":"Quartier Latin","name_adm0":"Canada","name_adm1":"Québec","name_adm2":"Montréal","name_en":"Quartier Latin","iso":"CA"},"geometry":{"type":"Point","coordinates":[-73.566277,45.514309]}},{"type":"Feature","properties":{"country_en":"Canada","name":"Place Royale","name_adm0":"Canada","name_adm1":"Québec","name_adm2":"Québec","name_en":"Place Royale","iso":"CA"},"geometry":{"type":"Point","coordinates":[-71.20412749999998,46.813953]}},{"type":"Feature","properties":{"country_en":"Canada","name":"Quartier Petit Champlain","name_adm0":"Canada","name_adm1":"Québec","name_adm2":"Québec","name_en":"Quartier Petit Champlain","iso":"CA"},"geometry":{"type":"Point","coordinates":[-71.2041855,46.811273]}},{"type":"Feature","properties":{"country_en":"Canada","name":"Commercial","name_adm0":"Canada","name_adm1":"British Columbia","name_adm2":"Greater Vancouver","name_en":"Commercial","iso":"CA"},"geometry":{"type":"Point","coordinates":[-123.073334,49.269221]}},{"type":"Feature","properties":{"country_en":"Canada","name":"La Haute-Yamaska","name_adm0":"Canada","name_adm1":"Québec","name_adm2":"La Haute-Yamaska","name_en":"La Haute-Yamaska","iso":"CA"},"geometry":{"type":"Point","coordinates":[-72.607054,45.379402]}},{"type":"Feature","properties":{"country_en":"Canada","name":"Hants","name_adm0":"Canada","name_adm1":"Nova Scotia","name_adm2":"Hants","name_en":"Hants","iso":"CA"},"geometry":{"type":"Point","coordinates":[-63.93266,45.124152]}},{"type":"Feature","properties":{"country_en":"Canada","name":"Guysborough","name_adm0":"Canada","name_adm1":"Nova Scotia","name_adm2":"Guysborough","name_en":"Guysborough","iso":"CA"},"geometry":{"type":"Point","coordinates":[-62.600097,45.05412]}},{"type":"Feature","properties":{"country_en":"Canada","name":"Arthabaska","name_adm0":"Canada","name_adm1":"Québec","name_adm2":"Arthabaska","name_en":"Arthabaska","iso":"CA"},"geometry":{"type":"Point","coordinates":[-71.924614,46.0296375]}},{"type":"Feature","properties":{"country_en":"Canada","name":"Maskinongé","name_adm0":"Canada","name_adm1":"Québec","name_adm2":"Maskinongé","name_en":"Maskinongé","iso":"CA"},"geometry":{"type":"Point","coordinates":[-73.185895,46.528788]}},{"type":"Feature","properties":{"country_en":"Canada","name":"Inukjuak","name_adm0":"Canada","name_adm1":"Québec","name_adm2":"Kativik","name_en":"Inukjuak","iso":"CA"},"geometry":{"type":"Point","coordinates":[-78.10139,58.45468000000001]}},{"type":"Feature","properties":{"country_en":"Canada","name":"Garneau","name_adm0":"Canada","name_adm1":"Alberta","name_adm2":"Alberta","name_en":"Garneau","iso":"CA"},"geometry":{"type":"Point","coordinates":[-113.520665,53.523446]}},{"type":"Feature","properties":{"country_en":"Canada","name":"Strathcona","name_adm0":"Canada","name_adm1":"Alberta","name_adm2":"Alberta","name_en":"Strathcona","iso":"CA"},"geometry":{"type":"Point","coordinates":[-113.490464,53.523236999999995]}},{"type":"Feature","properties":{"country_en":"Canada","name":"CPR West","name_adm0":"Canada","name_adm1":"Alberta","name_adm2":"Alberta","name_en":"CPR West","iso":"CA"},"geometry":{"type":"Point","coordinates":[-113.49578,53.511386]}},{"type":"Feature","properties":{"country_en":"Canada","name":"Edmonton Northlands","name_adm0":"Canada","name_adm1":"Alberta","name_adm2":"Alberta","name_en":"Edmonton Northlands","iso":"CA"},"geometry":{"type":"Point","coordinates":[-113.455531,53.568663]}},{"type":"Feature","properties":{"country_en":"Canada","name":"Parkdale","name_adm0":"Canada","name_adm1":"Alberta","name_adm2":"Alberta","name_en":"Parkdale","iso":"CA"},"geometry":{"type":"Point","coordinates":[-113.473563,53.565895]}},{"type":"Feature","properties":{"country_en":"Canada","name":"Erin Mills","name_adm0":"Canada","name_adm1":"Ontario","name_adm2":"Peel","name_en":"Erin Mills","iso":"CA"},"geometry":{"type":"Point","coordinates":[-80.14647,43.57834]}},{"type":"Feature","properties":{"country_en":"Canada","name":"Port Credit","name_adm0":"Canada","name_adm1":"Ontario","name_adm2":"Peel","name_en":"Port Credit","iso":"CA"},"geometry":{"type":"Point","coordinates":[-79.58216999999999,43.55368]}},{"type":"Feature","properties":{"country_en":"Canada","name":"Laval","name_adm0":"Canada","name_adm1":"Québec","name_adm2":"Laval","name_en":"Laval","iso":"CA"},"geometry":{"type":"Point","coordinates":[-73.69199999999998,45.56995]}},{"type":"Feature","properties":{"country_en":"Canada","name":"La Baie","name_adm0":"Canada","name_adm1":"Québec","name_adm2":"Saguenay","name_en":"La Baie","iso":"CA"},"geometry":{"type":"Point","coordinates":[-70.88928,48.33982]}},{"type":"Feature","properties":{"country_en":"Canada","name":"Massey","name_adm0":"Canada","name_adm1":"Ontario","name_adm2":"Sudbury","name_en":"Massey","iso":"CA"},"geometry":{"type":"Point","coordinates":[-82.08312,46.20007]}},{"type":"Feature","properties":{"country_en":"Canada","name":"Dacre","name_adm0":"Canada","name_adm1":"Ontario","name_adm2":"Renfrew","name_en":"Dacre","iso":"CA"},"geometry":{"type":"Point","coordinates":[-76.96614,45.36681]}},{"type":"Feature","properties":{"country_en":"Canada","name":"Stoney Creek","name_adm0":"Canada","name_adm1":"Ontario","name_adm2":"Hamilton","name_en":"Stoney Creek","iso":"CA"},"geometry":{"type":"Point","coordinates":[-79.76633,43.21681]}},{"type":"Feature","properties":{"country_en":"Canada","name":"Port Alice","name_adm0":"Canada","name_adm1":"British Columbia","name_adm2":"Mt Waddington","name_en":"Port Alice","iso":"CA"},"geometry":{"type":"Point","coordinates":[-127.45312999999999,50.382889999999996]}},{"type":"Feature","properties":{"country_en":"Canada","name":"Hawkesville","name_adm0":"Canada","name_adm1":"Ontario","name_adm2":"Waterloo","name_en":"Hawkesville","iso":"CA"},"geometry":{"type":"Point","coordinates":[-80.04965,42.96681]}},{"type":"Feature","properties":{"country_en":"Canada","name":"Boulter","name_adm0":"Canada","name_adm1":"Ontario","name_adm2":"Hastings","name_en":"Boulter","iso":"CA"},"geometry":{"type":"Point","coordinates":[-77.634263,45.189205]}},{"type":"Feature","properties":{"country_en":"Canada","name":"Iona Station","name_adm0":"Canada","name_adm1":"Ontario","name_adm2":"Elgin","name_en":"Iona Station","iso":"CA"},"geometry":{"type":"Point","coordinates":[-81.37128999999999,42.678838]}},{"type":"Feature","properties":{"country_en":"Canada","name":"Worthington","name_adm0":"Canada","name_adm1":"Manitoba","name_adm2":"Manitoba","name_en":"Worthington","iso":"CA"},"geometry":{"type":"Point","coordinates":[-97.111896,49.83631499999999]}},{"type":"Feature","properties":{"country_en":"Canada","name":"Bruxelles","name_adm0":"Canada","name_adm1":"Manitoba","name_adm2":"Manitoba","name_en":"Bruxelles","iso":"CA"},"geometry":{"type":"Point","coordinates":[-98.931316,49.488367]}},{"type":"Feature","properties":{"country_en":"Canada","name":"Okanagan Centre","name_adm0":"Canada","name_adm1":"British Columbia","name_adm2":"Central Okanagan","name_en":"Okanagan Centre","iso":"CA"},"geometry":{"type":"Point","coordinates":[-119.450869,50.04748]}},{"type":"Feature","properties":{"country_en":"Canada","name":"Robson","name_adm0":"Canada","name_adm1":"British Columbia","name_adm2":"Central Kootenay","name_en":"Robson","iso":"CA"},"geometry":{"type":"Point","coordinates":[-117.888793,49.34999799999999]}},{"type":"Feature","properties":{"country_en":"Canada","name":"Mill Bay","name_adm0":"Canada","name_adm1":"British Columbia","name_adm2":"Cowichan Valley","name_en":"Mill Bay","iso":"CA"},"geometry":{"type":"Point","coordinates":[-123.554,48.64428999999999]}},{"type":"Feature","properties":{"country_en":"Canada","name":"Kingston Crescent","name_adm0":"Canada","name_adm1":"Manitoba","name_adm2":"Manitoba","name_en":"Kingston Crescent","iso":"CA"},"geometry":{"type":"Point","coordinates":[-97.134075,49.8548165]}},{"type":"Feature","properties":{"country_en":"Canada","name":"Woodlands","name_adm0":"Canada","name_adm1":"Alberta","name_adm2":"Alberta","name_en":"Woodlands","iso":"CA"},"geometry":{"type":"Point","coordinates":[-114.10473299999998,50.931968]}},{"type":"Feature","properties":{"country_en":"Canada","name":"Pembina Strip","name_adm0":"Canada","name_adm1":"Manitoba","name_adm2":"Manitoba","name_en":"Pembina Strip","iso":"CA"},"geometry":{"type":"Point","coordinates":[-97.14452499999999,49.827276]}},{"type":"Feature","properties":{"country_en":"Canada","name":"Cloutier Drive","name_adm0":"Canada","name_adm1":"Manitoba","name_adm2":"Manitoba","name_en":"Cloutier Drive","iso":"CA"},"geometry":{"type":"Point","coordinates":[-97.1413185,49.776497]}},{"type":"Feature","properties":{"country_en":"Canada","name":"Eau Claire","name_adm0":"Canada","name_adm1":"Alberta","name_adm2":"Alberta","name_en":"Eau Claire","iso":"CA"},"geometry":{"type":"Point","coordinates":[-114.071302,51.054489]}},{"type":"Feature","properties":{"country_en":"Canada","name":"Muskoka","name_adm0":"Canada","name_adm1":"Ontario","name_adm2":"Muskoka","name_en":"Muskoka","iso":"CA"},"geometry":{"type":"Point","coordinates":[-79.504383,45.148692]}},{"type":"Feature","properties":{"country_en":"Canada","name":"South Eglinton","name_adm0":"Canada","name_adm1":"Ontario","name_adm2":"Toronto","name_en":"South Eglinton","iso":"CA"},"geometry":{"type":"Point","coordinates":[-79.38647699999999,43.697293]}},{"type":"Feature","properties":{"country_en":"Canada","name":"Rideau View","name_adm0":"Canada","name_adm1":"Ontario","name_adm2":"Ottawa","name_en":"Rideau View","iso":"CA"},"geometry":{"type":"Point","coordinates":[-75.708138,45.37132799999999]}},{"type":"Feature","properties":{"country_en":"Canada","name":"Hunt Club East","name_adm0":"Canada","name_adm1":"Ontario","name_adm2":"Ottawa","name_en":"Hunt Club East","iso":"CA"},"geometry":{"type":"Point","coordinates":[-75.6665,45.352789]}},{"type":"Feature","properties":{"country_en":"Canada","name":"Montcalm","name_adm0":"Canada","name_adm1":"Québec","name_adm2":"Sherbrooke","name_en":"Montcalm","iso":"CA"},"geometry":{"type":"Point","coordinates":[-71.934,45.403465]}},{"type":"Feature","properties":{"country_en":"Canada","name":"Centre-Sud","name_adm0":"Canada","name_adm1":"Québec","name_adm2":"Sherbrooke","name_en":"Centre-Sud","iso":"CA"},"geometry":{"type":"Point","coordinates":[-71.891269,45.401084999999995]}},{"type":"Feature","properties":{"country_en":"Canada","name":"South Pandosy","name_adm0":"Canada","name_adm1":"British Columbia","name_adm2":"Central Okanagan","name_en":"South Pandosy","iso":"CA"},"geometry":{"type":"Point","coordinates":[-119.47759199999999,49.860839]}},{"type":"Feature","properties":{"country_en":"Canada","name":"La Croix-Lumineuse","name_adm0":"Canada","name_adm1":"Québec","name_adm2":"Sherbrooke","name_en":"La Croix-Lumineuse","iso":"CA"},"geometry":{"type":"Point","coordinates":[-71.914315,45.388369]}},{"type":"Feature","properties":{"country_en":"Canada","name":"Pin-Solitaire","name_adm0":"Canada","name_adm1":"Québec","name_adm2":"Sherbrooke","name_en":"Pin-Solitaire","iso":"CA"},"geometry":{"type":"Point","coordinates":[-71.9006465,45.418052]}},{"type":"Feature","properties":{"country_en":"Canada","name":"Tunney's Pasture","name_adm0":"Canada","name_adm1":"Ontario","name_adm2":"Ottawa","name_en":"Tunney's Pasture","iso":"CA"},"geometry":{"type":"Point","coordinates":[-75.744252,45.403964]}},{"type":"Feature","properties":{"country_en":"Canada","name":"Cliff Bungalow","name_adm0":"Canada","name_adm1":"Alberta","name_adm2":"Alberta","name_en":"Cliff Bungalow","iso":"CA"},"geometry":{"type":"Point","coordinates":[-114.071753,51.034161]}},{"type":"Feature","properties":{"country_en":"Canada","name":"Cougar Ridge","name_adm0":"Canada","name_adm1":"Alberta","name_adm2":"Alberta","name_en":"Cougar Ridge","iso":"CA"},"geometry":{"type":"Point","coordinates":[-114.21601199999999,51.079263]}},{"type":"Feature","properties":{"country_en":"Canada","name":"Royal Oak","name_adm0":"Canada","name_adm1":"Alberta","name_adm2":"Alberta","name_en":"Royal Oak","iso":"CA"},"geometry":{"type":"Point","coordinates":[-114.22733299999999,51.147333]}},{"type":"Feature","properties":{"country_en":"Canada","name":"Sunridge","name_adm0":"Canada","name_adm1":"Alberta","name_adm2":"Alberta","name_en":"Sunridge","iso":"CA"},"geometry":{"type":"Point","coordinates":[-113.998689,51.077456]}},{"type":"Feature","properties":{"country_en":"Canada","name":"Vieux Moulin","name_adm0":"Canada","name_adm1":"Québec","name_adm2":"Québec","name_en":"Vieux Moulin","iso":"CA"},"geometry":{"type":"Point","coordinates":[-71.243419,46.87879199999999]}},{"type":"Feature","properties":{"country_en":"Canada","name":"Boothill","name_adm0":"Canada","name_adm1":"Saskatchewan","name_adm2":"Saskatchewan","name_en":"Boothill","iso":"CA"},"geometry":{"type":"Point","coordinates":[-104.579479,50.428889]}},{"type":"Feature","properties":{"country_en":"Canada","name":"Northeast","name_adm0":"Canada","name_adm1":"Saskatchewan","name_adm2":"Saskatchewan","name_en":"Northeast","iso":"CA"},"geometry":{"type":"Point","coordinates":[-104.59649999999999,50.479667]}},{"type":"Feature","properties":{"country_en":"Canada","name":"Walsh Acres","name_adm0":"Canada","name_adm1":"Saskatchewan","name_adm2":"Saskatchewan","name_en":"Walsh Acres","iso":"CA"},"geometry":{"type":"Point","coordinates":[-104.650075,50.49886999999999]}},{"type":"Feature","properties":{"country_en":"Canada","name":"Kelowna North","name_adm0":"Canada","name_adm1":"British Columbia","name_adm2":"Central Okanagan","name_en":"Kelowna North","iso":"CA"},"geometry":{"type":"Point","coordinates":[-119.499857,49.894468]}},{"type":"Feature","properties":{"country_en":"Canada","name":"Cultural District","name_adm0":"Canada","name_adm1":"British Columbia","name_adm2":"Central Okanagan","name_en":"Cultural District","iso":"CA"},"geometry":{"type":"Point","coordinates":[-119.49376299999999,49.892643]}},{"type":"Feature","properties":{"country_en":"Canada","name":"River Valley Mayfair","name_adm0":"Canada","name_adm1":"Alberta","name_adm2":"Alberta","name_en":"River Valley Mayfair","iso":"CA"},"geometry":{"type":"Point","coordinates":[-113.547198,53.528166]}},{"type":"Feature","properties":{"country_en":"Canada","name":"April Road","name_adm0":"Canada","name_adm1":"British Columbia","name_adm2":"Greater Vancouver","name_en":"April Road","iso":"CA"},"geometry":{"type":"Point","coordinates":[-122.862382,49.298277]}},{"type":"Feature","properties":{"country_en":"Canada","name":"Lachenaie","name_adm0":"Canada","name_adm1":"Québec","name_adm2":"Les Moulins","name_en":"Lachenaie","iso":"CA"},"geometry":{"type":"Point","coordinates":[-73.57827,45.69863]}},{"type":"Feature","properties":{"country_en":"Canada","name":"Centre Ville","name_adm0":"Canada","name_adm1":"Québec","name_adm2":"Beauharnois-Salaberry","name_en":"Centre Ville","iso":"CA"},"geometry":{"type":"Point","coordinates":[-73.87982149999999,45.3132155]}},{"type":"Feature","properties":{"country_en":"Canada","name":"Parc archeologique de la Pointe-du-Buisson","name_adm0":"Canada","name_adm1":"Québec","name_adm2":"Beauharnois-Salaberry","name_en":"Parc archeologique de la Pointe-du-Buisson","iso":"CA"},"geometry":{"type":"Point","coordinates":[-73.957943,45.310209]}},{"type":"Feature","properties":{"country_en":"Canada","name":"Le Vieux Vaudreuil","name_adm0":"Canada","name_adm1":"Québec","name_adm2":"Vaudreuil-Soulanges","name_en":"Le Vieux Vaudreuil","iso":"CA"},"geometry":{"type":"Point","coordinates":[-74.026911,45.40038]}},{"type":"Feature","properties":{"country_en":"Canada","name":"Parc Kent","name_adm0":"Canada","name_adm1":"Québec","name_adm2":"Montréal","name_en":"Parc Kent","iso":"CA"},"geometry":{"type":"Point","coordinates":[-73.63315999999999,45.503489]}},{"type":"Feature","properties":{"country_en":"Canada","name":"Snowdon","name_adm0":"Canada","name_adm1":"Québec","name_adm2":"Montréal","name_en":"Snowdon","iso":"CA"},"geometry":{"type":"Point","coordinates":[-73.627286,45.484089]}},{"type":"Feature","properties":{"country_en":"Canada","name":"Chemin Côte-des-Neiges","name_adm0":"Canada","name_adm1":"Québec","name_adm2":"Montréal","name_en":"Chemin Côte-des-Neiges","iso":"CA"},"geometry":{"type":"Point","coordinates":[-73.61973799999998,45.49917299999999]}},{"type":"Feature","properties":{"country_en":"Canada","name":"Petit Étang","name_adm0":"Canada","name_adm1":"Nova Scotia","name_adm2":"Inverness","name_en":"Petit Étang","iso":"CA"},"geometry":{"type":"Point","coordinates":[-60.96045199999999,46.67983]}},{"type":"Feature","properties":{"country_en":"Canada","name":"Pierrefonds","name_adm0":"Canada","name_adm1":"Québec","name_adm2":"Montréal","name_en":"Pierrefonds","iso":"CA"},"geometry":{"type":"Point","coordinates":[-73.853668,45.493292]}},{"type":"Feature","properties":{"country_en":"Canada","name":"St.-Romuald","name_adm0":"Canada","name_adm1":"Québec","name_adm2":"Lévis","name_en":"St.-Romuald","iso":"CA"},"geometry":{"type":"Point","coordinates":[-71.233154,46.758874]}},{"type":"Feature","properties":{"country_en":"Canada","name":"Vallée-Jonction","name_adm0":"Canada","name_adm1":"Québec","name_adm2":"La Nouvelle-Beauce","name_en":"Vallée-Jonction","iso":"CA"},"geometry":{"type":"Point","coordinates":[-70.944213,46.372398]}},{"type":"Feature","properties":{"country_en":"Canada","name":"St.-Jérôme","name_adm0":"Canada","name_adm1":"Québec","name_adm2":"La Rivière-du-Nord","name_en":"St.-Jérôme","iso":"CA"},"geometry":{"type":"Point","coordinates":[-74.0103785,45.779496]}},{"type":"Feature","properties":{"country_en":"Canada","name":"Rigaud","name_adm0":"Canada","name_adm1":"Québec","name_adm2":"Vaudreuil-Soulanges","name_en":"Rigaud","iso":"CA"},"geometry":{"type":"Point","coordinates":[-74.302339,45.466752]}},{"type":"Feature","properties":{"country_en":"Canada","name":"Lennoxville","name_adm0":"Canada","name_adm1":"Québec","name_adm2":"Sherbrooke","name_en":"Lennoxville","iso":"CA"},"geometry":{"type":"Point","coordinates":[-71.845114,45.365413]}},{"type":"Feature","properties":{"country_en":"Canada","name":"Knowlton","name_adm0":"Canada","name_adm1":"Québec","name_adm2":"Brome-Missisquoi","name_en":"Knowlton","iso":"CA"},"geometry":{"type":"Point","coordinates":[-72.511353,45.219533]}},{"type":"Feature","properties":{"country_en":"Canada","name":"Anjou","name_adm0":"Canada","name_adm1":"Québec","name_adm2":"Montréal","name_en":"Anjou","iso":"CA"},"geometry":{"type":"Point","coordinates":[-73.549915,45.605661]}},{"type":"Feature","properties":{"country_en":"Canada","name":"Gormley","name_adm0":"Canada","name_adm1":"Ontario","name_adm2":"York","name_en":"Gormley","iso":"CA"},"geometry":{"type":"Point","coordinates":[-79.396154,43.925779]}},{"type":"Feature","properties":{"country_en":"Canada","name":"Balzac","name_adm0":"Canada","name_adm1":"Alberta","name_adm2":"Alberta","name_en":"Balzac","iso":"CA"},"geometry":{"type":"Point","coordinates":[-113.9959295,51.203011]}},{"type":"Feature","properties":{"country_en":"Canada","name":"Dorothy","name_adm0":"Canada","name_adm1":"Alberta","name_adm2":"Alberta","name_en":"Dorothy","iso":"CA"},"geometry":{"type":"Point","coordinates":[-112.322845,51.280494]}},{"type":"Feature","properties":{"country_en":"Canada","name":"Forest Lawn","name_adm0":"Canada","name_adm1":"Alberta","name_adm2":"Alberta","name_en":"Forest Lawn","iso":"CA"},"geometry":{"type":"Point","coordinates":[-113.982278,51.038425]}},{"type":"Feature","properties":{"country_en":"Canada","name":"Namao","name_adm0":"Canada","name_adm1":"Alberta","name_adm2":"Alberta","name_en":"Namao","iso":"CA"},"geometry":{"type":"Point","coordinates":[-113.384742,53.690658]}},{"type":"Feature","properties":{"country_en":"Canada","name":"Fermeuse","name_adm0":"Canada","name_adm1":"Newfoundland and Labrador","name_adm2":"Newfoundland and Labrador","name_en":"Fermeuse","iso":"CA"},"geometry":{"type":"Point","coordinates":[-52.95637,46.97629]}},{"type":"Feature","properties":{"country_en":"Canada","name":"Little Current","name_adm0":"Canada","name_adm1":"Ontario","name_adm2":"Manitoulin","name_en":"Little Current","iso":"CA"},"geometry":{"type":"Point","coordinates":[-81.92479999999999,45.97927]}},{"type":"Feature","properties":{"country_en":"Canada","name":"Wakefield","name_adm0":"Canada","name_adm1":"Québec","name_adm2":"Les Collines-de-l'Outaouais","name_en":"Wakefield","iso":"CA"},"geometry":{"type":"Point","coordinates":[-75.83265,45.6668]}},{"type":"Feature","properties":{"country_en":"Canada","name":"Asbestos","name_adm0":"Canada","name_adm1":"Québec","name_adm2":"Asbestos","name_en":"Asbestos","iso":"CA"},"geometry":{"type":"Point","coordinates":[-71.9324,45.76678]}},{"type":"Feature","properties":{"country_en":"Canada","name":"Danville","name_adm0":"Canada","name_adm1":"Québec","name_adm2":"Asbestos","name_en":"Danville","iso":"CA"},"geometry":{"type":"Point","coordinates":[-72.0158,45.78337]}},{"type":"Feature","properties":{"country_en":"Canada","name":"St. Martins","name_adm0":"Canada","name_adm1":"New Brunswick","name_adm2":"Saint John","name_en":"St. Martins","iso":"CA"},"geometry":{"type":"Point","coordinates":[-65.54571,45.35097]}},{"type":"Feature","properties":{"country_en":"Canada","name":"Torbay","name_adm0":"Canada","name_adm1":"Newfoundland and Labrador","name_adm2":"Newfoundland and Labrador","name_en":"Torbay","iso":"CA"},"geometry":{"type":"Point","coordinates":[-52.73135,47.66659]}},{"type":"Feature","properties":{"country_en":"Canada","name":"Invermere","name_adm0":"Canada","name_adm1":"British Columbia","name_adm2":"East Kootenay","name_en":"Invermere","iso":"CA"},"geometry":{"type":"Point","coordinates":[-116.03538,50.51666]}},{"type":"Feature","properties":{"country_en":"Canada","name":"Nakusp","name_adm0":"Canada","name_adm1":"British Columbia","name_adm2":"Central Kootenay","name_en":"Nakusp","iso":"CA"},"geometry":{"type":"Point","coordinates":[-117.80226,50.24987]}},{"type":"Feature","properties":{"country_en":"Canada","name":"Coldstream","name_adm0":"Canada","name_adm1":"British Columbia","name_adm2":"North Okanagan","name_en":"Coldstream","iso":"CA"},"geometry":{"type":"Point","coordinates":[-119.20235,50.21649]}},{"type":"Feature","properties":{"country_en":"Canada","name":"Central Boniface","name_adm0":"Canada","name_adm1":"Manitoba","name_adm2":"Manitoba","name_en":"Central Boniface","iso":"CA"},"geometry":{"type":"Point","coordinates":[-97.121892,49.889374]}},{"type":"Feature","properties":{"country_en":"Canada","name":"Fairfield","name_adm0":"Canada","name_adm1":"Ontario","name_adm2":"Waterloo","name_en":"Fairfield","iso":"CA"},"geometry":{"type":"Point","coordinates":[-80.497437,43.465223]}},{"type":"Feature","properties":{"country_en":"Canada","name":"North End","name_adm0":"Canada","name_adm1":"British Columbia","name_adm2":"Central Okanagan","name_en":"North End","iso":"CA"},"geometry":{"type":"Point","coordinates":[-119.491,49.908333]}},{"type":"Feature","properties":{"country_en":"Canada","name":"Lower Ten Oaks","name_adm0":"Canada","name_adm1":"British Columbia","name_adm2":"Fraser Valley","name_en":"Lower Ten Oaks","iso":"CA"},"geometry":{"type":"Point","coordinates":[-122.26737899999999,49.061305]}},{"type":"Feature","properties":{"country_en":"Canada","name":"Downtown Langley","name_adm0":"Canada","name_adm1":"British Columbia","name_adm2":"Greater Vancouver","name_en":"Downtown Langley","iso":"CA"},"geometry":{"type":"Point","coordinates":[-122.654736,49.104991]}},{"type":"Feature","properties":{"country_en":"Canada","name":"Downtown Ladner","name_adm0":"Canada","name_adm1":"British Columbia","name_adm2":"Greater Vancouver","name_en":"Downtown Ladner","iso":"CA"},"geometry":{"type":"Point","coordinates":[-123.078707,49.07783599999999]}},{"type":"Feature","properties":{"country_en":"Canada","name":"Tilbury","name_adm0":"Canada","name_adm1":"British Columbia","name_adm2":"Greater Vancouver","name_en":"Tilbury","iso":"CA"},"geometry":{"type":"Point","coordinates":[-123.061766,49.123826]}},{"type":"Feature","properties":{"country_en":"Canada","name":"Leamington","name_adm0":"Canada","name_adm1":"Ontario","name_adm2":"Essex","name_en":"Leamington","iso":"CA"},"geometry":{"type":"Point","coordinates":[-82.59981,42.05009]}},{"type":"Feature","properties":{"country_en":"Canada","name":"Joe Batt's Arm","name_adm0":"Canada","name_adm1":"Newfoundland and Labrador","name_adm2":"Newfoundland and Labrador","name_en":"Joe Batt's Arm","iso":"CA"},"geometry":{"type":"Point","coordinates":[-54.159078,49.734687]}},{"type":"Feature","properties":{"country_en":"Canada","name":"Glenridge","name_adm0":"Canada","name_adm1":"Ontario","name_adm2":"Niagara","name_en":"Glenridge","iso":"CA"},"geometry":{"type":"Point","coordinates":[-79.24933,43.119686]}},{"type":"Feature","properties":{"country_en":"Canada","name":"Merriton","name_adm0":"Canada","name_adm1":"Ontario","name_adm2":"Niagara","name_en":"Merriton","iso":"CA"},"geometry":{"type":"Point","coordinates":[-79.191555,43.145336]}},{"type":"Feature","properties":{"country_en":"Canada","name":"Mckellar Heights","name_adm0":"Canada","name_adm1":"Ontario","name_adm2":"Ottawa","name_en":"Mckellar Heights","iso":"CA"},"geometry":{"type":"Point","coordinates":[-75.772436,45.379133]}},{"type":"Feature","properties":{"country_en":"Canada","name":"Mount Dennis","name_adm0":"Canada","name_adm1":"Ontario","name_adm2":"Toronto","name_en":"Mount Dennis","iso":"CA"},"geometry":{"type":"Point","coordinates":[-79.490091,43.687394]}},{"type":"Feature","properties":{"country_en":"Canada","name":"Newtonbrook","name_adm0":"Canada","name_adm1":"Ontario","name_adm2":"Toronto","name_en":"Newtonbrook","iso":"CA"},"geometry":{"type":"Point","coordinates":[-79.41542299999999,43.782465]}},{"type":"Feature","properties":{"country_en":"Canada","name":"Fairview","name_adm0":"Canada","name_adm1":"Ontario","name_adm2":"Brant","name_en":"Fairview","iso":"CA"},"geometry":{"type":"Point","coordinates":[-80.26752899999998,43.168612]}},{"type":"Feature","properties":{"country_en":"Canada","name":"Normanhurst","name_adm0":"Canada","name_adm1":"Ontario","name_adm2":"Hamilton","name_en":"Normanhurst","iso":"CA"},"geometry":{"type":"Point","coordinates":[-79.7941205,43.24241]}},{"type":"Feature","properties":{"country_en":"Canada","name":"Buck Lake","name_adm0":"Canada","name_adm1":"Alberta","name_adm2":"Alberta","name_en":"Buck Lake","iso":"CA"},"geometry":{"type":"Point","coordinates":[-114.78283799999998,52.9422495]}},{"type":"Feature","properties":{"country_en":"Canada","name":"Chesley","name_adm0":"Canada","name_adm1":"Ontario","name_adm2":"Bruce","name_en":"Chesley","iso":"CA"},"geometry":{"type":"Point","coordinates":[-81.09524,44.29658]}},{"type":"Feature","properties":{"country_en":"Canada","name":"Comox-Strathcona","name_adm0":"Canada","name_adm1":"British Columbia","name_adm2":"Comox-Strathcona","name_en":"Comox-Strathcona","iso":"CA"},"geometry":{"type":"Point","coordinates":[-125.18066799999998,50.229857]}},{"type":"Feature","properties":{"country_en":"Canada","name":"Cowichan Valley","name_adm0":"Canada","name_adm1":"British Columbia","name_adm2":"Cowichan Valley","name_en":"Cowichan Valley","iso":"CA"},"geometry":{"type":"Point","coordinates":[-124.746494,48.733549]}},{"type":"Feature","properties":{"country_en":"Canada","name":"St. Shotts","name_adm0":"Canada","name_adm1":"Newfoundland and Labrador","name_adm2":"Newfoundland and Labrador","name_en":"St. Shotts","iso":"CA"},"geometry":{"type":"Point","coordinates":[-53.58145,46.63319]}},{"type":"Feature","properties":{"country_en":"Canada","name":"Hopedale","name_adm0":"Canada","name_adm1":"Newfoundland and Labrador","name_adm2":"Newfoundland and Labrador","name_en":"Hopedale","iso":"CA"},"geometry":{"type":"Point","coordinates":[-60.20319,55.467369999999995]}},{"type":"Feature","properties":{"country_en":"Canada","name":"Chitek Lake","name_adm0":"Canada","name_adm1":"Saskatchewan","name_adm2":"Saskatchewan","name_en":"Chitek Lake","iso":"CA"},"geometry":{"type":"Point","coordinates":[-107.71796,53.75015]}},{"type":"Feature","properties":{"country_en":"Canada","name":"Plum Coulee","name_adm0":"Canada","name_adm1":"Manitoba","name_adm2":"Manitoba","name_en":"Plum Coulee","iso":"CA"},"geometry":{"type":"Point","coordinates":[-97.76132999999999,49.19109]}},{"type":"Feature","properties":{"country_en":"Canada","name":"St. George's","name_adm0":"Canada","name_adm1":"Newfoundland and Labrador","name_adm2":"Newfoundland and Labrador","name_en":"St. George's","iso":"CA"},"geometry":{"type":"Point","coordinates":[-58.48181,48.43331]}},{"type":"Feature","properties":{"country_en":"Canada","name":"Carmangay","name_adm0":"Canada","name_adm1":"Alberta","name_adm2":"Alberta","name_en":"Carmangay","iso":"CA"},"geometry":{"type":"Point","coordinates":[-113.11858,50.13333]}},{"type":"Feature","properties":{"country_en":"Canada","name":"Val-Morin","name_adm0":"Canada","name_adm1":"Québec","name_adm2":"Les Laurentides","name_en":"Val-Morin","iso":"CA"},"geometry":{"type":"Point","coordinates":[-74.18251,46.00008]}},{"type":"Feature","properties":{"country_en":"Canada","name":"Lagoon City","name_adm0":"Canada","name_adm1":"Ontario","name_adm2":"Simcoe","name_en":"Lagoon City","iso":"CA"},"geometry":{"type":"Point","coordinates":[-79.2104,44.54742]}},{"type":"Feature","properties":{"country_en":"Canada","name":"Port-Cartier","name_adm0":"Canada","name_adm1":"Québec","name_adm2":"Sept-Rivières","name_en":"Port-Cartier","iso":"CA"},"geometry":{"type":"Point","coordinates":[-66.86545,50.03339]}},{"type":"Feature","properties":{"country_en":"Canada","name":"Malton","name_adm0":"Canada","name_adm1":"Ontario","name_adm2":"Peel","name_en":"Malton","iso":"CA"},"geometry":{"type":"Point","coordinates":[-79.64221,43.72062]}},{"type":"Feature","properties":{"country_en":"Canada","name":"Ste.-Anne-de-Beaupré","name_adm0":"Canada","name_adm1":"Québec","name_adm2":"La Côte-de-beaupré","name_en":"Ste.-Anne-de-Beaupré","iso":"CA"},"geometry":{"type":"Point","coordinates":[-70.92833,47.02389]}},{"type":"Feature","properties":{"country_en":"Canada","name":"La Pocatière","name_adm0":"Canada","name_adm1":"Québec","name_adm2":"Kamouraska","name_en":"La Pocatière","iso":"CA"},"geometry":{"type":"Point","coordinates":[-70.06186,47.34836]}},{"type":"Feature","properties":{"country_en":"Canada","name":"St.-andré-d'argenteuil","name_adm0":"Canada","name_adm1":"Québec","name_adm2":"Argenteuil","name_en":"St.-andré-d'argenteuil","iso":"CA"},"geometry":{"type":"Point","coordinates":[-74.33253,45.56678]}},{"type":"Feature","properties":{"country_en":"Canada","name":"St.-Bernard-de-Lacolle","name_adm0":"Canada","name_adm1":"Québec","name_adm2":"Les Jardins-de-Napierville","name_en":"St.-Bernard-de-Lacolle","iso":"CA"},"geometry":{"type":"Point","coordinates":[-73.41586,45.08338]}},{"type":"Feature","properties":{"country_en":"Canada","name":"St.-Lazare","name_adm0":"Canada","name_adm1":"Québec","name_adm2":"Vaudreuil-Soulanges","name_en":"St.-Lazare","iso":"CA"},"geometry":{"type":"Point","coordinates":[-74.13256,45.40008]}},{"type":"Feature","properties":{"country_en":"Canada","name":"New Ross","name_adm0":"Canada","name_adm1":"Nova Scotia","name_adm2":"Lunenburg","name_en":"New Ross","iso":"CA"},"geometry":{"type":"Point","coordinates":[-64.44876,44.73345]}},{"type":"Feature","properties":{"country_en":"Canada","name":"Bowden","name_adm0":"Canada","name_adm1":"Alberta","name_adm2":"Alberta","name_en":"Bowden","iso":"CA"},"geometry":{"type":"Point","coordinates":[-114.03529,51.91681]}},{"type":"Feature","properties":{"country_en":"Canada","name":"Garibaldi Highlands","name_adm0":"Canada","name_adm1":"British Columbia","name_adm2":"Squamish-Lillooet","name_en":"Garibaldi Highlands","iso":"CA"},"geometry":{"type":"Point","coordinates":[-123.13408,49.73397]}},{"type":"Feature","properties":{"country_en":"Canada","name":"Sandwich","name_adm0":"Canada","name_adm1":"Ontario","name_adm2":"Essex","name_en":"Sandwich","iso":"CA"},"geometry":{"type":"Point","coordinates":[-83.05925,42.283179999999994]}},{"type":"Feature","properties":{"country_en":"Canada","name":"Sherridon","name_adm0":"Canada","name_adm1":"Manitoba","name_adm2":"Manitoba","name_en":"Sherridon","iso":"CA"},"geometry":{"type":"Point","coordinates":[-101.08745,55.12405]}},{"type":"Feature","properties":{"country_en":"Canada","name":"Fauquier","name_adm0":"Canada","name_adm1":"Ontario","name_adm2":"Cochrane","name_en":"Fauquier","iso":"CA"},"geometry":{"type":"Point","coordinates":[-82.03307,49.31692]}},{"type":"Feature","properties":{"country_en":"Canada","name":"South Parkdale","name_adm0":"Canada","name_adm1":"Ontario","name_adm2":"Toronto","name_en":"South Parkdale","iso":"CA"},"geometry":{"type":"Point","coordinates":[-79.428834,43.630359]}},{"type":"Feature","properties":{"country_en":"Canada","name":"Margaree Valley","name_adm0":"Canada","name_adm1":"Nova Scotia","name_adm2":"Inverness","name_en":"Margaree Valley","iso":"CA"},