{"type":"FeatureCollection","features":[{"type":"Feature","properties":{"country_en":"Switzerland","name":"Chironico","name_adm0":"Schweiz","name_adm1":"Cantone Ticino","name_adm2":"Leventina","name_en":"Chironico","iso":"CH"},"geometry":{"type":"Point","coordinates":[8.79349,46.4233]}},{"type":"Feature","properties":{"country_en":"Switzerland","name":"Sankt Wolfgang","name_adm0":"Schweiz","name_adm1":"Kanton Zug","name_adm2":"Zug","name_en":"Sankt Wolfgang","iso":"CH"},"geometry":{"type":"Point","coordinates":[8.428079999999998,47.187313]}},{"type":"Feature","properties":{"country_en":"Switzerland","name":"Bellevue","name_adm0":"Schweiz","name_adm1":"Canton de Vaud","name_adm2":"Lausanne","name_en":"Bellevue","iso":"CH"},"geometry":{"type":"Point","coordinates":[6.15475,46.257389999999994]}},{"type":"Feature","properties":{"country_en":"Switzerland","name":"Birr","name_adm0":"Schweiz","name_adm1":"Kanton Aargau","name_adm2":"Brugg","name_en":"Birr-Lufig","iso":"CH"},"geometry":{"type":"Point","coordinates":[8.20801,47.43587]}},{"type":"Feature","properties":{"country_en":"Switzerland","name":"Arosio","name_adm0":"Schweiz","name_adm1":"Cantone Ticino","name_adm2":"Lugano","name_en":"Arosio","iso":"CH"},"geometry":{"type":"Point","coordinates":[8.8997,46.04774]}},{"type":"Feature","properties":{"country_en":"Switzerland","name":"Brienz","name_adm0":"Schweiz","name_adm1":"Kanton Bern","name_adm2":"Interlaken-Oberhasli","name_en":"Brienz","iso":"CH"},"geometry":{"type":"Point","coordinates":[8.03847,46.7545]}},{"type":"Feature","properties":{"country_en":"Switzerland","name":"Dardagny","name_adm0":"Schweiz","name_adm1":"Canton de Genève","name_adm2":"Genève","name_en":"Dardagny","iso":"CH"},"geometry":{"type":"Point","coordinates":[5.99497,46.19564]}},{"type":"Feature","properties":{"country_en":"Switzerland","name":"Ebikon","name_adm0":"Schweiz","name_adm1":"Kanton Luzern","name_adm2":"Luzern","name_en":"Ebikon","iso":"CH"},"geometry":{"type":"Point","coordinates":[8.34041,47.07937]}},{"type":"Feature","properties":{"country_en":"Switzerland","name":"Dalpe","name_adm0":"Schweiz","name_adm1":"Cantone Ticino","name_adm2":"Leventina","name_en":"Dalpe","iso":"CH"},"geometry":{"type":"Point","coordinates":[8.77494,46.47292]}},{"type":"Feature","properties":{"country_en":"Switzerland","name":"La Tour-de-Peilz","name_adm0":"Schweiz","name_adm1":"Canton de Vaud","name_adm2":"Vevey","name_en":"La Tour-de-Peilz","iso":"CH"},"geometry":{"type":"Point","coordinates":[6.85856,46.45312]}},{"type":"Feature","properties":{"country_en":"Switzerland","name":"Meggen","name_adm0":"Schweiz","name_adm1":"Kanton Luzern","name_adm2":"Luzern","name_en":"Meggen","iso":"CH"},"geometry":{"type":"Point","coordinates":[8.37467,47.04691]}},{"type":"Feature","properties":{"country_en":"Switzerland","name":"Matten","name_adm0":"Schweiz","name_adm1":"Kanton Bern","name_adm2":"Obersimmental-Saanen","name_en":"Matten","iso":"CH"},"geometry":{"type":"Point","coordinates":[7.424489999999999,46.4959]}},{"type":"Feature","properties":{"country_en":"Switzerland","name":"Haslacher","name_adm0":"Schweiz","name_adm1":"Kanton Schaffhausen","name_adm2":"Unterklettgau","name_en":"Haslacher","iso":"CH"},"geometry":{"type":"Point","coordinates":[8.05658,48.56530999999999]}},{"type":"Feature","properties":{"country_en":"Switzerland","name":"Russin","name_adm0":"Schweiz","name_adm1":"Canton de Genève","name_adm2":"Genève","name_en":"Russin","iso":"CH"},"geometry":{"type":"Point","coordinates":[6.01381,46.18696]}},{"type":"Feature","properties":{"country_en":"Switzerland","name":"Sedrun","name_adm0":"Schweiz","name_adm1":"Kanton Graubünden","name_adm2":"Glenner","name_en":"Sedrun","iso":"CH"},"geometry":{"type":"Point","coordinates":[8.77859,46.68156]}},{"type":"Feature","properties":{"country_en":"Switzerland","name":"Tavannes","name_adm0":"Schweiz","name_adm1":"Kanton Bern","name_adm2":"Jura Bernois","name_en":"Tavannes","iso":"CH"},"geometry":{"type":"Point","coordinates":[7.19759,47.220789999999994]}},{"type":"Feature","properties":{"country_en":"Switzerland","name":"Weggis","name_adm0":"Schweiz","name_adm1":"Kanton Luzern","name_adm2":"Luzern","name_en":"Weggis","iso":"CH"},"geometry":{"type":"Point","coordinates":[8.43219,47.03208]}},{"type":"Feature","properties":{"country_en":"Switzerland","name":"Weesen","name_adm0":"Schweiz","name_adm1":"Kanton St. Gallen","name_adm2":"Gaster","name_en":"Weesen","iso":"CH"},"geometry":{"type":"Point","coordinates":[9.09644,47.13447]}},{"type":"Feature","properties":{"country_en":"Switzerland","name":"Echandens","name_adm0":"Schweiz","name_adm1":"Canton de Vaud","name_adm2":"Morges","name_en":"Echandens","iso":"CH"},"geometry":{"type":"Point","coordinates":[6.53789,46.53966]}},{"type":"Feature","properties":{"country_en":"Switzerland","name":"Tennwil","name_adm0":"Schweiz","name_adm1":"Kanton Aargau","name_adm2":"Lenzburg","name_en":"Tennwil","iso":"CH"},"geometry":{"type":"Point","coordinates":[8.22267,47.30808]}},{"type":"Feature","properties":{"country_en":"Switzerland","name":"Ennetbaden","name_adm0":"Schweiz","name_adm1":"Kanton Aargau","name_adm2":"Baden","name_en":"Ennetbaden","iso":"CH"},"geometry":{"type":"Point","coordinates":[8.32352,47.48045]}},{"type":"Feature","properties":{"country_en":"Switzerland","name":"Hagendorn","name_adm0":"Schweiz","name_adm1":"Kanton Zug","name_adm2":"Zug","name_en":"Hagendorn","iso":"CH"},"geometry":{"type":"Point","coordinates":[8.43332,47.20453]}},{"type":"Feature","properties":{"country_en":"Switzerland","name":"Muzzano","name_adm0":"Schweiz","name_adm1":"Cantone Ticino","name_adm2":"Lugano","name_en":"Muzzano","iso":"CH"},"geometry":{"type":"Point","coordinates":[8.91648,45.99991]}},{"type":"Feature","properties":{"country_en":"Switzerland","name":"Orselina","name_adm0":"Schweiz","name_adm1":"Cantone Ticino","name_adm2":"Locarno","name_en":"Orselina","iso":"CH"},"geometry":{"type":"Point","coordinates":[8.799789999999998,46.18013]}},{"type":"Feature","properties":{"country_en":"Switzerland","name":"Gordemo","name_adm0":"Schweiz","name_adm1":"Cantone Ticino","name_adm2":"Locarno","name_en":"Gordemo","iso":"CH"},"geometry":{"type":"Point","coordinates":[8.74499,46.226369999999996]}},{"type":"Feature","properties":{"country_en":"Switzerland","name":"Agarn","name_adm0":"Schweiz","name_adm1":"Canton de Valais","name_adm2":"Leuk","name_en":"Agarn","iso":"CH"},"geometry":{"type":"Point","coordinates":[7.663220000000001,46.29749]}},{"type":"Feature","properties":{"country_en":"Switzerland","name":"Agettes","name_adm0":"Schweiz","name_adm1":"Canton de Valais","name_adm2":"Hérens","name_en":"Les Agettes","iso":"CH"},"geometry":{"type":"Point","coordinates":[7.373690000000001,46.2112]}},{"type":"Feature","properties":{"country_en":"Switzerland","name":"Alvaschein","name_adm0":"Schweiz","name_adm1":"Kanton Graubünden","name_adm2":"Albula","name_en":"Alvaschein","iso":"CH"},"geometry":{"type":"Point","coordinates":[9.55051,46.67488]}},{"type":"Feature","properties":{"country_en":"Switzerland","name":"Ambri","name_adm0":"Schweiz","name_adm1":"Cantone Ticino","name_adm2":"Leventina","name_en":"Ambri","iso":"CH"},"geometry":{"type":"Point","coordinates":[8.68333,46.5]}},{"type":"Feature","properties":{"country_en":"Switzerland","name":"St.-Léonard","name_adm0":"Schweiz","name_adm1":"Canton de Valais","name_adm2":"Sierre","name_en":"St.-Léonard","iso":"CH"},"geometry":{"type":"Point","coordinates":[7.418518,46.254303]}},{"type":"Feature","properties":{"country_en":"Switzerland","name":"Bex","name_adm0":"Schweiz","name_adm1":"Canton de Vaud","name_adm2":"Aigle","name_en":"Bex","iso":"CH"},"geometry":{"type":"Point","coordinates":[7.011409999999999,46.25214]}},{"type":"Feature","properties":{"country_en":"Switzerland","name":"Au","name_adm0":"Schweiz","name_adm1":"Kanton Thurgau","name_adm2":"Münchwilen","name_en":"Au","iso":"CH"},"geometry":{"type":"Point","coordinates":[8.95418,47.39844]}},{"type":"Feature","properties":{"country_en":"Switzerland","name":"Bourg-St.-Pierre","name_adm0":"Schweiz","name_adm1":"Canton de Valais","name_adm2":"Entremont","name_en":"Bourg-St.-Pierre","iso":"CH"},"geometry":{"type":"Point","coordinates":[7.20772,45.94876]}},{"type":"Feature","properties":{"country_en":"Switzerland","name":"Brienzwiler","name_adm0":"Schweiz","name_adm1":"Kanton Bern","name_adm2":"Interlaken-Oberhasli","name_en":"Brienzwiler-Dorf","iso":"CH"},"geometry":{"type":"Point","coordinates":[8.10139,46.75084]}},{"type":"Feature","properties":{"country_en":"Switzerland","name":"Bühler","name_adm0":"Schweiz","name_adm1":"Kanton Appenzell Ausserrhoden","name_adm2":"Mittelland","name_en":"Bühler","iso":"CH"},"geometry":{"type":"Point","coordinates":[9.42507,47.37348]}},{"type":"Feature","properties":{"country_en":"Switzerland","name":"Bubikon","name_adm0":"Schweiz","name_adm1":"Kanton Zürich","name_adm2":"Hinwil","name_en":"Bubikon","iso":"CH"},"geometry":{"type":"Point","coordinates":[8.817899999999998,47.26698]}},{"type":"Feature","properties":{"country_en":"Switzerland","name":"Cagnago","name_adm0":"Schweiz","name_adm1":"Cantone Ticino","name_adm2":"Leventina","name_en":"Cavagnago","iso":"CH"},"geometry":{"type":"Point","coordinates":[8.88155,46.4152]}},{"type":"Feature","properties":{"country_en":"Switzerland","name":"Cama","name_adm0":"Schweiz","name_adm1":"Kanton Graubünden","name_adm2":"Moesa","name_en":"Cama","iso":"CH"},"geometry":{"type":"Point","coordinates":[9.16957,46.273]}},{"type":"Feature","properties":{"country_en":"Switzerland","name":"Campo","name_adm0":"Schweiz","name_adm1":"Cantone Ticino","name_adm2":"Vallemaggia","name_en":"Campo","iso":"CH"},"geometry":{"type":"Point","coordinates":[8.52173,46.42305999999999]}},{"type":"Feature","properties":{"country_en":"Switzerland","name":"Courtemaîche","name_adm0":"Schweiz","name_adm1":"Canton de Jura","name_adm2":"Porrentruy","name_en":"Courtemaîche","iso":"CH"},"geometry":{"type":"Point","coordinates":[7.04825,47.45724]}},{"type":"Feature","properties":{"country_en":"Switzerland","name":"Egg","name_adm0":"Schweiz","name_adm1":"Kanton Zürich","name_adm2":"Uster","name_en":"Egg B. Zurich","iso":"CH"},"geometry":{"type":"Point","coordinates":[8.69032,47.29976]}},{"type":"Feature","properties":{"country_en":"Switzerland","name":"Egerkingen","name_adm0":"Schweiz","name_adm1":"Kanton Solothurn","name_adm2":"Gäu","name_en":"Egerkingen","iso":"CH"},"geometry":{"type":"Point","coordinates":[7.78424,47.31956999999999]}},{"type":"Feature","properties":{"country_en":"Switzerland","name":"Flond","name_adm0":"Schweiz","name_adm1":"Kanton Graubünden","name_adm2":"Glenner","name_en":"Flond","iso":"CH"},"geometry":{"type":"Point","coordinates":[9.1652,46.76702]}},{"type":"Feature","properties":{"country_en":"Switzerland","name":"Eggersriet","name_adm0":"Schweiz","name_adm1":"Kanton St. Gallen","name_adm2":"Rorschach","name_en":"Eggersriet","iso":"CH"},"geometry":{"type":"Point","coordinates":[9.46901,47.44202]}},{"type":"Feature","properties":{"country_en":"Switzerland","name":"Foroglio","name_adm0":"Schweiz","name_adm1":"Cantone Ticino","name_adm2":"Vallemaggia","name_en":"Foroglio","iso":"CH"},"geometry":{"type":"Point","coordinates":[8.54727,46.37388]}},{"type":"Feature","properties":{"country_en":"Switzerland","name":"Frasco","name_adm0":"Schweiz","name_adm1":"Cantone Ticino","name_adm2":"Locarno","name_en":"Frasco","iso":"CH"},"geometry":{"type":"Point","coordinates":[8.80371,46.33917]}},{"type":"Feature","properties":{"country_en":"Switzerland","name":"Fornasette","name_adm0":"Schweiz","name_adm1":"Cantone Ticino","name_adm2":"Lugano","name_en":"Fornasette","iso":"CH"},"geometry":{"type":"Point","coordinates":[8.78333,45.96667]}},{"type":"Feature","properties":{"country_en":"Switzerland","name":"Flüeli","name_adm0":"Schweiz","name_adm1":"Kanton Obwalden","name_adm2":"Obwalden","name_en":"Flüeli","iso":"CH"},"geometry":{"type":"Point","coordinates":[8.26734,46.87097]}},{"type":"Feature","properties":{"country_en":"Switzerland","name":"Fontainemelon","name_adm0":"Schweiz","name_adm1":"Canton de Neuchâtel","name_adm2":"Val-De-Ruz","name_en":"Fontainemelon","iso":"CH"},"geometry":{"type":"Point","coordinates":[6.8868,47.05495]}},{"type":"Feature","properties":{"country_en":"Switzerland","name":"Fürstenaubruck","name_adm0":"Schweiz","name_adm1":"Kanton Graubünden","name_adm2":"Hinterrhein","name_en":"Fürstenaubruck","iso":"CH"},"geometry":{"type":"Point","coordinates":[9.45326,46.711859999999994]}},{"type":"Feature","properties":{"country_en":"Switzerland","name":"Furth","name_adm0":"Schweiz","name_adm1":"Kanton Graubünden","name_adm2":"Glenner","name_en":"Furth","iso":"CH"},"geometry":{"type":"Point","coordinates":[9.18343,46.70202]}},{"type":"Feature","properties":{"country_en":"Switzerland","name":"Gächlingen","name_adm0":"Schweiz","name_adm1":"Kanton Schaffhausen","name_adm2":"Oberklettgau","name_en":"Gächlingen","iso":"CH"},"geometry":{"type":"Point","coordinates":[8.49878,47.703289999999996]}},{"type":"Feature","properties":{"country_en":"Switzerland","name":"Gadmen","name_adm0":"Schweiz","name_adm1":"Kanton Graubünden","name_adm2":"Prättigau/Davos","name_en":"Gadmen","iso":"CH"},"geometry":{"type":"Point","coordinates":[9.90055,46.75255]}},{"type":"Feature","properties":{"country_en":"Switzerland","name":"Gerschnialp","name_adm0":"Schweiz","name_adm1":"Kanton Obwalden","name_adm2":"Obwalden","name_en":"Gerschnialp","iso":"CH"},"geometry":{"type":"Point","coordinates":[8.41667,46.81667]}},{"type":"Feature","properties":{"country_en":"Switzerland","name":"Gerra","name_adm0":"Schweiz","name_adm1":"Cantone Ticino","name_adm2":"Locarno","name_en":"Gerra","iso":"CH"},"geometry":{"type":"Point","coordinates":[8.77679,46.11668]}},{"type":"Feature","properties":{"country_en":"Switzerland","name":"Handegg","name_adm0":"Schweiz","name_adm1":"Kanton Bern","name_adm2":"Interlaken-Oberhasli","name_en":"Handeck","iso":"CH"},"geometry":{"type":"Point","coordinates":[8.30785,46.61205]}},{"type":"Feature","properties":{"country_en":"Switzerland","name":"Hasle","name_adm0":"Schweiz","name_adm1":"Kanton Luzern","name_adm2":"Entlebuch","name_en":"Hasle","iso":"CH"},"geometry":{"type":"Point","coordinates":[8.05326,46.97786]}},{"type":"Feature","properties":{"country_en":"Switzerland","name":"Gravesano","name_adm0":"Schweiz","name_adm1":"Cantone Ticino","name_adm2":"Lugano","name_en":"Gravesano","iso":"CH"},"geometry":{"type":"Point","coordinates":[8.91832,46.04208]}},{"type":"Feature","properties":{"country_en":"Switzerland","name":"Huttwil","name_adm0":"Schweiz","name_adm1":"Kanton Bern","name_adm2":"Oberaargau","name_en":"Huttwil","iso":"CH"},"geometry":{"type":"Point","coordinates":[7.862089999999999,47.11502]}},{"type":"Feature","properties":{"country_en":"Switzerland","name":"Hurden","name_adm0":"Schweiz","name_adm1":"Kanton Schwyz","name_adm2":"Höfe","name_en":"Hurden","iso":"CH"},"geometry":{"type":"Point","coordinates":[8.80403,47.21378]}},{"type":"Feature","properties":{"country_en":"Switzerland","name":"Hüttlingen","name_adm0":"Schweiz","name_adm1":"Kanton Thurgau","name_adm2":"Frauenfeld","name_en":"Hüttlingen","iso":"CH"},"geometry":{"type":"Point","coordinates":[8.980809999999998,47.57803]}},{"type":"Feature","properties":{"country_en":"Switzerland","name":"Im Kloster","name_adm0":"Schweiz","name_adm1":"Canton de Fribourg","name_adm2":"Sense","name_en":"Kloster","iso":"CH"},"geometry":{"type":"Point","coordinates":[7.2957,46.72448]}},{"type":"Feature","properties":{"country_en":"Switzerland","name":"Innertal","name_adm0":"Schweiz","name_adm1":"Kanton Schwyz","name_adm2":"March","name_en":"Innerthal","iso":"CH"},"geometry":{"type":"Point","coordinates":[8.91937,47.10607]}},{"type":"Feature","properties":{"country_en":"Switzerland","name":"Kandersteg","name_adm0":"Schweiz","name_adm1":"Kanton Bern","name_adm2":"Frutigen-Niedersimmental","name_en":"Kandersteg","iso":"CH"},"geometry":{"type":"Point","coordinates":[7.673259999999999,46.49467]}},{"type":"Feature","properties":{"country_en":"Switzerland","name":"Kalberhöni","name_adm0":"Schweiz","name_adm1":"Kanton Bern","name_adm2":"Obersimmental-Saanen","name_en":"Kalberhöni","iso":"CH"},"geometry":{"type":"Point","coordinates":[7.245310000000001,46.46104]}},{"type":"Feature","properties":{"country_en":"Switzerland","name":"Flaach","name_adm0":"Schweiz","name_adm1":"Kanton Zürich","name_adm2":"Andelfingen","name_en":"Flaach","iso":"CH"},"geometry":{"type":"Point","coordinates":[8.60633,47.57608]}},{"type":"Feature","properties":{"country_en":"Switzerland","name":"Kronbühl","name_adm0":"Schweiz","name_adm1":"Kanton St. Gallen","name_adm2":"Skt. Gallen","name_en":"Kronbühl","iso":"CH"},"geometry":{"type":"Point","coordinates":[9.3952,47.45954999999999]}},{"type":"Feature","properties":{"country_en":"Switzerland","name":"Luvis","name_adm0":"Schweiz","name_adm1":"Kanton Graubünden","name_adm2":"Glenner","name_en":"Luven","iso":"CH"},"geometry":{"type":"Point","coordinates":[9.19853,46.76111999999999]}},{"type":"Feature","properties":{"country_en":"Switzerland","name":"Luziensteig","name_adm0":"Schweiz","name_adm1":"Kanton Graubünden","name_adm2":"Landquart","name_en":"Skt Luzisteig","iso":"CH"},"geometry":{"type":"Point","coordinates":[9.52772,47.03585]}},{"type":"Feature","properties":{"country_en":"Switzerland","name":"Maisprach","name_adm0":"Schweiz","name_adm1":"Kanton Basel-Land","name_adm2":"Sissach","name_en":"Maisprach","iso":"CH"},"geometry":{"type":"Point","coordinates":[7.84705,47.52457999999999]}},{"type":"Feature","properties":{"country_en":"Switzerland","name":"Maladers","name_adm0":"Schweiz","name_adm1":"Kanton Graubünden","name_adm2":"Plessur","name_en":"Maladers","iso":"CH"},"geometry":{"type":"Point","coordinates":[9.55997,46.83578]}},{"type":"Feature","properties":{"country_en":"Switzerland","name":"Meisterschwanden","name_adm0":"Schweiz","name_adm1":"Kanton Aargau","name_adm2":"Lenzburg","name_en":"Meisterschwanden","iso":"CH"},"geometry":{"type":"Point","coordinates":[8.228669999999997,47.29489]}},{"type":"Feature","properties":{"country_en":"Switzerland","name":"Melchtal","name_adm0":"Schweiz","name_adm1":"Kanton Obwalden","name_adm2":"Obwalden","name_en":"Melchthal","iso":"CH"},"geometry":{"type":"Point","coordinates":[8.28986,46.83436]}},{"type":"Feature","properties":{"country_en":"Switzerland","name":"Monte","name_adm0":"Schweiz","name_adm1":"Cantone Ticino","name_adm2":"Leventina","name_en":"Monte","iso":"CH"},"geometry":{"type":"Point","coordinates":[8.63522,46.540119999999995]}},{"type":"Feature","properties":{"country_en":"Switzerland","name":"Munter","name_adm0":"Schweiz","name_adm1":"Kanton Graubünden","name_adm2":"Albula","name_en":"Munter","iso":"CH"},"geometry":{"type":"Point","coordinates":[9.53752,46.63911999999999]}},{"type":"Feature","properties":{"country_en":"Switzerland","name":"Mutten","name_adm0":"Schweiz","name_adm1":"Kanton Graubünden","name_adm2":"Albula","name_en":"Unter-Mutten","iso":"CH"},"geometry":{"type":"Point","coordinates":[9.49996,46.67812]}},{"type":"Feature","properties":{"country_en":"Switzerland","name":"Muotathal","name_adm0":"Schweiz","name_adm1":"Kanton Schwyz","name_adm2":"Schwyz","name_en":"Muotatal","iso":"CH"},"geometry":{"type":"Point","coordinates":[8.76499,46.97676]}},{"type":"Feature","properties":{"country_en":"Switzerland","name":"Papiermühle","name_adm0":"Schweiz","name_adm1":"Kanton Bern","name_adm2":"Bern-Mittelland","name_en":"Papiermühle","iso":"CH"},"geometry":{"type":"Point","coordinates":[7.4762,46.97444999999999]}},{"type":"Feature","properties":{"country_en":"Switzerland","name":"Oberembrach","name_adm0":"Schweiz","name_adm1":"Kanton Zürich","name_adm2":"Bülach","name_en":"Oberembrach","iso":"CH"},"geometry":{"type":"Point","coordinates":[8.61828,47.48779999999999]}},{"type":"Feature","properties":{"country_en":"Switzerland","name":"Partnun","name_adm0":"Schweiz","name_adm1":"Kanton Graubünden","name_adm2":"Prättigau/Davos","name_en":"Partnun","iso":"CH"},"geometry":{"type":"Point","coordinates":[9.85752,46.9956]}},{"type":"Feature","properties":{"country_en":"Switzerland","name":"Ponte Brolla","name_adm0":"Schweiz","name_adm1":"Cantone Ticino","name_adm2":"Locarno","name_en":"Ponte Brolla","iso":"CH"},"geometry":{"type":"Point","coordinates":[8.75281,46.18715]}},{"type":"Feature","properties":{"country_en":"Switzerland","name":"Perrefitte","name_adm0":"Schweiz","name_adm1":"Kanton Bern","name_adm2":"Jura Bernois","name_en":"Perrefitte","iso":"CH"},"geometry":{"type":"Point","coordinates":[7.341609999999999,47.275679999999994]}},{"type":"Feature","properties":{"country_en":"Switzerland","name":"Personico","name_adm0":"Schweiz","name_adm1":"Cantone Ticino","name_adm2":"Leventina","name_en":"Personico","iso":"CH"},"geometry":{"type":"Point","coordinates":[8.91609,46.37204]}},{"type":"Feature","properties":{"country_en":"Switzerland","name":"Rodersdorf","name_adm0":"Schweiz","name_adm1":"Kanton Solothurn","name_adm2":"Dorneck","name_en":"Rodersdorf","iso":"CH"},"geometry":{"type":"Point","coordinates":[7.457599999999999,47.4822]}},{"type":"Feature","properties":{"country_en":"Switzerland","name":"Riedlig","name_adm0":"Schweiz","name_adm1":"Kanton Uri","name_adm2":"Uri","name_en":"Riedlig","iso":"CH"},"geometry":{"type":"Point","coordinates":[8.73333,46.9]}},{"type":"Feature","properties":{"country_en":"Switzerland","name":"Rossinière","name_adm0":"Schweiz","name_adm1":"Canton de Vaud","name_adm2":"Pays-d'Enhaut","name_en":"Rossinière","iso":"CH"},"geometry":{"type":"Point","coordinates":[7.082049999999999,46.46694999999999]}},{"type":"Feature","properties":{"country_en":"Switzerland","name":"Roticcio","name_adm0":"Schweiz","name_adm1":"Kanton Graubünden","name_adm2":"Maloja/Maloggia","name_en":"Rotticcio","iso":"CH"},"geometry":{"type":"Point","coordinates":[9.63735,46.36075]}},{"type":"Feature","properties":{"country_en":"Switzerland","name":"Rotonda","name_adm0":"Schweiz","name_adm1":"Cantone Ticino","name_adm2":"Vallemaggia","name_en":"Rotunda","iso":"CH"},"geometry":{"type":"Point","coordinates":[8.61358,46.28712]}},{"type":"Feature","properties":{"country_en":"Switzerland","name":"Rüegsauschachen","name_adm0":"Schweiz","name_adm1":"Kanton Bern","name_adm2":"Emmental","name_en":"Rüegsauschachen","iso":"CH"},"geometry":{"type":"Point","coordinates":[7.664369999999999,47.02047]}},{"type":"Feature","properties":{"country_en":"Switzerland","name":"Ruswil","name_adm0":"Schweiz","name_adm1":"Kanton Luzern","name_adm2":"Sursee","name_en":"Ruswil","iso":"CH"},"geometry":{"type":"Point","coordinates":[8.12645,47.08425]}},{"type":"Feature","properties":{"country_en":"Switzerland","name":"Rutihof","name_adm0":"Schweiz","name_adm1":"Kanton Zürich","name_adm2":"Zürich","name_en":"Rutihof","iso":"CH"},"geometry":{"type":"Point","coordinates":[8.47928,47.41444]}},{"type":"Feature","properties":{"country_en":"Switzerland","name":"Rütli","name_adm0":"Schweiz","name_adm1":"Kanton Uri","name_adm2":"Uri","name_en":"Rütli","iso":"CH"},"geometry":{"type":"Point","coordinates":[8.592679999999998,46.968509999999995]}},{"type":"Feature","properties":{"country_en":"Switzerland","name":"Savosa Paese","name_adm0":"Schweiz","name_adm1":"Cantone Ticino","name_adm2":"Lugano","name_en":"Savosa","iso":"CH"},"geometry":{"type":"Point","coordinates":[8.91667,46.01667]}},{"type":"Feature","properties":{"country_en":"Switzerland","name":"San Carlo","name_adm0":"Schweiz","name_adm1":"Cantone Ticino","name_adm2":"Vallemaggia","name_en":"San Carlo","iso":"CH"},"geometry":{"type":"Point","coordinates":[8.61738,46.4114]}},{"type":"Feature","properties":{"country_en":"Switzerland","name":"San Gions","name_adm0":"Schweiz","name_adm1":"Kanton Graubünden","name_adm2":"Glenner","name_en":"S Gion","iso":"CH"},"geometry":{"type":"Point","coordinates":[8.83333,46.61667]}},{"type":"Feature","properties":{"country_en":"Switzerland","name":"Sangernboden","name_adm0":"Schweiz","name_adm1":"Kanton Bern","name_adm2":"Bern-Mittelland","name_en":"Sangernboden","iso":"CH"},"geometry":{"type":"Point","coordinates":[7.35187,46.7133]}},{"type":"Feature","properties":{"country_en":"Switzerland","name":"St. Gallenkappel","name_adm0":"Schweiz","name_adm1":"Kanton St. Gallen","name_adm2":"See","name_en":"St. Gallenkappel","iso":"CH"},"geometry":{"type":"Point","coordinates":[8.97388,47.24668]}},{"type":"Feature","properties":{"country_en":"Switzerland","name":"Sâles","name_adm0":"Schweiz","name_adm1":"Canton de Fribourg","name_adm2":"La Gruyère","name_en":"Sâles","iso":"CH"},"geometry":{"type":"Point","coordinates":[6.97363,46.63763]}},{"type":"Feature","properties":{"country_en":"Switzerland","name":"Schwellbrunn","name_adm0":"Schweiz","name_adm1":"Kanton Appenzell Ausserrhoden","name_adm2":"Hinterland","name_en":"Schwellbrunn","iso":"CH"},"geometry":{"type":"Point","coordinates":[9.24894,47.35255]}},{"type":"Feature","properties":{"country_en":"Switzerland","name":"Schwyz","name_adm0":"Schweiz","name_adm1":"Kanton Schwyz","name_adm2":"Schwyz","name_en":"Schwyz","iso":"CH"},"geometry":{"type":"Point","coordinates":[8.65611,47.02786]}},{"type":"Feature","properties":{"country_en":"Switzerland","name":"Schwendikaltbad","name_adm0":"Schweiz","name_adm1":"Kanton Obwalden","name_adm2":"Obwalden","name_en":"Schwendibad","iso":"CH"},"geometry":{"type":"Point","coordinates":[8.11667,46.9]}},{"type":"Feature","properties":{"country_en":"Switzerland","name":"Seegräben","name_adm0":"Schweiz","name_adm1":"Kanton Zürich","name_adm2":"Hinwil","name_en":"Seegräben","iso":"CH"},"geometry":{"type":"Point","coordinates":[8.77131,47.34124]}},{"type":"Feature","properties":{"country_en":"Switzerland","name":"Sigirino","name_adm0":"Schweiz","name_adm1":"Cantone Ticino","name_adm2":"Lugano","name_en":"Sigirino","iso":"CH"},"geometry":{"type":"Point","coordinates":[8.91472,46.08165]}},{"type":"Feature","properties":{"country_en":"Switzerland","name":"Solothurn","name_adm0":"Schweiz","name_adm1":"Kanton Solothurn","name_adm2":"Solothurn","name_en":"Solothurn","iso":"CH"},"geometry":{"type":"Point","coordinates":[7.53714,47.20791]}},{"type":"Feature","properties":{"country_en":"Switzerland","name":"Thalheim","name_adm0":"Schweiz","name_adm1":"Kanton Aargau","name_adm2":"Brugg","name_en":"Thalheim","iso":"CH"},"geometry":{"type":"Point","coordinates":[8.10467,47.43753999999999]}},{"type":"Feature","properties":{"country_en":"Switzerland","name":"Tanay","name_adm0":"Schweiz","name_adm1":"Canton de Valais","name_adm2":"Monthey","name_en":"Taney","iso":"CH"},"geometry":{"type":"Point","coordinates":[6.83041,46.34503]}},{"type":"Feature","properties":{"country_en":"Switzerland","name":"Tinzen","name_adm0":"Schweiz","name_adm1":"Kanton Graubünden","name_adm2":"Albula","name_en":"Tinizong","iso":"CH"},"geometry":{"type":"Point","coordinates":[9.61732,46.58241]}},{"type":"Feature","properties":{"country_en":"Switzerland","name":"Tschenten","name_adm0":"Schweiz","name_adm1":"Kanton Bern","name_adm2":"Frutigen-Niedersimmental","name_en":"Achseten","iso":"CH"},"geometry":{"type":"Point","coordinates":[7.54909,46.50367]}},{"type":"Feature","properties":{"country_en":"Switzerland","name":"Trient","name_adm0":"Schweiz","name_adm1":"Canton de Valais","name_adm2":"Martigny","name_en":"Trient","iso":"CH"},"geometry":{"type":"Point","coordinates":[6.994009999999999,46.05165]}},{"type":"Feature","properties":{"country_en":"Switzerland","name":"Tschingeren","name_adm0":"Schweiz","name_adm1":"Canton de Valais","name_adm2":"Leuk","name_en":"Tschingern","iso":"CH"},"geometry":{"type":"Point","coordinates":[7.62829,46.3301]}},{"type":"Feature","properties":{"country_en":"Switzerland","name":"Uffikon","name_adm0":"Schweiz","name_adm1":"Kanton Luzern","name_adm2":"Willisau","name_en":"Uffikon","iso":"CH"},"geometry":{"type":"Point","coordinates":[8.01808,47.21096]}},{"type":"Feature","properties":{"country_en":"Switzerland","name":"Tschuggen","name_adm0":"Schweiz","name_adm1":"Kanton Graubünden","name_adm2":"Prättigau/Davos","name_en":"Tschugen","iso":"CH"},"geometry":{"type":"Point","coordinates":[9.91984,46.78676999999999]}},{"type":"Feature","properties":{"country_en":"Switzerland","name":"Turahus","name_adm0":"Schweiz","name_adm1":"Kanton Graubünden","name_adm2":"Glenner","name_en":"Beim Thurm","iso":"CH"},"geometry":{"type":"Point","coordinates":[9.28333,46.63333]}},{"type":"Feature","properties":{"country_en":"Switzerland","name":"Turbenthal","name_adm0":"Schweiz","name_adm1":"Kanton Zürich","name_adm2":"Winterthur","name_en":"Turbental","iso":"CH"},"geometry":{"type":"Point","coordinates":[8.84629,47.43632999999999]}},{"type":"Feature","properties":{"country_en":"Switzerland","name":"Valzeina","name_adm0":"Schweiz","name_adm1":"Kanton Graubünden","name_adm2":"Landquart","name_en":"Valzeina","iso":"CH"},"geometry":{"type":"Point","coordinates":[9.60268,46.9502]}},{"type":"Feature","properties":{"country_en":"Switzerland","name":"Vanescha","name_adm0":"Schweiz","name_adm1":"Kanton Graubünden","name_adm2":"Glenner","name_en":"Vanescha","iso":"CH"},"geometry":{"type":"Point","coordinates":[9.06561,46.61696]}},{"type":"Feature","properties":{"country_en":"Switzerland","name":"Vasön","name_adm0":"Schweiz","name_adm1":"Kanton St. Gallen","name_adm2":"Sargans","name_en":"Vasön","iso":"CH"},"geometry":{"type":"Point","coordinates":[9.47732,46.95282999999999]}},{"type":"Feature","properties":{"country_en":"Switzerland","name":"Wolhusen","name_adm0":"Schweiz","name_adm1":"Kanton Luzern","name_adm2":"Sursee","name_en":"Wolhusen","iso":"CH"},"geometry":{"type":"Point","coordinates":[8.05667,47.0532]}},{"type":"Feature","properties":{"country_en":"Switzerland","name":"Wollishofen","name_adm0":"Schweiz","name_adm1":"Kanton Zürich","name_adm2":"Zürich","name_en":"Wollishofen","iso":"CH"},"geometry":{"type":"Point","coordinates":[8.53134,47.3401]}},{"type":"Feature","properties":{"country_en":"Switzerland","name":"Zug","name_adm0":"Schweiz","name_adm1":"Kanton Zug","name_adm2":"Zug","name_en":"Zug","iso":"CH"},"geometry":{"type":"Point","coordinates":[8.51744,47.17242]}},{"type":"Feature","properties":{"country_en":"Switzerland","name":"Zollikon","name_adm0":"Schweiz","name_adm1":"Kanton Zürich","name_adm2":"Meilen","name_en":"Zollikon","iso":"CH"},"geometry":{"type":"Point","coordinates":[8.57407,47.34018999999999]}},{"type":"Feature","properties":{"country_en":"Switzerland","name":"Rueyres-les-Prés","name_adm0":"Schweiz","name_adm1":"Canton de Fribourg","name_adm2":"La Broye","name_en":"Rueyres-les-Prés","iso":"CH"},"geometry":{"type":"Point","coordinates":[6.91113,46.85705]}},{"type":"Feature","properties":{"country_en":"Switzerland","name":"Münchenwiler","name_adm0":"Schweiz","name_adm1":"Kanton Bern","name_adm2":"Bern-Mittelland","name_en":"Münchenwiler","iso":"CH"},"geometry":{"type":"Point","coordinates":[7.12556,46.91334]}},{"type":"Feature","properties":{"country_en":"Switzerland","name":"Rochefort","name_adm0":"Schweiz","name_adm1":"Canton de Neuchâtel","name_adm2":"Boudry","name_en":"Rochefort","iso":"CH"},"geometry":{"type":"Point","coordinates":[6.80381,46.98653]}},{"type":"Feature","properties":{"country_en":"Switzerland","name":"Mandach","name_adm0":"Schweiz","name_adm1":"Kanton Aargau","name_adm2":"Brugg","name_en":"Mandach","iso":"CH"},"geometry":{"type":"Point","coordinates":[8.18769,47.55152]}},{"type":"Feature","properties":{"country_en":"Switzerland","name":"Duggingen","name_adm0":"Schweiz","name_adm1":"Kanton Basel-Land","name_adm2":"Laufen","name_en":"Duggingen","iso":"CH"},"geometry":{"type":"Point","coordinates":[7.60511,47.4518]}},{"type":"Feature","properties":{"country_en":"Switzerland","name":"Rietheim","name_adm0":"Schweiz","name_adm1":"Kanton Aargau","name_adm2":"Zurzach","name_en":"Rietheim","iso":"CH"},"geometry":{"type":"Point","coordinates":[8.28333,47.6]}},{"type":"Feature","properties":{"country_en":"Switzerland","name":"Niedergrächen","name_adm0":"Schweiz","name_adm1":"Canton de Valais","name_adm2":"Visp","name_en":"Niedergrächen","iso":"CH"},"geometry":{"type":"Point","coordinates":[7.826707,46.19213]}},{"type":"Feature","properties":{"country_en":"Switzerland","name":"Ueken","name_adm0":"Schweiz","name_adm1":"Kanton Aargau","name_adm2":"Laufenburg","name_en":"Ueken","iso":"CH"},"geometry":{"type":"Point","coordinates":[8.04345,47.48536]}},{"type":"Feature","properties":{"country_en":"Switzerland","name":"Elfingen","name_adm0":"Schweiz","name_adm1":"Kanton Aargau","name_adm2":"Brugg","name_en":"Elfingen","iso":"CH"},"geometry":{"type":"Point","coordinates":[8.10219,47.50997999999999]}},{"type":"Feature","properties":{"country_en":"Switzerland","name":"Leuggern","name_adm0":"Schweiz","name_adm1":"Kanton Aargau","name_adm2":"Zurzach","name_en":"Leuggern","iso":"CH"},"geometry":{"type":"Point","coordinates":[8.21945,47.58195]}},{"type":"Feature","properties":{"country_en":"Switzerland","name":"Lachen","name_adm0":"Schweiz","name_adm1":"Kanton St. Gallen","name_adm2":"Skt. Gallen","name_en":"Lachen","iso":"CH"},"geometry":{"type":"Point","coordinates":[9.58479,47.44245]}},{"type":"Feature","properties":{"country_en":"Switzerland","name":"Büttenhardt","name_adm0":"Schweiz","name_adm1":"Kanton Schaffhausen","name_adm2":"Reiat","name_en":"Büttenhardt","iso":"CH"},"geometry":{"type":"Point","coordinates":[8.6533,47.75706]}},{"type":"Feature","properties":{"country_en":"Switzerland","name":"Baldegg","name_adm0":"Schweiz","name_adm1":"Kanton Luzern","name_adm2":"Hochdorf","name_en":"Baldegg","iso":"CH"},"geometry":{"type":"Point","coordinates":[8.28077,47.1833]}},{"type":"Feature","properties":{"country_en":"Switzerland","name":"Löhningen","name_adm0":"Schweiz","name_adm1":"Kanton Schaffhausen","name_adm2":"Oberklettgau","name_en":"Löhningen","iso":"CH"},"geometry":{"type":"Point","coordinates":[8.55236,47.701209999999996]}},{"type":"Feature","properties":{"country_en":"Switzerland","name":"Esslingen","name_adm0":"Schweiz","name_adm1":"Kanton Zürich","name_adm2":"Uster","name_en":"Esslingen","iso":"CH"},"geometry":{"type":"Point","coordinates":[8.710379999999999,47.28325]}},{"type":"Feature","properties":{"country_en":"Switzerland","name":"Winterberg","name_adm0":"Schweiz","name_adm1":"Kanton Zürich","name_adm2":"Pfäffikon","name_en":"Winterberg","iso":"CH"},"geometry":{"type":"Point","coordinates":[8.69428,47.45651999999999]}},{"type":"Feature","properties":{"country_en":"Switzerland","name":"Forch","name_adm0":"Schweiz","name_adm1":"Kanton Zürich","name_adm2":"Meilen","name_en":"Forch","iso":"CH"},"geometry":{"type":"Point","coordinates":[8.90212,47.276759999999996]}},{"type":"Feature","properties":{"country_en":"Switzerland","name":"Wermatswil","name_adm0":"Schweiz","name_adm1":"Kanton Zürich","name_adm2":"Uster","name_en":"Wermatswil","iso":"CH"},"geometry":{"type":"Point","coordinates":[8.741519999999998,47.36408]}},{"type":"Feature","properties":{"country_en":"Switzerland","name":"Guntershausen","name_adm0":"Schweiz","name_adm1":"Kanton Thurgau","name_adm2":"Frauenfeld","name_en":"Guntershausen bei Aadorf","iso":"CH"},"geometry":{"type":"Point","coordinates":[8.91825,47.47548999999999]}},{"type":"Feature","properties":{"country_en":"Switzerland","name":"Friltschen","name_adm0":"Schweiz","name_adm1":"Kanton Thurgau","name_adm2":"Weinfelden","name_en":"Friltschen","iso":"CH"},"geometry":{"type":"Point","coordinates":[9.08633,47.54001]}},{"type":"Feature","properties":{"country_en":"Switzerland","name":"Origlio","name_adm0":"Schweiz","name_adm1":"Cantone Ticino","name_adm2":"Lugano","name_en":"Origlio","iso":"CH"},"geometry":{"type":"Point","coordinates":[8.94369,46.05522]}},{"type":"Feature","properties":{"country_en":"Switzerland","name":"Vaglio","name_adm0":"Schweiz","name_adm1":"Cantone Ticino","name_adm2":"Lugano","name_en":"Vaglio","iso":"CH"},"geometry":{"type":"Point","coordinates":[8.95847,46.06222]}},{"type":"Feature","properties":{"country_en":"Switzerland","name":"Davos Platz","name_adm0":"Schweiz","name_adm1":"Kanton Graubünden","name_adm2":"Prättigau/Davos","name_en":"Davos Platz","iso":"CH"},"geometry":{"type":"Point","coordinates":[9.81756,46.796079999999996]}},{"type":"Feature","properties":{"country_en":"Switzerland","name":"Kleinwangen","name_adm0":"Schweiz","name_adm1":"Kanton Solothurn","name_adm2":"Olten","name_en":"Kleinwangen","iso":"CH"},"geometry":{"type":"Point","coordinates":[8.29455,47.19496]}},{"type":"Feature","properties":{"country_en":"Switzerland","name":"Laufen am Rheinfall","name_adm0":"Schweiz","name_adm1":"Kanton Zürich","name_adm2":"Andelfingen","name_en":"Laufen am Rheinfall","iso":"CH"},"geometry":{"type":"Point","coordinates":[8.615169,47.675191]}},{"type":"Feature","properties":{"country_en":"Switzerland","name":"Dielsdorf","name_adm0":"Schweiz","name_adm1":"Kanton Zürich","name_adm2":"Dielsdorf","name_en":"Dielsdorf","iso":"CH"},"geometry":{"type":"Point","coordinates":[8.45631,47.47180999999999]}},{"type":"Feature","properties":{"country_en":"Switzerland","name":"Entremont","name_adm0":"Schweiz","name_adm1":"Canton de Valais","name_adm2":"Entremont","name_en":"Entremont","iso":"CH"},"geometry":{"type":"Point","coordinates":[7.338405999999999,45.964037999999995]}},{"type":"Feature","properties":{"country_en":"Switzerland","name":"Moesa","name_adm0":"Schweiz","name_adm1":"Kanton Graubünden","name_adm2":"Moesa","name_en":"Moesa","iso":"CH"},"geometry":{"type":"Point","coordinates":[9.213581,46.290019]}},{"type":"Feature","properties":{"country_en":"Switzerland","name":"Rolle","name_adm0":"Schweiz","name_adm1":"Canton de Vaud","name_adm2":"Rolle","name_en":"Rolle","iso":"CH"},"geometry":{"type":"Point","coordinates":[6.357349999999999,46.485687]}},{"type":"Feature","properties":{"country_en":"Switzerland","name":"Vionnaz","name_adm0":"Schweiz","name_adm1":"Canton de Valais","name_adm2":"Monthey","name_en":"Vionnaz","iso":"CH"},"geometry":{"type":"Point","coordinates":[6.90062,46.31101]}},{"type":"Feature","properties":{"country_en":"Switzerland","name":"Eien","name_adm0":"Schweiz","name_adm1":"Kanton Aargau","name_adm2":"Zurzach","name_en":"Eien","iso":"CH"},"geometry":{"type":"Point","coordinates":[8.23837,47.5617]}},{"type":"Feature","properties":{"country_en":"Switzerland","name":"Eigi","name_adm0":"Schweiz","name_adm1":"Kanton Zürich","name_adm2":"Affoltern","name_en":"Eigi","iso":"CH"},"geometry":{"type":"Point","coordinates":[8.44845,47.25273]}},{"type":"Feature","properties":{"country_en":"Switzerland","name":"Fuhren","name_adm0":"Schweiz","name_adm1":"Kanton Bern","name_adm2":"Interlaken-Oberhasli","name_en":"Fuhren","iso":"CH"},"geometry":{"type":"Point","coordinates":[8.33409,46.73107]}},{"type":"Feature","properties":{"country_en":"Switzerland","name":"Kirchbühl","name_adm0":"Schweiz","name_adm1":"Kanton Luzern","name_adm2":"Sursee","name_en":"Kirchbühl","iso":"CH"},"geometry":{"type":"Point","coordinates":[8.18737,47.14498]}},{"type":"Feature","properties":{"country_en":"Switzerland","name":"Kirchleerau","name_adm0":"Schweiz","name_adm1":"Kanton Aargau","name_adm2":"Zofingen","name_en":"Kirchleerau","iso":"CH"},"geometry":{"type":"Point","coordinates":[8.07405,47.27723999999999]}},{"type":"Feature","properties":{"country_en":"Switzerland","name":"Kleingurmels","name_adm0":"Schweiz","name_adm1":"Canton de Fribourg","name_adm2":"See/Lac","name_en":"Kleingurmels","iso":"CH"},"geometry":{"type":"Point","coordinates":[7.18741,46.88617]}},{"type":"Feature","properties":{"country_en":"Switzerland","name":"La Corbatière","name_adm0":"Schweiz","name_adm1":"Canton de Neuchâtel","name_adm2":"La Chaux-De-Fonds","name_en":"La Corbatière","iso":"CH"},"geometry":{"type":"Point","coordinates":[6.83603,47.06892]}},{"type":"Feature","properties":{"country_en":"Switzerland","name":"La Corbaz","name_adm0":"Schweiz","name_adm1":"Canton de Fribourg","name_adm2":"La Sarine","name_en":"La Corbaz","iso":"CH"},"geometry":{"type":"Point","coordinates":[7.11586,46.84041]}},{"type":"Feature","properties":{"country_en":"Switzerland","name":"La Vraconnaz","name_adm0":"Schweiz","name_adm1":"Canton de Vaud","name_adm2":"Grandson","name_en":"La Vraconnaz","iso":"CH"},"geometry":{"type":"Point","coordinates":[6.48366,46.84265]}},{"type":"Feature","properties":{"country_en":"Switzerland","name":"Le Borgeaud","name_adm0":"Schweiz","name_adm1":"Canton de Valais","name_adm2":"Martigny","name_en":"Le Borgeaud","iso":"CH"},"geometry":{"type":"Point","coordinates":[7.06672,46.07319]}},{"type":"Feature","properties":{"country_en":"Switzerland","name":"Oberhöri","name_adm0":"Schweiz","name_adm1":"Kanton Zürich","name_adm2":"Bülach","name_en":"Oberhöri","iso":"CH"},"geometry":{"type":"Point","coordinates":[8.73402,47.28506]}},{"type":"Feature","properties":{"country_en":"Switzerland","name":"Toussen","name_adm0":"Schweiz","name_adm1":"Kanton Zürich","name_adm2":"Affoltern","name_en":"Toussen","iso":"CH"},"geometry":{"type":"Point","coordinates":[8.43013,47.26574]}},{"type":"Feature","properties":{"country_en":"Switzerland","name":"Wetzwil","name_adm0":"Schweiz","name_adm1":"Kanton Zürich","name_adm2":"Meilen","name_en":"Wetzwil","iso":"CH"},"geometry":{"type":"Point","coordinates":[8.63119,47.29523]}},{"type":"Feature","properties":{"country_en":"Switzerland","name":"Bière","name_adm0":"Schweiz","name_adm1":"Canton de Vaud","name_adm2":"Aubonne","name_en":"Bière","iso":"CH"},"geometry":{"type":"Point","coordinates":[6.333619999999999,46.537609999999994]}},{"type":"Feature","properties":{"country_en":"Switzerland","name":"Trüttlikon","name_adm0":"Schweiz","name_adm1":"Kanton Thurgau","name_adm2":"Frauenfeld","name_en":"Trüttlikon","iso":"CH"},"geometry":{"type":"Point","coordinates":[8.81969,47.59683]}},{"type":"Feature","properties":{"country_en":"Switzerland","name":"Tujetsch","name_adm0":"Schweiz","name_adm1":"Kanton Graubünden","name_adm2":"Glenner","name_en":"Tujetsch","iso":"CH"},"geometry":{"type":"Point","coordinates":[9.55,46.96667]}},{"type":"Feature","properties":{"country_en":"Switzerland","name":"Ausser Latterbach","name_adm0":"Schweiz","name_adm1":"Kanton Bern","name_adm2":"Frutigen-Niedersimmental","name_en":"Ausser Latterbach","iso":"CH"},"geometry":{"type":"Point","coordinates":[7.597499999999999,46.66839]}},{"type":"Feature","properties":{"country_en":"Switzerland","name":"Attiswil","name_adm0":"Schweiz","name_adm1":"Kanton Bern","name_adm2":"Oberaargau","name_en":"Attiswil","iso":"CH"},"geometry":{"type":"Point","coordinates":[7.61353,47.24673]}},{"type":"Feature","properties":{"country_en":"Switzerland","name":"Andwil","name_adm0":"Schweiz","name_adm1":"Kanton St. Gallen","name_adm2":"Gossau","name_en":"Andwil","iso":"CH"},"geometry":{"type":"Point","coordinates":[9.27636,47.43855]}},{"type":"Feature","properties":{"country_en":"Switzerland","name":"Bumbach","name_adm0":"Schweiz","name_adm1":"Kanton Bern","name_adm2":"Emmental","name_en":"Bumbach","iso":"CH"},"geometry":{"type":"Point","coordinates":[7.8999999999999995,46.8]}},{"type":"Feature","properties":{"country_en":"Switzerland","name":"Chevenez","name_adm0":"Schweiz","name_adm1":"Canton de Jura","name_adm2":"Porrentruy","name_en":"Chevenez","iso":"CH"},"geometry":{"type":"Point","coordinates":[6.999949999999999,47.39172]}},{"type":"Feature","properties":{"country_en":"Switzerland","name":"Cordast","name_adm0":"Schweiz","name_adm1":"Canton de Fribourg","name_adm2":"See/Lac","name_en":"Cordast","iso":"CH"},"geometry":{"type":"Point","coordinates":[7.15212,46.87598]}},{"type":"Feature","properties":{"country_en":"Switzerland","name":"Echallens","name_adm0":"Schweiz","name_adm1":"Canton de Vaud","name_adm2":"Echallens","name_en":"Echallens","iso":"CH"},"geometry":{"type":"Point","coordinates":[6.63317,46.6413]}},{"type":"Feature","properties":{"country_en":"Switzerland","name":"Densbüren","name_adm0":"Schweiz","name_adm1":"Kanton Aargau","name_adm2":"Aarau","name_en":"Densbüren","iso":"CH"},"geometry":{"type":"Point","coordinates":[8.0533,47.4526]}},{"type":"Feature","properties":{"country_en":"Switzerland","name":"Eriswil","name_adm0":"Schweiz","name_adm1":"Kanton Bern","name_adm2":"Oberaargau","name_en":"Eriswil","iso":"CH"},"geometry":{"type":"Point","coordinates":[7.851489999999999,47.07816]}},{"type":"Feature","properties":{"country_en":"Switzerland","name":"Eriz","name_adm0":"Schweiz","name_adm1":"Kanton Bern","name_adm2":"Thun","name_en":"Enz","iso":"CH"},"geometry":{"type":"Point","coordinates":[7.77102,46.78773]}},{"type":"Feature","properties":{"country_en":"Switzerland","name":"Feydey","name_adm0":"Schweiz","name_adm1":"Canton de Vaud","name_adm2":"Aigle","name_en":"Le Feydey","iso":"CH"},"geometry":{"type":"Point","coordinates":[7.00499,46.347159999999995]}},{"type":"Feature","properties":{"country_en":"Switzerland","name":"Glattbrugg","name_adm0":"Schweiz","name_adm1":"Kanton Zürich","name_adm2":"Bülach","name_en":"Glattburg","iso":"CH"},"geometry":{"type":"Point","coordinates":[8.562719999999999,47.43129999999999]}},{"type":"Feature","properties":{"country_en":"Switzerland","name":"Grundbach","name_adm0":"Schweiz","name_adm1":"Kanton Bern","name_adm2":"Thun","name_en":"Grundbach","iso":"CH"},"geometry":{"type":"Point","coordinates":[7.48824,46.7696]}},{"type":"Feature","properties":{"country_en":"Switzerland","name":"Haudères","name_adm0":"Schweiz","name_adm1":"Canton de Valais","name_adm2":"Hérens","name_en":"Haudères","iso":"CH"},"geometry":{"type":"Point","coordinates":[7.508149999999999,46.08398]}},{"type":"Feature","properties":{"country_en":"Switzerland","name":"Heimenschwand","name_adm0":"Schweiz","name_adm1":"Kanton Bern","name_adm2":"Thun","name_en":"Heimenschwand","iso":"CH"},"geometry":{"type":"Point","coordinates":[7.69474,46.82868]}},{"type":"Feature","properties":{"country_en":"Switzerland","name":"Jouxtens-Mézery","name_adm0":"Schweiz","name_adm1":"Canton de Vaud","name_adm2":"Lausanne","name_en":"Jouxtens","iso":"CH"},"geometry":{"type":"Point","coordinates":[6.596049999999999,46.55185]}},{"type":"Feature","properties":{"country_en":"Switzerland","name":"La Reuchenette","name_adm0":"Schweiz","name_adm1":"Kanton Bern","name_adm2":"Jura Bernois","name_en":"Reuchenette","iso":"CH"},"geometry":{"type":"Point","coordinates":[7.246629999999999,47.19047]}},{"type":"Feature","properties":{"country_en":"Switzerland","name":"La Plaine","name_adm0":"Schweiz","name_adm1":"Canton de Genève","name_adm2":"Genève","name_en":"La Pleine","iso":"CH"},"geometry":{"type":"Point","coordinates":[6.00111,46.17732999999999]}},{"type":"Feature","properties":{"country_en":"Switzerland","name":"Le Chatelard","name_adm0":"Schweiz","name_adm1":"Canton de Vaud","name_adm2":"Vevey","name_en":"Le Chatelard","iso":"CH"},"geometry":{"type":"Point","coordinates":[6.89908,46.44527]}},{"type":"Feature","properties":{"country_en":"Switzerland","name":"Martigny-Bourg","name_adm0":"Schweiz","name_adm1":"Canton de Valais","name_adm2":"Martigny","name_en":"Martigny-Bourg","iso":"CH"},"geometry":{"type":"Point","coordinates":[7.06369,46.09061]}},{"type":"Feature","properties":{"country_en":"Switzerland","name":"Mont-la-Ville","name_adm0":"Schweiz","name_adm1":"Canton de Vaud","name_adm2":"Cossonay","name_en":"Mont-la-Ville","iso":"CH"},"geometry":{"type":"Point","coordinates":[6.40898,46.646609999999995]}},{"type":"Feature","properties":{"country_en":"Switzerland","name":"Mörel","name_adm0":"Schweiz","name_adm1":"Canton de Valais","name_adm2":"Raron","name_en":"Mörel","iso":"CH"},"geometry":{"type":"Point","coordinates":[8.04332,46.35499]}},{"type":"Feature","properties":{"country_en":"Switzerland","name":"Morgarten","name_adm0":"Schweiz","name_adm1":"Kanton Zug","name_adm2":"Zug","name_en":"Morgarten","iso":"CH"},"geometry":{"type":"Point","coordinates":[8.65518,47.09618999999999]}},{"type":"Feature","properties":{"country_en":"Switzerland","name":"Nänikon","name_adm0":"Schweiz","name_adm1":"Kanton Zürich","name_adm2":"Uster","name_en":"Nänikon","iso":"CH"},"geometry":{"type":"Point","coordinates":[8.68894,47.36975]}},{"type":"Feature","properties":{"country_en":"Switzerland","name":"Neumühle","name_adm0":"Schweiz","name_adm1":"Kanton Bern","name_adm2":"Emmental","name_en":"Neumühle","iso":"CH"},"geometry":{"type":"Point","coordinates":[7.749999999999999,46.96667]}},{"type":"Feature","properties":{"country_en":"Switzerland","name":"Nuschlau","name_adm0":"Schweiz","name_adm1":"Kanton Schwyz","name_adm2":"Schwyz","name_en":"Lustenau","iso":"CH"},"geometry":{"type":"Point","coordinates":[8.73815,46.97619]}},{"type":"Feature","properties":{"country_en":"Switzerland","name":"Oron-la-Ville","name_adm0":"Schweiz","name_adm1":"Canton de Vaud","name_adm2":"Oron","name_en":"Oron-la-Ville","iso":"CH"},"geometry":{"type":"Point","coordinates":[6.8273,46.57181]}},{"type":"Feature","properties":{"country_en":"Switzerland","name":"Olivone","name_adm0":"Schweiz","name_adm1":"Cantone Ticino","name_adm2":"Blenio","name_en":"Olivone","iso":"CH"},"geometry":{"type":"Point","coordinates":[8.94356,46.52963999999999]}},{"type":"Feature","properties":{"country_en":"Switzerland","name":"Rickenbach","name_adm0":"Schweiz","name_adm1":"Kanton Zürich","name_adm2":"Winterthur","name_en":"Rickenbach","iso":"CH"},"geometry":{"type":"Point","coordinates":[8.79654,47.55191]}},{"type":"Feature","properties":{"country_en":"Switzerland","name":"Riedbach","name_adm0":"Schweiz","name_adm1":"Kanton Bern","name_adm2":"Bern-Mittelland","name_en":"Riedbach","iso":"CH"},"geometry":{"type":"Point","coordinates":[7.33449,46.94118]}},{"type":"Feature","properties":{"country_en":"Switzerland","name":"Savigny","name_adm0":"Schweiz","name_adm1":"Canton de Vaud","name_adm2":"Lavaux","name_en":"Savigny","iso":"CH"},"geometry":{"type":"Point","coordinates":[6.73222,46.53844]}},{"type":"Feature","properties":{"country_en":"Switzerland","name":"Wahlen","name_adm0":"Schweiz","name_adm1":"Kanton Bern","name_adm2":"Thun","name_en":"Wahlen","iso":"CH"},"geometry":{"type":"Point","coordinates":[7.565039999999999,46.75087]}},{"type":"Feature","properties":{"country_en":"Switzerland","name":"Schönbühl","name_adm0":"Schweiz","name_adm1":"Kanton Bern","name_adm2":"Bern-Mittelland","name_en":"Schönbühl","iso":"CH"},"geometry":{"type":"Point","coordinates":[7.49989,47.02088]}},{"type":"Feature","properties":{"country_en":"Switzerland","name":"Sonceboz","name_adm0":"Schweiz","name_adm1":"Kanton Bern","name_adm2":"Jura Bernois","name_en":"Sonceboz-Sombeval","iso":"CH"},"geometry":{"type":"Point","coordinates":[7.17751,47.19654]}},{"type":"Feature","properties":{"country_en":"Switzerland","name":"Stammheim","name_adm0":"Schweiz","name_adm1":"Kanton Zürich","name_adm2":"Andelfingen","name_en":"Stammheim","iso":"CH"},"geometry":{"type":"Point","coordinates":[8.79963,47.63244]}},{"type":"Feature","properties":{"country_en":"Switzerland","name":"Wynigen","name_adm0":"Schweiz","name_adm1":"Kanton Bern","name_adm2":"Emmental","name_en":"Wynigen","iso":"CH"},"geometry":{"type":"Point","coordinates":[7.666809999999999,47.10586]}},{"type":"Feature","properties":{"country_en":"Switzerland","name":"Tramelan","name_adm0":"Schweiz","name_adm1":"Kanton Bern","name_adm2":"Jura Bernois","name_en":"Tramelan","iso":"CH"},"geometry":{"type":"Point","coordinates":[7.0995,47.22393]}},{"type":"Feature","properties":{"country_en":"Switzerland","name":"Untererlinsbach","name_adm0":"Schweiz","name_adm1":"Kanton Aargau","name_adm2":"Aarau","name_en":"Untererlinsbach","iso":"CH"},"geometry":{"type":"Point","coordinates":[8,47.4]}},{"type":"Feature","properties":{"country_en":"Switzerland","name":"Vechigen","name_adm0":"Schweiz","name_adm1":"Kanton Bern","name_adm2":"Bern-Mittelland","name_en":"Vechigen","iso":"CH"},"geometry":{"type":"Point","coordinates":[7.560650000000001,46.94615999999999]}},{"type":"Feature","properties":{"country_en":"Switzerland","name":"Villarsiviriaux","name_adm0":"Schweiz","name_adm1":"Canton de Fribourg","name_adm2":"La Glâne","name_en":"Villarsiviriaux","iso":"CH"},"geometry":{"type":"Point","coordinates":[7.01002,46.69938]}},{"type":"Feature","properties":{"country_en":"Switzerland","name":"Welschenrohr","name_adm0":"Schweiz","name_adm1":"Kanton Solothurn","name_adm2":"Thal","name_en":"Welschenrohr","iso":"CH"},"geometry":{"type":"Point","coordinates":[7.52634,47.28029]}},{"type":"Feature","properties":{"country_en":"Switzerland","name":"Wasen","name_adm0":"Schweiz","name_adm1":"Kanton Bern","name_adm2":"Emmental","name_en":"Wasen im Emmental","iso":"CH"},"geometry":{"type":"Point","coordinates":[7.797229999999999,47.04272999999999]}},{"type":"Feature","properties":{"country_en":"Switzerland","name":"Wynau","name_adm0":"Schweiz","name_adm1":"Kanton Bern","name_adm2":"Oberaargau","name_en":"Wynau","iso":"CH"},"geometry":{"type":"Point","coordinates":[7.81626,47.2557]}},{"type":"Feature","properties":{"country_en":"Switzerland","name":"Wolfwil","name_adm0":"Schweiz","name_adm1":"Kanton Solothurn","name_adm2":"Gäu","name_en":"Wolfwil","iso":"CH"},"geometry":{"type":"Point","coordinates":[7.789669999999999,47.26818999999999]}},{"type":"Feature","properties":{"country_en":"Switzerland","name":"Wildegg","name_adm0":"Schweiz","name_adm1":"Kanton Aargau","name_adm2":"Lenzburg","name_en":"Wildegg","iso":"CH"},"geometry":{"type":"Point","coordinates":[8.16667,47.38333]}},{"type":"Feature","properties":{"country_en":"Switzerland","name":"Nuvilly","name_adm0":"Schweiz","name_adm1":"Canton de Fribourg","name_adm2":"La Broye","name_en":"Nuvilly","iso":"CH"},"geometry":{"type":"Point","coordinates":[6.8336,46.78497]}},{"type":"Feature","properties":{"country_en":"Switzerland","name":"Villarimboud","name_adm0":"Schweiz","name_adm1":"Canton de Fribourg","name_adm2":"La Glâne","name_en":"Villarimboud","iso":"CH"},"geometry":{"type":"Point","coordinates":[6.96523,46.74172]}},{"type":"Feature","properties":{"country_en":"Switzerland","name":"Les Planchettes","name_adm0":"Schweiz","name_adm1":"Canton de Neuchâtel","name_adm2":"La Chaux-De-Fonds","name_en":"Les Planchettes","iso":"CH"},"geometry":{"type":"Point","coordinates":[6.77138,47.10821]}},{"type":"Feature","properties":{"country_en":"Switzerland","name":"Bossonnens","name_adm0":"Schweiz","name_adm1":"Canton de Fribourg","name_adm2":"La Veveyse","name_en":"Bossonnens","iso":"CH"},"geometry":{"type":"Point","coordinates":[6.848169999999999,46.52894]}},{"type":"Feature","properties":{"country_en":"Switzerland","name":"Le Pâquier","name_adm0":"Schweiz","name_adm1":"Canton de Fribourg","name_adm2":"La Gruyère","name_en":"Le Pâquier","iso":"CH"},"geometry":{"type":"Point","coordinates":[6.986449999999999,47.09838]}},{"type":"Feature","properties":{"country_en":"Switzerland","name":"Coffrane","name_adm0":"Schweiz","name_adm1":"Canton de Neuchâtel","name_adm2":"Val-De-Ruz","name_en":"Coffrane","iso":"CH"},"geometry":{"type":"Point","coordinates":[6.85167,47.00962]}},{"type":"Feature","properties":{"country_en":"Switzerland","name":"Remetschwil","name_adm0":"Schweiz","name_adm1":"Kanton Aargau","name_adm2":"Baden","name_en":"Remetschwil","iso":"CH"},"geometry":{"type":"Point","coordinates":[8.33192,47.40832]}},{"type":"Feature","properties":{"country_en":"Switzerland","name":"Braunau","name_adm0":"Schweiz","name_adm1":"Kanton Thurgau","name_adm2":"Münchwilen","name_en":"Braunau","iso":"CH"},"geometry":{"type":"Point","coordinates":[9.06881,47.50432]}},{"type":"Feature","properties":{"country_en":"Switzerland","name":"Laupen","name_adm0":"Schweiz","name_adm1":"Kanton Zürich","name_adm2":"Hinwil","name_en":"Laupen","iso":"CH"},"geometry":{"type":"Point","coordinates":[8.92851,47.265]}},{"type":"Feature","properties":{"country_en":"Switzerland","name":"Bernhardzell","name_adm0":"Schweiz","name_adm1":"Kanton St. Gallen","name_adm2":"Gossau","name_en":"Bernhardzell","iso":"CH"},"geometry":{"type":"Point","coordinates":[9.33628,47.474669999999996]}},{"type":"Feature","properties":{"country_en":"Switzerland","name":"Affeier","name_adm0":"Schweiz","name_adm1":"Kanton Graubünden","name_adm2":"Glenner","name_en":"Affeier","iso":"CH"},"geometry":{"type":"Point","coordinates":[9.12049,46.75768]}},{"type":"Feature","properties":{"country_en":"Switzerland","name":"Lüscherz","name_adm0":"Schweiz","name_adm1":"Kanton Bern","name_adm2":"Seeland","name_en":"Lüscherz","iso":"CH"},"geometry":{"type":"Point","coordinates":[7.16306,47.04352]}},{"type":"Feature","properties":{"country_en":"Switzerland","name":"Chiasso","name_adm0":"Schweiz","name_adm1":"Cantone Ticino","name_adm2":"Mendrisio","name_en":"Chiasso","iso":"CH"},"geometry":{"type":"Point","coordinates":[9.03119,45.832029999999996]}},{"type":"Feature","properties":{"country_en":"Switzerland","name":"Chardonne","name_adm0":"Schweiz","name_adm1":"Canton de Vaud","name_adm2":"Vevey","name_en":"Chardonne","iso":"CH"},"geometry":{"type":"Point","coordinates":[6.8267999999999995,46.47676]}},{"type":"Feature","properties":{"country_en":"Switzerland","name":"Ettingen","name_adm0":"Schweiz","name_adm1":"Kanton Basel-Land","name_adm2":"Arlesheim","name_en":"Ettingen","iso":"CH"},"geometry":{"type":"Point","coordinates":[7.5498199999999995,47.482679999999995]}},{"type":"Feature","properties":{"country_en":"Switzerland","name":"Morges","name_adm0":"Schweiz","name_adm1":"Canton de Vaud","name_adm2":"Morges","name_en":"Morges","iso":"CH"},"geometry":{"type":"Point","coordinates":[6.49854,46.511269999999996]}},{"type":"Feature","properties":{"country_en":"Switzerland","name":"Oberentfelden","name_adm0":"Schweiz","name_adm1":"Kanton Aargau","name_adm2":"Aarau","name_en":"Entfelden","iso":"CH"},"geometry":{"type":"Point","coordinates":[8.04594,47.35639]}},{"type":"Feature","properties":{"country_en":"Switzerland","name":"Chalais","name_adm0":"Schweiz","name_adm1":"Canton de Valais","name_adm2":"Sierre","name_en":"Chalais","iso":"CH"},"geometry":{"type":"Point","coordinates":[7.530113999999999,46.256833]}},{"type":"Feature","properties":{"country_en":"Switzerland","name":"Adliswil","name_adm0":"Schweiz","name_adm1":"Kanton Zürich","name_adm2":"Horgen","name_en":"Adliswil","iso":"CH"},"geometry":{"type":"Point","coordinates":[8.52127,47.30934]}},{"type":"Feature","properties":{"country_en":"Switzerland","name":"Wädenswil","name_adm0":"Schweiz","name_adm1":"Kanton Zürich","name_adm2":"Horgen","name_en":"Wädenswil","iso":"CH"},"geometry":{"type":"Point","coordinates":[8.65207,47.22493]}},{"type":"Feature","properties":{"country_en":"Switzerland","name":"Risch","name_adm0":"Schweiz","name_adm1":"Kanton Zug","name_adm2":"Zug","name_en":"Risch","iso":"CH"},"geometry":{"type":"Point","coordinates":[8.441,47.14054]}},{"type":"Feature","properties":{"country_en":"Switzerland","name":"Ollon","name_adm0":"Schweiz","name_adm1":"Canton de Vaud","name_adm2":"Aigle","name_en":"Ollon","iso":"CH"},"geometry":{"type":"Point","coordinates":[7.03333,46.3]}},{"type":"Feature","properties":{"country_en":"Switzerland","name":"Dietikon","name_adm0":"Schweiz","name_adm1":"Kanton Zürich","name_adm2":"Dietikon","name_en":"Dietikon","iso":"CH"},"geometry":{"type":"Point","coordinates":[8.39824,47.40198]}},{"type":"Feature","properties":{"country_en":"Switzerland","name":"Glarus","name_adm0":"Schweiz","name_adm1":"Kanton Glarus","name_adm2":"Glarus","name_en":"Glarus","iso":"CH"},"geometry":{"type":"Point","coordinates":[8.97896,47.021]}},{"type":"Feature","properties":{"country_en":"Switzerland","name":"Courroux","name_adm0":"Schweiz","name_adm1":"Canton de Jura","name_adm2":"Delémont","name_en":"Courroux","iso":"CH"},"geometry":{"type":"Point","coordinates":[7.37371,47.36069]}},{"type":"Feature","properties":{"country_en":"Switzerland","name":"Horgen","name_adm0":"Schweiz","name_adm1":"Kanton Zürich","name_adm2":"Horgen","name_en":"Horgen","iso":"CH"},"geometry":{"type":"Point","coordinates":[8.58482,47.24867]}},{"type":"Feature","properties":{"country_en":"Switzerland","name":"Kappelen","name_adm0":"Schweiz","name_adm1":"Kanton Bern","name_adm2":"Seeland","name_en":"Kappelen","iso":"CH"},"geometry":{"type":"Point","coordinates":[7.276959999999999,47.07291]}},{"type":"Feature","properties":{"country_en":"Switzerland","name":"Oberägeri","name_adm0":"Schweiz","name_adm1":"Kanton Zug","name_adm2":"Zug","name_en":"Oberägeri","iso":"CH"},"geometry":{"type":"Point","coordinates":[8.6469,47.13281]}},{"type":"Feature","properties":{"country_en":"Switzerland","name":"Steckborn","name_adm0":"Schweiz","name_adm1":"Kanton Thurgau","name_adm2":"Steckborn","name_en":"Steckborn","iso":"CH"},"geometry":{"type":"Point","coordinates":[8.99054,47.65824]}},{"type":"Feature","properties":{"country_en":"Switzerland","name":"Vuadens","name_adm0":"Schweiz","name_adm1":"Canton de Fribourg","name_adm2":"La Gruyère","name_en":"Vuadens","iso":"CH"},"geometry":{"type":"Point","coordinates":[7.00472,46.60839]}},{"type":"Feature","properties":{"country_en":"Switzerland","name":"Waldstatt","name_adm0":"Schweiz","name_adm1":"Kanton Appenzell Ausserrhoden","name_adm2":"Hinterland","name_en":"Waldstatt","iso":"CH"},"geometry":{"type":"Point","coordinates":[9.28453,47.35708]}},{"type":"Feature","properties":{"country_en":"Switzerland","name":"Witterswil","name_adm0":"Schweiz","name_adm1":"Kanton Solothurn","name_adm2":"Dorneck","name_en":"Witterswil","iso":"CH"},"geometry":{"type":"Point","coordinates":[7.52604,47.48754]}},{"type":"Feature","properties":{"country_en":"Switzerland","name":"Boudry","name_adm0":"Schweiz","name_adm1":"Canton de Neuchâtel","name_adm2":"Boudry","name_en":"Boudry","iso":"CH"},"geometry":{"type":"Point","coordinates":[6.807769999999999,46.95311]}},{"type":"Feature","properties":{"country_en":"Switzerland","name":"Kanton Appenzell Ausserrhoden","name_adm0":"Schweiz","name_adm1":"Kanton Appenzell Ausserrhoden","name_en":"Canton of Appenzell Outer-Rhodes","iso":"CH"},"geometry":{"type":"Point","coordinates":[9.33333,47.41667]}},{"type":"Feature","properties":{"country_en":"Switzerland","name":"La Sage","name_adm0":"Schweiz","name_adm1":"Canton de Valais","name_adm2":"Hérens","name_en":"La Sage","iso":"CH"},"geometry":{"type":"Point","coordinates":[7.515969999999999,46.09975]}},{"type":"Feature","properties":{"country_en":"Switzerland","name":"Langnau im Emmental","name_adm0":"Schweiz","name_adm1":"Kanton Bern","name_adm2":"Emmental","name_en":"Langnau im Emmental","iso":"CH"},"geometry":{"type":"Point","coordinates":[7.80964,46.95593]}},{"type":"Feature","properties":{"country_en":"Switzerland","name":"Haute-Nendaz","name_adm0":"Schweiz","name_adm1":"Canton de Valais","name_adm2":"Conthey","name_en":"Haute-Nendaz","iso":"CH"},"geometry":{"type":"Point","coordinates":[7.2975,46.1872]}},{"type":"Feature","properties":{"country_en":"Switzerland","name":"L'Ile","name_adm0":"Schweiz","name_adm1":"Canton de Valais","name_adm2":"St.-Maurice","name_en":"L'Ile","iso":"CH"},"geometry":{"type":"Point","coordinates":[6.41327,46.61844]}},{"type":"Feature","properties":{"country_en":"Switzerland","name":"Marly-le-Grand","name_adm0":"Schweiz","name_adm1":"Canton de Fribourg","name_adm2":"La Sarine","name_en":"Marly","iso":"CH"},"geometry":{"type":"Point","coordinates":[7.160758999999999,46.77658]}},{"type":"Feature","properties":{"country_en":"Switzerland","name":"Clavadel","name_adm0":"Schweiz","name_adm1":"Kanton Graubünden","name_adm2":"Prättigau/Davos","name_en":"Davos Clavadel","iso":"CH"},"geometry":{"type":"Point","coordinates":[9.815189999999998,46.76877]}},{"type":"Feature","properties":{"country_en":"Switzerland","name":"Waldegg","name_adm0":"Schweiz","name_adm1":"Kanton Bern","name_adm2":"Interlaken-Oberhasli","name_en":"Waldegg","iso":"CH"},"geometry":{"type":"Point","coordinates":[7.16128,46.84289]}},{"type":"Feature","properties":{"country_en":"Switzerland","name":"Lucelle","name_adm0":"Schweiz","name_adm1":"Canton de Jura","name_adm2":"Delémont","name_en":"Lucelle","iso":"CH"},"geometry":{"type":"Point","coordinates":[7.2476,47.4228]}},{"type":"Feature","properties":{"country_en":"Switzerland","name":"Javerne","name_adm0":"Schweiz","name_adm1":"Canton de Vaud","name_adm2":"Aigle","name_en":"Javernaz","iso":"CH"},"geometry":{"type":"Point","coordinates":[7.06234,46.23672]}},{"type":"Feature","properties":{"country_en":"Switzerland","name":"Mühlen","name_adm0":"Schweiz","name_adm1":"Kanton Graubünden","name_adm2":"Albula","name_en":"Mühlen","iso":"CH"},"geometry":{"type":"Point","coordinates":[9.62073,46.52481]}},{"type":"Feature","properties":{"country_en":"Switzerland","name":"Vulpera","name_adm0":"Schweiz","name_adm1":"Kanton Graubünden","name_adm2":"Inn","name_en":"Vulpera","iso":"CH"},"geometry":{"type":"Point","coordinates":[10.2909,46.7873]}},{"type":"Feature","properties":{"country_en":"Switzerland","name":"Seewen","name_adm0":"Schweiz","name_adm1":"Kanton Schwyz","name_adm2":"Schwyz","name_en":"Seewen","iso":"CH"},"geometry":{"type":"Point","coordinates":[8.63039,47.02883]}},{"type":"Feature","properties":{"country_en":"Switzerland","name":"Yvorne","name_adm0":"Schweiz","name_adm1":"Canton de Vaud","name_adm2":"Aigle","name_en":"Yvorne","iso":"CH"},"geometry":{"type":"Point","coordinates":[6.95872,46.33122]}},{"type":"Feature","properties":{"country_en":"Switzerland","name":"Bettmeralp","name_adm0":"Schweiz","name_adm1":"Canton de Valais","name_adm2":"Raron","name_en":"Bettmeralp","iso":"CH"},"geometry":{"type":"Point","coordinates":[8.06254,46.39021999999999]}},{"type":"Feature","properties":{"country_en":"Switzerland","name":"Schwändi","name_adm0":"Schweiz","name_adm1":"Kanton Glarus","name_adm2":"Glarus","name_en":"Schwändi","iso":"CH"},"geometry":{"type":"Point","coordinates":[9.06591,47.0062]}},{"type":"Feature","properties":{"country_en":"Switzerland","name":"Frenkendorf","name_adm0":"Schweiz","name_adm1":"Kanton Basel-Land","name_adm2":"Liestal","name_en":"Frenkendorf","iso":"CH"},"geometry":{"type":"Point","coordinates":[7.71648,47.506859999999996]}},{"type":"Feature","properties":{"country_en":"Switzerland","name":"Founex","name_adm0":"Schweiz","name_adm1":"Canton de Vaud","name_adm2":"Nyon","name_en":"Founex","iso":"CH"},"geometry":{"type":"Point","coordinates":[6.19243,46.33277]}},{"type":"Feature","properties":{"country_en":"Switzerland","name":"Klingnau","name_adm0":"Schweiz","name_adm1":"Kanton Aargau","name_adm2":"Zurzach","name_en":"Klingnau","iso":"CH"},"geometry":{"type":"Point","coordinates":[8.25048,47.57998]}},{"type":"Feature","properties":{"country_en":"Switzerland","name":"Oberglatt","name_adm0":"Schweiz","name_adm1":"Kanton Zürich","name_adm2":"Dielsdorf","name_en":"Oberglatt","iso":"CH"},"geometry":{"type":"Point","coordinates":[8.51896,47.47576]}},{"type":"Feature","properties":{"country_en":"Switzerland","name":"Geroldswil","name_adm0":"Schweiz","name_adm1":"Kanton Zürich","name_adm2":"Dietikon","name_en":"Geroldswil","iso":"CH"},"geometry":{"type":"Point","coordinates":[8.41085,47.42213]}},{"type":"Feature","properties":{"country_en":"Switzerland","name":"Lüsslingen","name_adm0":"Schweiz","name_adm1":"Kanton Solothurn","name_adm2":"Bucheggberg","name_en":"Lüsslingen","iso":"CH"},"geometry":{"type":"Point","coordinates":[7.50149,47.19156]}},{"type":"Feature","properties":{"country_en":"Switzerland","name":"Giswil","name_adm0":"Schweiz","name_adm1":"Kanton Obwalden","name_adm2":"Obwalden","name_en":"Giswil","iso":"CH"},"geometry":{"type":"Point","coordinates":[8.11884,46.83585999999999]}},{"type":"Feature","properties":{"country_en":"Switzerland","name":"Le Bémont","name_adm0":"Schweiz","name_adm1":"Canton de Jura","name_adm2":"Franches-Montagnes","name_en":"Le Bémont","iso":"CH"},"geometry":{"type":"Point","coordinates":[7.0152,47.26298]}},{"type":"Feature","properties":{"country_en":"Switzerland","name":"Ottoberg","name_adm0":"Schweiz","name_adm1":"Kanton Thurgau","name_adm2":"Weinfelden","name_en":"Ottoberg","iso":"CH"},"geometry":{"type":"Point","coordinates":[9.08466,47.58763]}},{"type":"Feature","properties":{"country_en":"Switzerland","name":"Züberwangen","name_adm0":"Schweiz","name_adm1":"Kanton St. Gallen","name_adm2":"Wil","name_en":"Züberwangen","iso":"CH"},"geometry":{"type":"Point","coordinates":[9.08543,47.46712999999999]}},{"type":"Feature","properties":{"country_en":"Switzerland","name":"Walterswil","name_adm0":"Schweiz","name_adm1":"Kanton Solothurn","name_adm2":"Olten","name_en":"Walterswil","iso":"CH"},"geometry":{"type":"Point","coordinates":[7.77798,47.1122]}},{"type":"Feature","properties":{"country_en":"Switzerland","name":"Bissone","name_adm0":"Schweiz","name_adm1":"Cantone Ticino","name_adm2":"Lugano","name_en":"Bissone","iso":"CH"},"geometry":{"type":"Point","coordinates":[8.97024,45.95188]}},{"type":"Feature","properties":{"country_en":"Switzerland","name":"Niederbüren","name_adm0":"Schweiz","name_adm1":"Kanton St. Gallen","name_adm2":"Wil","name_en":"Niederbüren","iso":"CH"},"geometry":{"type":"Point","coordinates":[9.21506,47.46179]}},{"type":"Feature","properties":{"country_en":"Switzerland","name":"Rüfenacht","name_adm0":"Schweiz","name_adm1":"Kanton Bern","name_adm2":"Bern-Mittelland","name_en":"Rüfenacht","iso":"CH"},"geometry":{"type":"Point","coordinates":[7.532339999999999,46.93081999999999]}},{"type":"Feature","properties":{"country_en":"Switzerland","name":"Roggenburg","name_adm0":"Schweiz","name_adm1":"Kanton Basel-Land","name_adm2":"Laufen","name_en":"Roggenburg","iso":"CH"},"geometry":{"type":"Point","coordinates":[7.340666,47.450833]}},{"type":"Feature","properties":{"country_en":"Switzerland","name":"Linn","name_adm0":"Schweiz","name_adm1":"Kanton Aargau","name_adm2":"Brugg","name_en":"Linn","iso":"CH"},"geometry":{"type":"Point","coordinates":[8.132629,47.471023]}},{"type":"Feature","properties":{"country_en":"Switzerland","name":"Gusch","name_adm0":"Schweiz","name_adm1":"Kanton Zürich","name_adm2":"Meilen","name_en":"Gusch","iso":"CH"},"geometry":{"type":"Point","coordinates":[8.71748,47.2786]}},{"type":"Feature","properties":{"country_en":"Switzerland","name":"Biglen","name_adm0":"Schweiz","name_adm1":"Kanton Bern","name_adm2":"Bern-Mittelland","name_en":"Biglen","iso":"CH"},"geometry":{"type":"Point","coordinates":[7.625079999999999,46.92629]}},{"type":"Feature","properties":{"country_en":"Switzerland","name":"Burgistein","name_adm0":"Schweiz","name_adm1":"Kanton Bern","name_adm2":"Thun","name_en":"Burgistein","iso":"CH"},"geometry":{"type":"Point","coordinates":[7.49988,46.784639999999996]}},{"type":"Feature","properties":{"country_en":"Switzerland","name":"Kaisten","name_adm0":"Schweiz","name_adm1":"Kanton Aargau","name_adm2":"Laufenburg","name_en":"Kaisten","iso":"CH"},"geometry":{"type":"Point","coordinates":[8.04337,47.541599999999995]}},{"type":"Feature","properties":{"country_en":"Switzerland","name":"Tägerwilen","name_adm0":"Schweiz","name_adm1":"Kanton Thurgau","name_adm2":"Kreuzlingen","name_en":"Tägerwilen","iso":"CH"},"geometry":{"type":"Point","coordinates":[9.13167,47.655939999999994]}},{"type":"Feature","properties":{"country_en":"Switzerland","name":"Zell","name_adm0":"Schweiz","name_adm1":"Kanton Luzern","name_adm2":"Willisau","name_en":"Zell","iso":"CH"},"geometry":{"type":"Point","coordinates":[7.924949999999999,47.13673]}},{"type":"Feature","properties":{"country_en":"Switzerland","name":"Artore","name_adm0":"Schweiz","name_adm1":"Cantone Ticino","name_adm2":"Bellinzona","name_en":"Artore","iso":"CH"},"geometry":{"type":"Point","coordinates":[9.030971,46.1903745]}},{"type":"Feature","properties":{"country_en":"Switzerland","name":"Le Campe","name_adm0":"Schweiz","name_adm1":"Canton de Vaud","name_adm2":"La Vallée","name_en":"Le Campe","iso":"CH"},"geometry":{"type":"Point","coordinates":[6.264297,46.5685375]}},{"type":"Feature","properties":{"country_en":"Switzerland","name":"Bänk","name_adm0":"Schweiz","name_adm1":"Kanton Zürich","name_adm2":"Winterthur","name_en":"Bänk","iso":"CH"},"geometry":{"type":"Point","coordinates":[8.739,47.54822]}},{"type":"Feature","properties":{"country_en":"Switzerland","name":"Bardonnex","name_adm0":"Schweiz","name_adm1":"Canton de Genève","name_adm2":"Genève","name_en":"Bardonnex","iso":"CH"},"geometry":{"type":"Point","coordinates":[6.11833,46.149]}},{"type":"Feature","properties":{"country_en":"Switzerland","name":"Bassenges","name_adm0":"Schweiz","name_adm1":"Canton de Vaud","name_adm2":"Morges","name_en":"Bassenges","iso":"CH"},"geometry":{"type":"Point","coordinates":[6.62184,46.61301]}},{"type":"Feature","properties":{"country_en":"Switzerland","name":"St. Pelagiberg","name_adm0":"Schweiz","name_adm1":"Kanton Thurgau","name_adm2":"Bischofszell","name_en":"St. Pelagiberg","iso":"CH"},"geometry":{"type":"Point","coordinates":[9.307823,47.480668]}},{"type":"Feature","properties":{"country_en":"Switzerland","name":"Schmitten","name_adm0":"Schweiz","name_adm1":"Kanton Graubünden","name_adm2":"Landquart","name_en":"Schmitten","iso":"CH"},"geometry":{"type":"Point","coordinates":[9.641743,46.9802215]}},{"type":"Feature","properties":{"country_en":"Switzerland","name":"Arogno","name_adm0":"Schweiz","name_adm1":"Cantone Ticino","name_adm2":"Lugano","name_en":"Arogno","iso":"CH"},"geometry":{"type":"Point","coordinates":[8.99263,45.95761]}},{"type":"Feature","properties":{"country_en":"Switzerland","name":"Bühl","name_adm0":"Schweiz","name_adm1":"Kanton Bern","name_adm2":"Seeland","name_en":"Bühl","iso":"CH"},"geometry":{"type":"Point","coordinates":[7.246589999999999,47.06701]}},{"type":"Feature","properties":{"country_en":"Switzerland","name":"Bundkofen","name_adm0":"Schweiz","name_adm1":"Kanton Bern","name_adm2":"Seeland","name_en":"Bundkofen","iso":"CH"},"geometry":{"type":"Point","coordinates":[7.363789999999999,47.04637]}},{"type":"Feature","properties":{"country_en":"Switzerland","name":"Bunt","name_adm0":"Schweiz","name_adm1":"Kanton St. Gallen","name_adm2":"Neutoggenburg","name_en":"Bunt","iso":"CH"},"geometry":{"type":"Point","coordinates":[8.648729999999999,47.32947]}},{"type":"Feature","properties":{"country_en":"Switzerland","name":"Büren","name_adm0":"Schweiz","name_adm1":"Kanton Thurgau","name_adm2":"Steckborn","name_en":"Büren","iso":"CH"},"geometry":{"type":"Point","coordinates":[9.04634,47.64532]}},{"type":"Feature","properties":{"country_en":"Switzerland","name":"Busslingen","name_adm0":"Schweiz","name_adm1":"Kanton Aargau","name_adm2":"Baden","name_en":"Busslingen","iso":"CH"},"geometry":{"type":"Point","coordinates":[8.31779,47.40948]}},{"type":"Feature","properties":{"country_en":"Switzerland","name":"Dettenbühl","name_adm0":"Schweiz","name_adm1":"Kanton Bern","name_adm2":"Oberaargau","name_en":"Dettenbühl","iso":"CH"},"geometry":{"type":"Point","coordinates":[7.63515,47.25488]}},{"type":"Feature","properties":{"country_en":"Switzerland","name":"Dettenried","name_adm0":"Schweiz","name_adm1":"Kanton Zürich","name_adm2":"Pfäffikon","name_en":"Dettenried","iso":"CH"},"geometry":{"type":"Point","coordinates":[8.77688,47.44086]}},{"type":"Feature","properties":{"country_en":"Switzerland","name":"Etzelwil","name_adm0":"Schweiz","name_adm1":"Kanton Luzern","name_adm2":"Sursee","name_en":"Etzelwil","iso":"CH"},"geometry":{"type":"Point","coordinates":[8.11654,47.23446]}},{"type":"Feature","properties":{"country_en":"Switzerland","name":"Fimmelsberg","name_adm0":"Schweiz","name_adm1":"Kanton Thurgau","name_adm2":"Weinfelden","name_en":"Fimmelsberg","iso":"CH"},"geometry":{"type":"Point","coordinates":[9.03059,47.56485]}},{"type":"Feature","properties":{"country_en":"Switzerland","name":"Hinter-marchlen","name_adm0":"Schweiz","name_adm1":"Kanton Zürich","name_adm2":"Bülach","name_en":"Hinter-marchlen","iso":"CH"},"geometry":{"type":"Point","coordinates":[8.5856,47.48103]}},{"type":"Feature","properties":{"country_en":"Switzerland","name":"Hohfirst","name_adm0":"Schweiz","name_adm1":"Kanton St. Gallen","name_adm2":"Gossau","name_en":"Hohfirst","iso":"CH"},"geometry":{"type":"Point","coordinates":[9.30831,47.44779]}},{"type":"Feature","properties":{"country_en":"Switzerland","name":"Lindhof","name_adm0":"Schweiz","name_adm1":"Kanton Zürich","name_adm2":"Uster","name_en":"Lindhof","iso":"CH"},"geometry":{"type":"Point","coordinates":[8.738919999999998,47.31869999999999]}},{"type":"Feature","properties":{"country_en":"Switzerland","name":"Lionza","name_adm0":"Schweiz","name_adm1":"Cantone Ticino","name_adm2":"Locarno","name_en":"Lionza","iso":"CH"},"geometry":{"type":"Point","coordinates":[8.61942,46.16384]}},{"type":"Feature","properties":{"country_en":"Switzerland","name":"Lipperschwendi","name_adm0":"Schweiz","name_adm1":"Kanton Zürich","name_adm2":"Pfäffikon","name_en":"Lipperschwendi","iso":"CH"},"geometry":{"type":"Point","coordinates":[8.91852,47.36026]}},{"type":"Feature","properties":{"country_en":"Switzerland","name":"Mettschlatt","name_adm0":"Schweiz","name_adm1":"Kanton Thurgau","name_adm2":"Diessenhofen","name_en":"Mettschlatt","iso":"CH"},"geometry":{"type":"Point","coordinates":[8.69519,47.65794]}},{"type":"Feature","properties":{"country_en":"Switzerland","name":"Niederbütschel","name_adm0":"Schweiz","name_adm1":"Kanton Bern","name_adm2":"Bern-Mittelland","name_en":"Niederbütschel","iso":"CH"},"geometry":{"type":"Point","coordinates":[7.44792,46.83842]}},{"type":"Feature","properties":{"country_en":"Switzerland","name":"Niedermonten","name_adm0":"Schweiz","name_adm1":"Canton de Fribourg","name_adm2":"Sense","name_en":"Niedermonten","iso":"CH"},"geometry":{"type":"Point","coordinates":[7.6906,47.18423]}},{"type":"Feature","properties":{"country_en":"Switzerland","name":"Sunnenbüel","name_adm0":"Schweiz","name_adm1":"Kanton Zürich","name_adm2":"Bülach","name_en":"Sunnenbüel","iso":"CH"},"geometry":{"type":"Point","coordinates":[8.69955,47.27843]}},{"type":"Feature","properties":{"country_en":"Switzerland","name":"Süri","name_adm0":"Schweiz","name_adm1":"Kanton Bern","name_adm2":"Bern-Mittelland","name_en":"Süri","iso":"CH"},"geometry":{"type":"Point","coordinates":[7.26945,46.92067]}},{"type":"Feature","properties":{"country_en":"Switzerland","name":"Syens","name_adm0":"Schweiz","name_adm1":"Canton de Vaud","name_adm2":"Moudon","name_en":"Syens","iso":"CH"},"geometry":{"type":"Point","coordinates":[6.4185,46.51901]}},{"type":"Feature","properties":{"country_en":"Switzerland","name":"La Heutte","name_adm0":"Schweiz","name_adm1":"Kanton Bern","name_adm2":"Jura Bernois","name_en":"La Heutte","iso":"CH"},"geometry":{"type":"Point","coordinates":[7.218019999999999,47.18975]}},{"type":"Feature","properties":{"country_en":"Switzerland","name":"Wildberg","name_adm0":"Schweiz","name_adm1":"Kanton Zürich","name_adm2":"Pfäffikon","name_en":"Wildberg","iso":"CH"},"geometry":{"type":"Point","coordinates":[8.8262,47.41753]}},{"type":"Feature","properties":{"country_en":"Switzerland","name":"Lüterkofen-Ichertswil","name_adm0":"Schweiz","name_adm1":"Kanton Solothurn","name_adm2":"Bucheggberg","name_en":"Lüterkofen-Ichertswil","iso":"CH"},"geometry":{"type":"Point","coordinates":[7.50311,47.16289]}},{"type":"Feature","properties":{"country_en":"Switzerland","name":"Birrhard","name_adm0":"Schweiz","name_adm1":"Kanton Aargau","name_adm2":"Brugg","name_en":"Birrhard","iso":"CH"},"geometry":{"type":"Point","coordinates":[8.24233,47.43614]}},{"type":"Feature","properties":{"country_en":"Switzerland","name":"Ried","name_adm0":"Schweiz","name_adm1":"Kanton Schwyz","name_adm2":"Schwyz","name_en":"Ried","iso":"CH"},"geometry":{"type":"Point","coordinates":[8.71276,46.98832]}},{"type":"Feature","properties":{"country_en":"Switzerland","name":"Kyburg","name_adm0":"Schweiz","name_adm1":"Kanton Zürich","name_adm2":"Pfäffikon","name_en":"Kyburg","iso":"CH"},"geometry":{"type":"Point","coordinates":[8.7485,47.45248999999999]}},{"type":"Feature","properties":{"country_en":"Switzerland","name":"Olten","name_adm0":"Schweiz","name_adm1":"Kanton Solothurn","name_adm2":"Olten","name_en":"Olten","iso":"CH"},"geometry":{"type":"Point","coordinates":[7.90012,47.34484]}},{"type":"Feature","properties":{"country_en":"Switzerland","name":"Oberlunkhofen","name_adm0":"Schweiz","name_adm1":"Kanton Aargau","name_adm2":"Bremgarten","name_en":"Oberlunkhofen","iso":"CH"},"geometry":{"type":"Point","coordinates":[8.39765,47.3125]}},{"type":"Feature","properties":{"country_en":"Switzerland","name":"Tavannes","name_adm0":"Schweiz","name_adm1":"Kanton Bern","name_adm2":"Jura Bernois","name_en":"Tavannes","iso":"CH"},"geometry":{"type":"Point","coordinates":[7.1837599999999995,47.22136]}},{"type":"Feature","properties":{"country_en":"Switzerland","name":"Vuisternens","name_adm0":"Schweiz","name_adm1":"Canton de Fribourg","name_adm2":"La Glâne","name_en":"Vuisternens","iso":"CH"},"geometry":{"type":"Point","coordinates":[7.05398,46.70815]}},{"type":"Feature","properties":{"country_en":"Switzerland","name":"Casima","name_adm0":"Schweiz","name_adm1":"Cantone Ticino","name_adm2":"Mendrisio","name_en":"Casima","iso":"CH"},"geometry":{"type":"Point","coordinates":[9.03694,45.89036]}},{"type":"Feature","properties":{"country_en":"Switzerland","name":"Latsch","name_adm0":"Schweiz","name_adm1":"Kanton Graubünden","name_adm2":"Albula","name_en":"Latsch","iso":"CH"},"geometry":{"type":"Point","coordinates":[9.75211,46.63424]}},{"type":"Feature","properties":{"country_en":"Switzerland","name":"Les Moulins","name_adm0":"Schweiz","name_adm1":"Canton de Vaud","name_adm2":"Pays-d'Enhaut","name_en":"Les Moulins","iso":"CH"},"geometry":{"type":"Point","coordinates":[7.10464,46.46252]}},{"type":"Feature","properties":{"country_en":"Switzerland","name":"Mümliswil","name_adm0":"Schweiz","name_adm1":"Kanton Solothurn","name_adm2":"Thal","name_en":"Mümliswil","iso":"CH"},"geometry":{"type":"Point","coordinates":[7.7035,47.34411]}},{"type":"Feature","properties":{"country_en":"Switzerland","name":"Nussbaumen","name_adm0":"Schweiz","name_adm1":"Kanton Thurgau","name_adm2":"Steckborn","name_en":"Nussbaumen","iso":"CH"},"geometry":{"type":"Point","coordinates":[8.82803,47.62514]}},{"type":"Feature","properties":{"country_en":"Switzerland","name":"Dättlikon","name_adm0":"Schweiz","name_adm1":"Kanton Zürich","name_adm2":"Winterthur","name_en":"Dättlikon","iso":"CH"},"geometry":{"type":"Point","coordinates":[8.6245,47.52492999999999]}},{"type":"Feature","properties":{"country_en":"Switzerland","name":"Krattigen","name_adm0":"Schweiz","name_adm1":"Kanton Bern","name_adm2":"Frutigen-Niedersimmental","name_en":"Krattigen","iso":"CH"},"geometry":{"type":"Point","coordinates":[7.724721999999999,46.664319]}},{"type":"Feature","properties":{"country_en":"Switzerland","name":"St. Antönien","name_adm0":"Schweiz","name_adm1":"Kanton Graubünden","name_adm2":"Prättigau/Davos","name_en":"St. Antönien","iso":"CH"},"geometry":{"type":"Point","coordinates":[9.846196,46.9985]}},{"type":"Feature","properties":{"country_en":"Switzerland","name":"Amenloch","name_adm0":"Schweiz","name_adm1":"Kanton Zürich","name_adm2":"Andelfingen","name_en":"Amenloch","iso":"CH"},"geometry":{"type":"Point","coordinates":[8.61789,47.57459]}},{"type":"Feature","properties":{"country_en":"Switzerland","name":"Bühl","name_adm0":"Schweiz","name_adm1":"Kanton St. Gallen","name_adm2":"Obertoggenburg","name_en":"Bühl","iso":"CH"},"geometry":{"type":"Point","coordinates":[8.8865,47.42461]}},{"type":"Feature","properties":{"country_en":"Switzerland","name":"Blumetshalde","name_adm0":"Schweiz","name_adm1":"Kanton Zürich","name_adm2":"Winterthur","name_en":"Blumetshalde","iso":"CH"},"geometry":{"type":"Point","coordinates":[8.63712,47.52062]}},{"type":"Feature","properties":{"country_en":"Switzerland","name":"Brandholz","name_adm0":"Schweiz","name_adm1":"Kanton Aargau","name_adm2":"Muri","name_en":"Brandholz","iso":"CH"},"geometry":{"type":"Point","coordinates":[8.16393,47.67594]}},{"type":"Feature","properties":{"country_en":"Switzerland","name":"Burlen","name_adm0":"Schweiz","name_adm1":"Kanton Aargau","name_adm2":"Zurzach","name_en":"Burlen","iso":"CH"},"geometry":{"type":"Point","coordinates":[8.76122,47.25693]}},{"type":"Feature","properties":{"country_en":"Switzerland","name":"Hintere Buchenegg","name_adm0":"Schweiz","name_adm1":"Kanton Zürich","name_adm2":"Affoltern","name_en":"Hintere Buchenegg","iso":"CH"},"geometry":{"type":"Point","coordinates":[8.50036,47.30416]}},{"type":"Feature","properties":{"country_en":"Switzerland","name":"Poliez-le-Grand","name_adm0":"Schweiz","name_adm1":"Canton de Vaud","name_adm2":"Echallens","name_en":"Poliez-le-Grand","iso":"CH"},"geometry":{"type":"Point","coordinates":[6.664581,46.6370315]}},{"type":"Feature","properties":{"country_en":"Switzerland","name":"Joseboden","name_adm0":"Schweiz","name_adm1":"Kanton Aargau","name_adm2":"Brugg","name_en":"Joseboden","iso":"CH"},"geometry":{"type":"Point","coordinates":[8.85486,47.06106]}},{"type":"Feature","properties":{"country_en":"Switzerland","name":"Peyres","name_adm0":"Schweiz","name_adm1":"Canton de Vaud","name_adm2":"Moudon","name_en":"Peyres","iso":"CH"},"geometry":{"type":"Point","coordinates":[6.70861,46.65981]}},{"type":"Feature","properties":{"country_en":"Switzerland","name":"Platz","name_adm0":"Schweiz","name_adm1":"Kanton Graubünden","name_adm2":"Prättigau/Davos","name_en":"Platz","iso":"CH"},"geometry":{"type":"Point","coordinates":[9.81547,46.97193]}},{"type":"Feature","properties":{"country_en":"Switzerland","name":"Schöntal","name_adm0":"Schweiz","name_adm1":"Kanton Bern","name_adm2":"Bern-Mittelland","name_en":"Schöntal","iso":"CH"},"geometry":{"type":"Point","coordinates":[8.51181,47.25267]}},{"type":"Feature","properties":{"country_en":"Switzerland","name":"St.-Jean","name_adm0":"Schweiz","name_adm1":"Canton de Valais","name_adm2":"Sierre","name_en":"St.-Jean","iso":"CH"},"geometry":{"type":"Point","coordinates":[7.583914,46.197656]}},{"type":"Feature","properties":{"country_en":"Switzerland","name":"Bremgarten","name_adm0":"Schweiz","name_adm1":"Kanton Bern","name_adm2":"Bern-Mittelland","name_en":"Bremgarten bei Bern","iso":"CH"},"geometry":{"type":"Point","coordinates":[7.4385200000000005,46.97803]}},{"type":"Feature","properties":{"country_en":"Switzerland","name":"Hauptwil","name_adm0":"Schweiz","name_adm1":"Kanton Thurgau","name_adm2":"Bischofszell","name_en":"Hauptwil-Gottshaus","iso":"CH"},"geometry":{"type":"Point","coordinates":[9.28333,47.46667]}},{"type":"Feature","properties":{"country_en":"Switzerland","name":"Seedorf","name_adm0":"Schweiz","name_adm1":"Kanton Bern","name_adm2":"Seeland","name_en":"Seedorf","iso":"CH"},"geometry":{"type":"Point","coordinates":[7.31249,47.03444999999999]}},{"type":"Feature","properties":{"country_en":"Switzerland","name":"Gebenstorf","name_adm0":"Schweiz","name_adm1":"Kanton Aargau","name_adm2":"Baden","name_en":"Gebenstorf","iso":"CH"},"geometry":{"type":"Point","coordinates":[8.239489999999998,47.48136]}},{"type":"Feature","properties":{"country_en":"Switzerland","name":"Therwil","name_adm0":"Schweiz","name_adm1":"Kanton Basel-Land","name_adm2":"Arlesheim","name_en":"Therwil","iso":"CH"},"geometry":{"type":"Point","coordinates":[7.552859999999999,47.50117]}},{"type":"Feature","properties":{"country_en":"Switzerland","name":"Guttet","name_adm0":"Schweiz","name_adm1":"Canton de Valais","name_adm2":"Leuk","name_en":"Guttet","iso":"CH"},"geometry":{"type":"Point","coordinates":[7.668113,46.33075]}},{"type":"Feature","properties":{"country_en":"Switzerland","name":"Mittenägeri","name_adm0":"Schweiz","name_adm1":"Kanton Zug","name_adm2":"Zug","name_en":"Mittenägeri","iso":"CH"},"geometry":{"type":"Point","coordinates":[8.59175,47.13704499999999]}},{"type":"Feature","properties":{"country_en":"Switzerland","name":"Trin Mulin","name_adm0":"Schweiz","name_adm1":"Kanton Graubünden","name_adm2":"Imboden","name_en":"Trin Mulin","iso":"CH"},"geometry":{"type":"Point","coordinates":[9.34107,46.83367]}},{"type":"Feature","properties":{"country_en":"Switzerland","name":"Agarone","name_adm0":"Schweiz","name_adm1":"Cantone Ticino","name_adm2":"Locarno","name_en":"Agarone","iso":"CH"},"geometry":{"type":"Point","coordinates":[8.90628,46.17844]}},{"type":"Feature","properties":{"country_en":"Switzerland","name":"Flumserberg Saxli","name_adm0":"Schweiz","name_adm1":"Kanton St. Gallen","name_adm2":"Sargans","name_en":"Flumserberg Saxli","iso":"CH"},"geometry":{"type":"Point","coordinates":[9.349665,47.080614]}},{"type":"Feature","properties":{"country_en":"Switzerland","name":"Warmesberg","name_adm0":"Schweiz","name_adm1":"Kanton St. Gallen","name_adm2":"Oberrheintal","name_en":"Warmesberg","iso":"CH"},"geometry":{"type":"Point","coordinates":[9.503622,47.364519]}},{"type":"Feature","properties":{"country_en":"Switzerland","name":"Wickacker","name_adm0":"Schweiz","name_adm1":"Kanton Bern","name_adm2":"Bern-Mittelland","name_en":"Wickacker","iso":"CH"},"geometry":{"type":"Point","coordinates":[7.286375,46.968975]}},{"type":"Feature","properties":{"country_en":"Switzerland","name":"Niederwil","name_adm0":"Schweiz","name_adm1":"Kanton Solothurn","name_adm2":"Lebern","name_en":"Niederwil","iso":"CH"},"geometry":{"type":"Point","coordinates":[7.571340000000001,47.252]}},{"type":"Feature","properties":{"country_en":"Switzerland","name":"Anetswil","name_adm0":"Schweiz","name_adm1":"Kanton Thurgau","name_adm2":"Münchwilen","name_en":"Anetswil","iso":"CH"},"geometry":{"type":"Point","coordinates":[8.97554,47.50692]}},{"type":"Feature","properties":{"country_en":"Switzerland","name":"Brunau","name_adm0":"Schweiz","name_adm1":"Kanton Zürich","name_adm2":"Dietikon","name_en":"Brunau","iso":"CH"},"geometry":{"type":"Point","coordinates":[8.41641,47.41383999999999]}},{"type":"Feature","properties":{"country_en":"Switzerland","name":"Brusata","name_adm0":"Schweiz","name_adm1":"Cantone Ticino","name_adm2":"Mendrisio","name_en":"Brusata di Novazzano","iso":"CH"},"geometry":{"type":"Point","coordinates":[8.96578,45.84379]}},{"type":"Feature","properties":{"country_en":"Switzerland","name":"Burg","name_adm0":"Schweiz","name_adm1":"Kanton Zürich","name_adm2":"Bülach","name_en":"Burg","iso":"CH"},"geometry":{"type":"Point","coordinates":[8.5301,47.5746]}},{"type":"Feature","properties":{"country_en":"Switzerland","name":"Gündlikon","name_adm0":"Schweiz","name_adm1":"Kanton Zürich","name_adm2":"Winterthur","name_en":"Gündlikon","iso":"CH"},"geometry":{"type":"Point","coordinates":[8.83832,47.523059999999994]}},{"type":"Feature","properties":{"country_en":"Switzerland","name":"Gurzelen","name_adm0":"Schweiz","name_adm1":"Kanton Bern","name_adm2":"Thun","name_en":"Gurzelen","iso":"CH"},"geometry":{"type":"Point","coordinates":[7.54264,46.77644]}},{"type":"Feature","properties":{"country_en":"Switzerland","name":"Linn","name_adm0":"Schweiz","name_adm1":"Kanton Aargau","name_adm2":"Brugg","name_en":"Linn","iso":"CH"},"geometry":{"type":"Point","coordinates":[8.122319999999998,47.47111]}},{"type":"Feature","properties":{"country_en":"Switzerland","name":"Loo","name_adm0":"Schweiz","name_adm1":"Kanton Zürich","name_adm2":"Affoltern","name_en":"Loo","iso":"CH"},"geometry":{"type":"Point","coordinates":[8.44245,47.28812]}},{"type":"Feature","properties":{"country_en":"Switzerland","name":"Lovens","name_adm0":"Schweiz","name_adm1":"Canton de Fribourg","name_adm2":"La Sarine","name_en":"Lovens","iso":"CH"},"geometry":{"type":"Point","coordinates":[7.021129999999999,46.77413]}},{"type":"Feature","properties":{"country_en":"Switzerland","name":"Montalchez","name_adm0":"Schweiz","name_adm1":"Canton de Neuchâtel","name_adm2":"Boudry","name_en":"Montalchez","iso":"CH"},"geometry":{"type":"Point","coordinates":[6.73447,46.90925]}},{"type":"Feature","properties":{"country_en":"Switzerland","name":"Moosaffoltern","name_adm0":"Schweiz","name_adm1":"Kanton Bern","name_adm2":"Seeland","name_en":"Moosaffoltern","iso":"CH"},"geometry":{"type":"Point","coordinates":[7.439969999999999,47.04467999999999]}},{"type":"Feature","properties":{"country_en":"Switzerland","name":"St. Jakob","name_adm0":"Schweiz","name_adm1":"Kanton Nidwalden","name_adm2":"Nidwalden","name_en":"St. Jakob","iso":"CH"},"geometry":{"type":"Point","coordinates":[8.30773,46.93572]}},{"type":"Feature","properties":{"country_en":"Switzerland","name":"Sonnental","name_adm0":"Schweiz","name_adm1":"Kanton St. Gallen","name_adm2":"Wil","name_en":"Sonnental","iso":"CH"},"geometry":{"type":"Point","coordinates":[8.80698,47.25353]}},{"type":"Feature","properties":{"country_en":"Switzerland","name":"Starrberg","name_adm0":"Schweiz","name_adm1":"Kanton St. Gallen","name_adm2":"Gaster","name_en":"Starrberg","iso":"CH"},"geometry":{"type":"Point","coordinates":[9.00817,47.203849999999996]}},{"type":"Feature","properties":{"country_en":"Switzerland","name":"Wöschnau","name_adm0":"Schweiz","name_adm1":"Kanton Solothurn","name_adm2":"Olten","name_en":"Wöschnau","iso":"CH"},"geometry":{"type":"Point","coordinates":[8.02554,47.38491]}},{"type":"Feature","properties":{"country_en":"Switzerland","name":"Wallikon","name_adm0":"Schweiz","name_adm1":"Kanton Zürich","name_adm2":"Pfäffikon","name_en":"Wallikon","iso":"CH"},"geometry":{"type":"Point","coordinates":[8.805389999999997,47.37837]}},{"type":"Feature","properties":{"country_en":"Switzerland","name":"Neuchâtel","name_adm0":"Schweiz","name_adm1":"Canton de Neuchâtel","name_adm2":"Neuchâtel","name_en":"Neuchâtel","iso":"CH"},"geometry":{"type":"Point","coordinates":[6.99337,47.01798999999999]}},{"type":"Feature","properties":{"country_en":"Switzerland","name":"Rupperswil","name_adm0":"Schweiz","name_adm1":"Kanton St. Gallen","name_adm2":"Alttoggenburg","name_en":"Rupperswil","iso":"CH"},"geometry":{"type":"Point","coordinates":[8.12877,47.40131]}},{"type":"Feature","properties":{"country_en":"Switzerland","name":"Büren","name_adm0":"Schweiz","name_adm1":"Kanton Solothurn","name_adm2":"Dorneck","name_en":"Büren","iso":"CH"},"geometry":{"type":"Point","coordinates":[7.665785,47.449169]}},{"type":"Feature","properties":{"country_en":"Switzerland","name":"Cassarate","name_adm0":"Schweiz","name_adm1":"Cantone Ticino","name_adm2":"Lugano","name_en":"Cassarate","iso":"CH"},"geometry":{"type":"Point","coordinates":[8.969864,46.005562]}},{"type":"Feature","properties":{"country_en":"Switzerland","name":"Stans","name_adm0":"Schweiz","name_adm1":"Kanton Nidwalden","name_adm2":"Nidwalden","name_en":"Stans","iso":"CH"},"geometry":{"type":"Point","coordinates":[8.366,46.95845]}},{"type":"Feature","properties":{"country_en":"Switzerland","name":"Arbedo-Castione","name_adm0":"Schweiz","name_adm1":"Cantone Ticino","name_adm2":"Bellinzona","name_en":"Arbedo-Castione","iso":"CH"},"geometry":{"type":"Point","coordinates":[9.08333,46.2]}},{"type":"Feature","properties":{"country_en":"Switzerland","name":"Meiringen","name_adm0":"Schweiz","name_adm1":"Kanton Bern","name_adm2":"Interlaken-Oberhasli","name_en":"Meiringen","iso":"CH"},"geometry":{"type":"Point","coordinates":[8.18923,46.72597]}},{"type":"Feature","properties":{"country_en":"Switzerland","name":"Hägglingen","name_adm0":"Schweiz","name_adm1":"Kanton Aargau","name_adm2":"Bremgarten","name_en":"Hägglingen","iso":"CH"},"geometry":{"type":"Point","coordinates":[8.25828,47.38998]}},{"type":"Feature","properties":{"country_en":"Switzerland","name":"Liestal","name_adm0":"Schweiz","name_adm1":"Kanton Basel-Land","name_adm2":"Liestal","name_en":"Liestal","iso":"CH"},"geometry":{"type":"Point","coordinates":[7.72569,47.485409999999995]}},{"type":"Feature","properties":{"country_en":"Switzerland","name":"Stein","name_adm0":"Schweiz","name_adm1":"Kanton Aargau","name_adm2":"Rheinfelden","name_en":"Stein","iso":"CH"},"geometry":{"type":"Point","coordinates":[7.952750000000001,47.54517]}},{"type":"Feature","properties":{"country_en":"Switzerland","name":"Steinen","name_adm0":"Schweiz","name_adm1":"Kanton Schwyz","name_adm2":"Schwyz","name_en":"Steinen","iso":"CH"},"geometry":{"type":"Point","coordinates":[8.609499999999999,47.051739999999995]}},{"type":"Feature","properties":{"country_en":"Switzerland","name":"Uesslingen-Buch","name_adm0":"Schweiz","name_adm1":"Kanton Thurgau","name_adm2":"Frauenfeld","name_en":"Uesslingen-Buch","iso":"CH"},"geometry":{"type":"Point","coordinates":[8.83064,47.58944]}},{"type":"Feature","properties":{"country_en":"Switzerland","name":"Grancia","name_adm0":"Schweiz","name_adm1":"Cantone Ticino","name_adm2":"Lugano","name_en":"Grancia","iso":"CH"},"geometry":{"type":"Point","coordinates":[8.92752,45.9684]}},{"type":"Feature","properties":{"country_en":"Switzerland","name":"Neggio","name_adm0":"Schweiz","name_adm1":"Cantone Ticino","name_adm2":"Lugano","name_en":"Neggio","iso":"CH"},"geometry":{"type":"Point","coordinates":[8.87785,45.98923]}},{"type":"Feature","properties":{"country_en":"Switzerland","name":"Rüti","name_adm0":"Schweiz","name_adm1":"Kanton Zürich","name_adm2":"Horgen","name_en":"Rüti","iso":"CH"},"geometry":{"type":"Point","coordinates":[8.73956,47.38765]}},{"type":"Feature","properties":{"country_en":"Switzerland","name":"Rütihof","name_adm0":"Schweiz","name_adm1":"Kanton Zürich","name_adm2":"Meilen","name_en":"Rütihof","iso":"CH"},"geometry":{"type":"Point","coordinates":[8.638559999999998,47.30483999999999]}},{"type":"Feature","properties":{"country_en":"Switzerland","name":"Sonnenberg","name_adm0":"Schweiz","name_adm1":"Kanton Basel-Land","name_adm2":"Sissach","name_en":"Sonnenberg","iso":"CH"},"geometry":{"type":"Point","coordinates":[8.52513,47.61492]}},{"type":"Feature","properties":{"country_en":"Switzerland","name":"Spino","name_adm0":"Schweiz","name_adm1":"Kanton Graubünden","name_adm2":"Maloja/Maloggia","name_en":"Spino","iso":"CH"},"geometry":{"type":"Point","coordinates":[8.80469,46.004459999999995]}},{"type":"Feature","properties":{"country_en":"Switzerland","name":"Cottens","name_adm0":"Schweiz","name_adm1":"Canton de Fribourg","name_adm2":"La Sarine","name_en":"Cottens","iso":"CH"},"geometry":{"type":"Point","coordinates":[6.74197,46.65521]}},{"type":"Feature","properties":{"country_en":"Switzerland","name":"Sonvico","name_adm0":"Schweiz","name_adm1":"Cantone Ticino","name_adm2":"Lugano","name_en":"Sonvico","iso":"CH"},"geometry":{"type":"Point","coordinates":[9.01165,46.06426]}},{"type":"Feature","properties":{"country_en":"Switzerland","name":"Croglio","name_adm0":"Schweiz","name_adm1":"Cantone Ticino","name_adm2":"Lugano","name_en":"Croglio","iso":"CH"},"geometry":{"type":"Point","coordinates":[8.84229,45.98834999999999]}},{"type":"Feature","properties":{"country_en":"Switzerland","name":"Wallisellen","name_adm0":"Schweiz","name_adm1":"Kanton Zürich","name_adm2":"Bülach","name_en":"Wallisellen","iso":"CH"},"geometry":{"type":"Point","coordinates":[8.59489,47.41738]}},{"type":"Feature","properties":{"country_en":"Switzerland","name":"Lancy","name_adm0":"Schweiz","name_adm1":"Canton de Genève","name_adm2":"Genève","name_en":"Lancy","iso":"CH"},"geometry":{"type":"Point","coordinates":[6.11578,46.18969]}},{"type":"Feature","properties":{"country_en":"Switzerland","name":"Hettlingen","name_adm0":"Schweiz","name_adm1":"Kanton Zürich","name_adm2":"Winterthur","name_en":"Hettlingen","iso":"CH"},"geometry":{"type":"Point","coordinates":[8.70623,47.54952]}},{"type":"Feature","properties":{"country_en":"Switzerland","name":"Moosleerau","name_adm0":"Schweiz","name_adm1":"Kanton Aargau","name_adm2":"Zofingen","name_en":"Moosleerau","iso":"CH"},"geometry":{"type":"Point","coordinates":[8.06613,47.26445]}},{"type":"Feature","properties":{"country_en":"Switzerland","name":"Root","name_adm0":"Schweiz","name_adm1":"Kanton Luzern","name_adm2":"Luzern","name_en":"Root","iso":"CH"},"geometry":{"type":"Point","coordinates":[8.38851,47.1113]}},{"type":"Feature","properties":{"country_en":"Switzerland","name":"Schafisheim","name_adm0":"Schweiz","name_adm1":"Kanton Aargau","name_adm2":"Lenzburg","name_en":"Schafisheim","iso":"CH"},"geometry":{"type":"Point","coordinates":[8.139129999999998,47.37367999999999]}},{"type":"Feature","properties":{"country_en":"Switzerland","name":"Kappel","name_adm0":"Schweiz","name_adm1":"Kanton Solothurn","name_adm2":"Olten","name_en":"Kappel","iso":"CH"},"geometry":{"type":"Point","coordinates":[7.85751,47.321169999999995]}},