{"type":"FeatureCollection","features":[{"type":"Feature","properties":{"country_en":"Cameroon","name":"Bossoum","name_adm0":"Cameroun","name_adm1":"Nord","name_en":"Bossoum","iso":"CM"},"geometry":{"type":"Point","coordinates":[13.697499999999998,9.9425]}},{"type":"Feature","properties":{"country_en":"Cameroon","name":"Mbé","name_adm0":"Cameroun","name_adm1":"Nord","name_en":"Mbé","iso":"CM"},"geometry":{"type":"Point","coordinates":[13.6,7.85]}},{"type":"Feature","properties":{"country_en":"Cameroon","name":"Mankim","name_adm0":"Cameroun","name_adm1":"Centre","name_en":"Mankim","iso":"CM"},"geometry":{"type":"Point","coordinates":[12,5.01667]}},{"type":"Feature","properties":{"country_en":"Cameroon","name":"Manjo","name_adm0":"Cameroun","name_adm1":"Littoral","name_en":"Manjo","iso":"CM"},"geometry":{"type":"Point","coordinates":[9.8217,4.8428]}},{"type":"Feature","properties":{"country_en":"Cameroon","name":"Mamfe","name_adm0":"Cameroun","name_adm1":"Sud-Ouest","name_en":"Mamfe","iso":"CM"},"geometry":{"type":"Point","coordinates":[9.3123,5.754]}},{"type":"Feature","properties":{"country_en":"Cameroon","name":"Obala","name_adm0":"Cameroun","name_adm1":"Centre","name_en":"Obala","iso":"CM"},"geometry":{"type":"Point","coordinates":[11.53333,4.16667]}},{"type":"Feature","properties":{"country_en":"Cameroon","name":"Olembé","name_adm0":"Cameroun","name_adm1":"Centre","name_en":"Olembe","iso":"CM"},"geometry":{"type":"Point","coordinates":[11.53333,3.9499999999999997]}},{"type":"Feature","properties":{"country_en":"Cameroon","name":"Méyomésala","name_adm0":"Cameroun","name_adm1":"Sud","name_en":"Méyomésala","iso":"CM"},"geometry":{"type":"Point","coordinates":[12.25,3.11667]}},{"type":"Feature","properties":{"country_en":"Cameroon","name":"Mintom II","name_adm0":"Cameroun","name_adm1":"Sud","name_en":"Mintom II","iso":"CM"},"geometry":{"type":"Point","coordinates":[13.28333,2.6999999999999997]}},{"type":"Feature","properties":{"country_en":"Cameroon","name":"Oveng","name_adm0":"Cameroun","name_adm1":"Sud","name_en":"Oveng","iso":"CM"},"geometry":{"type":"Point","coordinates":[10.31667,2.4]}},{"type":"Feature","properties":{"country_en":"Cameroon","name":"Ndjoré","name_adm0":"Cameroun","name_adm1":"Centre","name_en":"Ndjore","iso":"CM"},"geometry":{"type":"Point","coordinates":[11.81667,4.4]}},{"type":"Feature","properties":{"country_en":"Cameroon","name":"Mvoula","name_adm0":"Cameroun","name_adm1":"Sud","name_en":"Mvoula","iso":"CM"},"geometry":{"type":"Point","coordinates":[11.6,2.83333]}},{"type":"Feature","properties":{"country_en":"Cameroon","name":"Ambam","name_adm0":"Cameroun","name_adm1":"Sud","name_en":"Ambam","iso":"CM"},"geometry":{"type":"Point","coordinates":[11.28333,2.38333]}},{"type":"Feature","properties":{"country_en":"Cameroon","name":"Babadjou","name_adm0":"Cameroun","name_adm1":"Ouest","name_en":"Babadjou","iso":"CM"},"geometry":{"type":"Point","coordinates":[10.19344,5.66943]}},{"type":"Feature","properties":{"country_en":"Cameroon","name":"Zgagué","name_adm0":"Cameroun","name_adm1":"Extreme-Nord","name_en":"Zgagué","iso":"CM"},"geometry":{"type":"Point","coordinates":[14.649699999999998,11.6794]}},{"type":"Feature","properties":{"country_en":"Cameroon","name":"New Deido","name_adm0":"Cameroun","name_adm1":"Littoral","name_en":"New Deido","iso":"CM"},"geometry":{"type":"Point","coordinates":[9.704874999999998,4.062605]}},{"type":"Feature","properties":{"country_en":"Cameroon","name":"Mbem","name_adm0":"Cameroun","name_adm1":"Nord-Ouest","name_en":"Mbem","iso":"CM"},"geometry":{"type":"Point","coordinates":[11.01667,6.45]}},{"type":"Feature","properties":{"country_en":"Cameroon","name":"Mbengwi","name_adm0":"Cameroun","name_adm1":"Nord-Ouest","name_en":"Mbengwi","iso":"CM"},"geometry":{"type":"Point","coordinates":[9.999999999999998,6.01667]}},{"type":"Feature","properties":{"country_en":"Cameroon","name":"Yabassi","name_adm0":"Cameroun","name_adm1":"Littoral","name_en":"Yabassi","iso":"CM"},"geometry":{"type":"Point","coordinates":[9.968219999999999,4.45697]}},{"type":"Feature","properties":{"country_en":"Cameroon","name":"Mora","name_adm0":"Cameroun","name_adm1":"Extreme-Nord","name_en":"Mora","iso":"CM"},"geometry":{"type":"Point","coordinates":[14.140109999999998,11.04611]}},{"type":"Feature","properties":{"country_en":"Cameroon","name":"Sud-Ouest","name_adm0":"Cameroun","name_adm1":"Sud-Ouest","name_en":"Sud-Ouest","iso":"CM"},"geometry":{"type":"Point","coordinates":[9.33333,5.416669999999999]}},{"type":"Feature","properties":{"country_en":"Cameroon","name":"Adamaoua","name_adm0":"Cameroun","name_adm1":"Adamaoua","name_en":"Adamaoua","iso":"CM"},"geometry":{"type":"Point","coordinates":[13.5,6.5]}},{"type":"Feature","properties":{"country_en":"Cameroon","name":"Centre","name_adm0":"Cameroun","name_adm1":"Centre","name_en":"Centre","iso":"CM"},"geometry":{"type":"Point","coordinates":[12,4.75]}},{"type":"Feature","properties":{"country_en":"Cameroon","name":"Sud","name_adm0":"Cameroun","name_adm1":"Sud","name_en":"Sud","iso":"CM"},"geometry":{"type":"Point","coordinates":[11.75,2.4999999999999996]}},{"type":"Feature","properties":{"country_en":"Cameroon","name":"Batcham","name_adm0":"Cameroun","name_adm1":"Ouest","name_en":"Batcham","iso":"CM"},"geometry":{"type":"Point","coordinates":[10.20444,5.58029]}},{"type":"Feature","properties":{"country_en":"Cameroon","name":"Akwa","name_adm0":"Cameroun","name_adm1":"Littoral","name_en":"Akwa","iso":"CM"},"geometry":{"type":"Point","coordinates":[9.7,4.05]}},{"type":"Feature","properties":{"country_en":"Cameroon","name":"Bangangté","name_adm0":"Cameroun","name_adm1":"Ouest","name_en":"Bangangté","iso":"CM"},"geometry":{"type":"Point","coordinates":[10.51975,5.14091]}},{"type":"Feature","properties":{"country_en":"Cameroon","name":"Bali","name_adm0":"Cameroun","name_adm1":"Nord-Ouest","name_en":"Bali","iso":"CM"},"geometry":{"type":"Point","coordinates":[10.01248,5.887239999999999]}},{"type":"Feature","properties":{"country_en":"Cameroon","name":"Bindiba","name_adm0":"Cameroun","name_adm1":"Adamaoua","name_en":"Bindiba","iso":"CM"},"geometry":{"type":"Point","coordinates":[13.78333,6.36667]}},{"type":"Feature","properties":{"country_en":"Cameroon","name":"Bangem","name_adm0":"Cameroun","name_adm1":"Sud-Ouest","name_en":"Bangem","iso":"CM"},"geometry":{"type":"Point","coordinates":[9.7696,5.0856]}},{"type":"Feature","properties":{"country_en":"Cameroon","name":"Edzendouan","name_adm0":"Cameroun","name_adm1":"Centre","name_en":"Edzendouan","iso":"CM"},"geometry":{"type":"Point","coordinates":[11.75,4.2]}},{"type":"Feature","properties":{"country_en":"Cameroon","name":"Mayo Oulo","name_adm0":"Cameroun","name_adm1":"Nord","name_en":"Mayo Oulo","iso":"CM"},"geometry":{"type":"Point","coordinates":[13.62222,9.95944]}},{"type":"Feature","properties":{"country_en":"Cameroon","name":"Mbangasina","name_adm0":"Cameroun","name_adm1":"Centre","name_en":"Mbangasina","iso":"CM"},"geometry":{"type":"Point","coordinates":[11.38333,4.56667]}},{"type":"Feature","properties":{"country_en":"Cameroon","name":"Yaoundé","name_adm0":"Cameroun","name_adm1":"Centre","name_en":"Yaounde","iso":"CM"},"geometry":{"type":"Point","coordinates":[11.516669999999998,3.86667]}},{"type":"Feature","properties":{"country_en":"Cameroon","name":"Limbe","name_adm0":"Cameroun","name_adm1":"Sud-Ouest","name_en":"Limbe","iso":"CM"},"geometry":{"type":"Point","coordinates":[9.214899999999998,4.0242]}},{"type":"Feature","properties":{"country_en":"Cameroon","name":"Gambé","name_adm0":"Cameroun","name_adm1":"Centre","name_en":"Gambe","iso":"CM"},"geometry":{"type":"Point","coordinates":[11.4917,5.78885]}},{"type":"Feature","properties":{"country_en":"Cameroon","name":"Hina","name_adm0":"Cameroun","name_adm1":"Extreme-Nord","name_en":"Hina","iso":"CM"},"geometry":{"type":"Point","coordinates":[13.78638,10.33594]}},{"type":"Feature","properties":{"country_en":"Cameroon","name":"Mozogo","name_adm0":"Cameroun","name_adm1":"Extreme-Nord","name_en":"Mozogo","iso":"CM"},"geometry":{"type":"Point","coordinates":[13.906829999999998,10.96598]}},{"type":"Feature","properties":{"country_en":"Cameroon","name":"Ndop","name_adm0":"Cameroun","name_adm1":"Nord-Ouest","name_en":"Ndop","iso":"CM"},"geometry":{"type":"Point","coordinates":[10.43985,5.99071]}},{"type":"Feature","properties":{"country_en":"Cameroon","name":"Ngok Mapoubi","name_adm0":"Cameroun","name_adm1":"Centre","name_en":"Ngok Mapoubi","iso":"CM"},"geometry":{"type":"Point","coordinates":[10.85,3.93333]}},{"type":"Feature","properties":{"country_en":"Cameroon","name":"Pouma","name_adm0":"Cameroun","name_adm1":"Littoral","name_en":"Pouma","iso":"CM"},"geometry":{"type":"Point","coordinates":[10.51667,3.8499999999999996]}},{"type":"Feature","properties":{"country_en":"Cameroon","name":"Santa","name_adm0":"Cameroun","name_adm1":"Nord-Ouest","name_en":"Santa","iso":"CM"},"geometry":{"type":"Point","coordinates":[10.17423,5.802389999999999]}},{"type":"Feature","properties":{"country_en":"Cameroon","name":"Tombel","name_adm0":"Cameroun","name_adm1":"Sud-Ouest","name_en":"Tombel","iso":"CM"},"geometry":{"type":"Point","coordinates":[9.6705,4.7466]}},{"type":"Feature","properties":{"country_en":"Cameroon","name":"Matonb","name_adm0":"Cameroun","name_adm1":"Centre","name_en":"Matonb","iso":"CM"},"geometry":{"type":"Point","coordinates":[11.06667,3.81667]}},{"type":"Feature","properties":{"country_en":"Cameroon","name":"Moloundou","name_adm0":"Cameroun","name_adm1":"Est","name_en":"Moloundou","iso":"CM"},"geometry":{"type":"Point","coordinates":[15.166669999999998,2.0499999999999994]}},{"type":"Feature","properties":{"country_en":"Cameroon","name":"Abong Mbang","name_adm0":"Cameroun","name_adm1":"Est","name_en":"Abong Mbang","iso":"CM"},"geometry":{"type":"Point","coordinates":[13.18333,3.9833299999999996]}},{"type":"Feature","properties":{"country_en":"Cameroon","name":"Nkambe","name_adm0":"Cameroun","name_adm1":"Nord-Ouest","name_en":"Nkambe","iso":"CM"},"geometry":{"type":"Point","coordinates":[10.66667,6.63333]}},{"type":"Feature","properties":{"country_en":"Cameroon","name":"Belo","name_adm0":"Cameroun","name_adm1":"Nord-Ouest","name_en":"Belo","iso":"CM"},"geometry":{"type":"Point","coordinates":[10.25,6.13333]}},{"type":"Feature","properties":{"country_en":"Cameroon","name":"Sakjé","name_adm0":"Cameroun","name_adm1":"Nord","name_en":"Sakje","iso":"CM"},"geometry":{"type":"Point","coordinates":[13.76667,8.199999999999998]}},{"type":"Feature","properties":{"country_en":"Cameroon","name":"Bandjoun","name_adm0":"Cameroun","name_adm1":"Ouest","name_en":"Bandjoun","iso":"CM"},"geometry":{"type":"Point","coordinates":[10.41816,5.37878]}},{"type":"Feature","properties":{"country_en":"Cameroon","name":"Mouangko","name_adm0":"Cameroun","name_adm1":"Littoral","name_en":"Mouangko","iso":"CM"},"geometry":{"type":"Point","coordinates":[9.77694,3.6397199999999996]}},{"type":"Feature","properties":{"country_en":"Cameroon","name":"Wum","name_adm0":"Cameroun","name_adm1":"Nord-Ouest","name_en":"Wum","iso":"CM"},"geometry":{"type":"Point","coordinates":[10.06667,6.38333]}},{"type":"Feature","properties":{"country_en":"Cameroon","name":"Kribi","name_adm0":"Cameroun","name_adm1":"Sud","name_en":"Kribi","iso":"CM"},"geometry":{"type":"Point","coordinates":[9.91667,2.95]}},{"type":"Feature","properties":{"country_en":"Cameroon","name":"Muyuka","name_adm0":"Cameroun","name_adm1":"Sud-Ouest","name_en":"Muyuka","iso":"CM"},"geometry":{"type":"Point","coordinates":[9.4103,4.2898]}},{"type":"Feature","properties":{"country_en":"Cameroon","name":"Mundemba","name_adm0":"Cameroun","name_adm1":"Sud-Ouest","name_en":"Mundemba","iso":"CM"},"geometry":{"type":"Point","coordinates":[8.8724,4.9479]}},{"type":"Feature","properties":{"country_en":"Cameroon","name":"Mokolo","name_adm0":"Cameroun","name_adm1":"Extreme-Nord","name_en":"Mokolo","iso":"CM"},"geometry":{"type":"Point","coordinates":[13.80188,10.73978]}},{"type":"Feature","properties":{"country_en":"Cameroon","name":"Lolodorf","name_adm0":"Cameroun","name_adm1":"Sud","name_en":"Lolodorf","iso":"CM"},"geometry":{"type":"Point","coordinates":[10.73333,3.23333]}},{"type":"Feature","properties":{"country_en":"Cameroon","name":"Koza","name_adm0":"Cameroun","name_adm1":"Extreme-Nord","name_en":"Koza","iso":"CM"},"geometry":{"type":"Point","coordinates":[13.878549999999999,10.87079]}},{"type":"Feature","properties":{"country_en":"Cameroon","name":"Edéa","name_adm0":"Cameroun","name_adm1":"Littoral","name_en":"Edéa","iso":"CM"},"geometry":{"type":"Point","coordinates":[10.13333,3.8]}},{"type":"Feature","properties":{"country_en":"Cameroon","name":"Fundong","name_adm0":"Cameroun","name_adm1":"Nord-Ouest","name_en":"Fundong","iso":"CM"},"geometry":{"type":"Point","coordinates":[10.266669999999998,6.25]}},{"type":"Feature","properties":{"country_en":"Cameroon","name":"Foumbot","name_adm0":"Cameroun","name_adm1":"Ouest","name_en":"Foumbot","iso":"CM"},"geometry":{"type":"Point","coordinates":[10.6356,5.50787]}},{"type":"Feature","properties":{"country_en":"Cameroon","name":"Évodoula","name_adm0":"Cameroun","name_adm1":"Centre","name_en":"Évodoula","iso":"CM"},"geometry":{"type":"Point","coordinates":[11.2,4.08333]}},{"type":"Feature","properties":{"country_en":"Cameroon","name":"Djohong","name_adm0":"Cameroun","name_adm1":"Adamaoua","name_en":"Djohong","iso":"CM"},"geometry":{"type":"Point","coordinates":[14.699999999999998,6.83333]}},{"type":"Feature","properties":{"country_en":"Cameroon","name":"Bana","name_adm0":"Cameroun","name_adm1":"Ouest","name_en":"Bana","iso":"CM"},"geometry":{"type":"Point","coordinates":[10.2762,5.1481]}},{"type":"Feature","properties":{"country_en":"Cameroon","name":"Atok","name_adm0":"Cameroun","name_adm1":"Est","name_en":"Atok","iso":"CM"},"geometry":{"type":"Point","coordinates":[12.78333,4]}},{"type":"Feature","properties":{"country_en":"Cameroon","name":"Rey Bouba","name_adm0":"Cameroun","name_adm1":"Nord","name_en":"Rey Bouba","iso":"CM"},"geometry":{"type":"Point","coordinates":[14.1786,8.6724]}},{"type":"Feature","properties":{"country_en":"Cameroon","name":"Tiko","name_adm0":"Cameroun","name_adm1":"Sud-Ouest","name_en":"Tiko","iso":"CM"},"geometry":{"type":"Point","coordinates":[9.3699,4.0745]}},{"type":"Feature","properties":{"country_en":"Cameroon","name":"Tignère","name_adm0":"Cameroun","name_adm1":"Adamaoua","name_en":"Tingere","iso":"CM"},"geometry":{"type":"Point","coordinates":[12.65,7.36667]}},{"type":"Feature","properties":{"country_en":"Cameroon","name":"Soa","name_adm0":"Cameroun","name_adm1":"Centre","name_en":"Soa","iso":"CM"},"geometry":{"type":"Point","coordinates":[11.6,3.9833299999999996]}},{"type":"Feature","properties":{"country_en":"Cameroon","name":"Bazou","name_adm0":"Cameroun","name_adm1":"Ouest","name_en":"Bazou","iso":"CM"},"geometry":{"type":"Point","coordinates":[10.46978,5.05695]}},{"type":"Feature","properties":{"country_en":"Cameroon","name":"Banyo","name_adm0":"Cameroun","name_adm1":"Adamaoua","name_en":"Banyo","iso":"CM"},"geometry":{"type":"Point","coordinates":[11.81667,6.75]}},{"type":"Feature","properties":{"country_en":"Cameroon","name":"Ngomedzap","name_adm0":"Cameroun","name_adm1":"Centre","name_en":"Ngomedzap","iso":"CM"},"geometry":{"type":"Point","coordinates":[11.2,3.25]}},{"type":"Feature","properties":{"country_en":"Cameroon","name":"Bélabo","name_adm0":"Cameroun","name_adm1":"Est","name_en":"Bélabo","iso":"CM"},"geometry":{"type":"Point","coordinates":[13.299999999999999,4.93333]}},{"type":"Feature","properties":{"country_en":"Cameroon","name":"Bélel","name_adm0":"Cameroun","name_adm1":"Adamaoua","name_en":"Bélel","iso":"CM"},"geometry":{"type":"Point","coordinates":[14.433329999999998,7.05]}},{"type":"Feature","properties":{"country_en":"Cameroon","name":"Batibo","name_adm0":"Cameroun","name_adm1":"Nord-Ouest","name_en":"Batibo","iso":"CM"},"geometry":{"type":"Point","coordinates":[9.8553,5.8358]}},{"type":"Feature","properties":{"country_en":"Cameroon","name":"Minta","name_adm0":"Cameroun","name_adm1":"Centre","name_en":"Minta","iso":"CM"},"geometry":{"type":"Point","coordinates":[12.8,4.58333]}},{"type":"Feature","properties":{"country_en":"Cameroon","name":"Ngambé","name_adm0":"Cameroun","name_adm1":"Littoral","name_en":"Ngambé","iso":"CM"},"geometry":{"type":"Point","coordinates":[10.61667,4.23333]}},{"type":"Feature","properties":{"country_en":"Cameroon","name":"Nguti","name_adm0":"Cameroun","name_adm1":"Sud-Ouest","name_en":"Nguti","iso":"CM"},"geometry":{"type":"Point","coordinates":[9.4185,5.3299]}},{"type":"Feature","properties":{"country_en":"Cameroon","name":"Sangmélima","name_adm0":"Cameroun","name_adm1":"Sud","name_en":"Sangmélima","iso":"CM"},"geometry":{"type":"Point","coordinates":[11.98333,2.93333]}},{"type":"Feature","properties":{"country_en":"Cameroon","name":"Ebolowa","name_adm0":"Cameroun","name_adm1":"Sud","name_en":"Ebolowa","iso":"CM"},"geometry":{"type":"Point","coordinates":[11.15,2.9]}},{"type":"Feature","properties":{"country_en":"Cameroon","name":"Bafia","name_adm0":"Cameroun","name_adm1":"Centre","name_en":"Bafia","iso":"CM"},"geometry":{"type":"Point","coordinates":[11.233329999999999,4.75]}},{"type":"Feature","properties":{"country_en":"Cameroon","name":"Bafang","name_adm0":"Cameroun","name_adm1":"Ouest","name_en":"Bafang","iso":"CM"},"geometry":{"type":"Point","coordinates":[10.178819999999998,5.15625]}},{"type":"Feature","properties":{"country_en":"Cameroon","name":"Bamenda","name_adm0":"Cameroun","name_adm1":"Nord-Ouest","name_en":"Bamenda","iso":"CM"},"geometry":{"type":"Point","coordinates":[10.15824,5.952659999999999]}},{"type":"Feature","properties":{"country_en":"Cameroon","name":"Bantadjé","name_adm0":"Cameroun","name_adm1":"Nord","name_en":"Bantadje","iso":"CM"},"geometry":{"type":"Point","coordinates":[13.21667,8.25]}},{"type":"Feature","properties":{"country_en":"Cameroon","name":"Gawar","name_adm0":"Cameroun","name_adm1":"Extreme-Nord","name_en":"Gawar","iso":"CM"},"geometry":{"type":"Point","coordinates":[13.82833,10.51018]}},{"type":"Feature","properties":{"country_en":"Cameroon","name":"Galim","name_adm0":"Cameroun","name_adm1":"Adamaoua","name_en":"Galim","iso":"CM"},"geometry":{"type":"Point","coordinates":[12.48333,7.1]}},{"type":"Feature","properties":{"country_en":"Cameroon","name":"Letta","name_adm0":"Cameroun","name_adm1":"Est","name_en":"Letta","iso":"CM"},"geometry":{"type":"Point","coordinates":[13.833329999999998,4.93333]}},{"type":"Feature","properties":{"country_en":"Cameroon","name":"Garoua Boulaï","name_adm0":"Cameroun","name_adm1":"Est","name_en":"Garoua Boulaï","iso":"CM"},"geometry":{"type":"Point","coordinates":[14.55,5.883329999999999]}},{"type":"Feature","properties":{"country_en":"Cameroon","name":"Bogo","name_adm0":"Cameroun","name_adm1":"Extreme-Nord","name_en":"Bogo","iso":"CM"},"geometry":{"type":"Point","coordinates":[14.60928,10.7336]}},{"type":"Feature","properties":{"country_en":"Cameroon","name":"Toko","name_adm0":"Cameroun","name_adm1":"Sud-Ouest","name_en":"Toko","iso":"CM"},"geometry":{"type":"Point","coordinates":[9.13472,5.03968]}},{"type":"Feature","properties":{"country_en":"Cameroon","name":"Touboro","name_adm0":"Cameroun","name_adm1":"Nord","name_en":"Touboro","iso":"CM"},"geometry":{"type":"Point","coordinates":[15.356800000000002,7.7708]}},{"type":"Feature","properties":{"country_en":"Cameroon","name":"Touloum","name_adm0":"Cameroun","name_adm1":"Extreme-Nord","name_en":"Touloum","iso":"CM"},"geometry":{"type":"Point","coordinates":[14.835499999999998,10.17971]}},{"type":"Feature","properties":{"country_en":"Cameroon","name":"Touroua","name_adm0":"Cameroun","name_adm1":"Nord","name_en":"Touroua","iso":"CM"},"geometry":{"type":"Point","coordinates":[12.96667,9.08333]}},{"type":"Feature","properties":{"country_en":"Cameroon","name":"Yingui","name_adm0":"Cameroun","name_adm1":"Littoral","name_en":"Yingui","iso":"CM"},"geometry":{"type":"Point","coordinates":[10.3,4.53333]}},{"type":"Feature","properties":{"country_en":"Cameroon","name":"Dizangué","name_adm0":"Cameroun","name_adm1":"Littoral","name_en":"Dizangué","iso":"CM"},"geometry":{"type":"Point","coordinates":[9.983329999999999,3.76667]}},{"type":"Feature","properties":{"country_en":"Cameroon","name":"Ekondo Titi","name_adm0":"Cameroun","name_adm1":"Sud-Ouest","name_en":"Ekondo Titi","iso":"CM"},"geometry":{"type":"Point","coordinates":[9.0404,4.603]}},{"type":"Feature","properties":{"country_en":"Cameroon","name":"Fokoue","name_adm0":"Cameroun","name_adm1":"Ouest","name_en":"Fokoue","iso":"CM"},"geometry":{"type":"Point","coordinates":[10.121999999999998,5.36588]}},{"type":"Feature","properties":{"country_en":"Cameroon","name":"Kolofata","name_adm0":"Cameroun","name_adm1":"Extreme-Nord","name_en":"Kolofata","iso":"CM"},"geometry":{"type":"Point","coordinates":[14.01151,11.1621]}},{"type":"Feature","properties":{"country_en":"Cameroon","name":"Moulvoudaï","name_adm0":"Cameroun","name_adm1":"Extreme-Nord","name_en":"Moulvoudaï","iso":"CM"},"geometry":{"type":"Point","coordinates":[14.85385,10.40588]}},{"type":"Feature","properties":{"country_en":"Cameroon","name":"Akoéman","name_adm0":"Cameroun","name_adm1":"Centre","name_en":"Akoeman","iso":"CM"},"geometry":{"type":"Point","coordinates":[11.58333,3.2]}},{"type":"Feature","properties":{"country_en":"Cameroon","name":"Bengbis","name_adm0":"Cameroun","name_adm1":"Sud","name_en":"Bengbis","iso":"CM"},"geometry":{"type":"Point","coordinates":[12.45,3.45]}},{"type":"Feature","properties":{"country_en":"Cameroon","name":"Biam","name_adm0":"Cameroun","name_adm1":"Nord","name_en":"Biam","iso":"CM"},"geometry":{"type":"Point","coordinates":[14.4,7.76667]}},{"type":"Feature","properties":{"country_en":"Cameroon","name":"Blangoua","name_adm0":"Cameroun","name_adm1":"Extreme-Nord","name_en":"Blangoua","iso":"CM"},"geometry":{"type":"Point","coordinates":[14.575669999999999,12.76756]}},{"type":"Feature","properties":{"country_en":"Cameroon","name":"Bondjok","name_adm0":"Cameroun","name_adm1":"Centre","name_en":"Bondjok","iso":"CM"},"geometry":{"type":"Point","coordinates":[11.2,3.73333]}},{"type":"Feature","properties":{"country_en":"Cameroon","name":"Batchenga","name_adm0":"Cameroun","name_adm1":"Centre","name_en":"Batchenga","iso":"CM"},"geometry":{"type":"Point","coordinates":[11.649999999999999,4.28333]}},{"type":"Feature","properties":{"country_en":"Cameroon","name":"Deido","name_adm0":"Cameroun","name_adm1":"Littoral","name_en":"Deido","iso":"CM"},"geometry":{"type":"Point","coordinates":[9.7253,4.0701]}},{"type":"Feature","properties":{"country_en":"Cameroon","name":"Dembo","name_adm0":"Cameroun","name_adm1":"Nord","name_en":"Dembo","iso":"CM"},"geometry":{"type":"Point","coordinates":[13.549719999999999,9.71056]}},{"type":"Feature","properties":{"country_en":"Cameroon","name":"Diang","name_adm0":"Cameroun","name_adm1":"Est","name_en":"Diang","iso":"CM"},"geometry":{"type":"Point","coordinates":[13.35,4.58333]}},{"type":"Feature","properties":{"country_en":"Cameroon","name":"Dibang","name_adm0":"Cameroun","name_adm1":"Centre","name_en":"Dibang","iso":"CM"},"geometry":{"type":"Point","coordinates":[10.71667,3.9833299999999996]}},{"type":"Feature","properties":{"country_en":"Cameroon","name":"Dikome Balue","name_adm0":"Cameroun","name_adm1":"Sud-Ouest","name_en":"Dikome Balue","iso":"CM"},"geometry":{"type":"Point","coordinates":[9.254,4.9025]}},{"type":"Feature","properties":{"country_en":"Cameroon","name":"Endom","name_adm0":"Cameroun","name_adm1":"Centre","name_en":"Endom","iso":"CM"},"geometry":{"type":"Point","coordinates":[12.53333,4.099999999999999]}},{"type":"Feature","properties":{"country_en":"Cameroon","name":"Eschou","name_adm0":"Cameroun","name_adm1":"Est","name_en":"Eschou","iso":"CM"},"geometry":{"type":"Point","coordinates":[13.08333,3.56667]}},{"type":"Feature","properties":{"country_en":"Cameroon","name":"Figuil","name_adm0":"Cameroun","name_adm1":"Nord","name_en":"Figuil","iso":"CM"},"geometry":{"type":"Point","coordinates":[13.96278,9.75861]}},{"type":"Feature","properties":{"country_en":"Cameroon","name":"Gobo","name_adm0":"Cameroun","name_adm1":"Extreme-Nord","name_en":"Gobo","iso":"CM"},"geometry":{"type":"Point","coordinates":[15.43512,10.00986]}},{"type":"Feature","properties":{"country_en":"Cameroon","name":"Goyoum","name_adm0":"Cameroun","name_adm1":"Est","name_en":"Goyoum","iso":"CM"},"geometry":{"type":"Point","coordinates":[13.38333,5.21667]}},{"type":"Feature","properties":{"country_en":"Cameroon","name":"Guémé","name_adm0":"Cameroun","name_adm1":"Extreme-Nord","name_en":"Guémé","iso":"CM"},"geometry":{"type":"Point","coordinates":[15.176579999999998,10.50389]}},{"type":"Feature","properties":{"country_en":"Cameroon","name":"Guere","name_adm0":"Cameroun","name_adm1":"Extreme-Nord","name_en":"Guere","iso":"CM"},"geometry":{"type":"Point","coordinates":[15.28908,10.06537]}},{"type":"Feature","properties":{"country_en":"Cameroon","name":"Hilé Alifa","name_adm0":"Cameroun","name_adm1":"Extreme-Nord","name_en":"Hilé Alifa","iso":"CM"},"geometry":{"type":"Point","coordinates":[14.31536,12.69427]}},{"type":"Feature","properties":{"country_en":"Cameroon","name":"kaye Kaye I","name_adm0":"Cameroun","name_adm1":"Extreme-Nord","name_en":"kaye Kaye I","iso":"CM"},"geometry":{"type":"Point","coordinates":[15.035059999999998,10.66768]}},{"type":"Feature","properties":{"country_en":"Cameroon","name":"Laro","name_adm0":"Cameroun","name_adm1":"Nord","name_en":"Laro","iso":"CM"},"geometry":{"type":"Point","coordinates":[12.3,8.28333]}},{"type":"Feature","properties":{"country_en":"Cameroon","name":"Lobo","name_adm0":"Cameroun","name_adm1":"Centre","name_en":"Lobo","iso":"CM"},"geometry":{"type":"Point","coordinates":[11.233329999999999,3.9]}},{"type":"Feature","properties":{"country_en":"Cameroon","name":"Malantouen","name_adm0":"Cameroun","name_adm1":"Ouest","name_en":"Malantouen","iso":"CM"},"geometry":{"type":"Point","coordinates":[11.099999999999998,5.73333]}},{"type":"Feature","properties":{"country_en":"Cameroon","name":"Méri","name_adm0":"Cameroun","name_adm1":"Extreme-Nord","name_en":"Méri","iso":"CM"},"geometry":{"type":"Point","coordinates":[14.12153,10.773519999999998]}},{"type":"Feature","properties":{"country_en":"Cameroon","name":"Métèp","name_adm0":"Cameroun","name_adm1":"Centre","name_en":"Metep","iso":"CM"},"geometry":{"type":"Point","coordinates":[12.86667,5.05]}},{"type":"Feature","properties":{"country_en":"Cameroon","name":"Monatélé","name_adm0":"Cameroun","name_adm1":"Centre","name_en":"Monatélé","iso":"CM"},"geometry":{"type":"Point","coordinates":[11.2,4.26667]}},{"type":"Feature","properties":{"country_en":"Cameroon","name":"Ndjoué","name_adm0":"Cameroun","name_adm1":"Est","name_en":"Ndjoue","iso":"CM"},"geometry":{"type":"Point","coordinates":[14.933329999999998,3.4666699999999997]}},{"type":"Feature","properties":{"country_en":"Cameroon","name":"Ngen","name_adm0":"Cameroun","name_adm1":"Centre","name_en":"Ngen","iso":"CM"},"geometry":{"type":"Point","coordinates":[11.633329999999999,3.36667]}},{"type":"Feature","properties":{"country_en":"Cameroon","name":"Ngoïla","name_adm0":"Cameroun","name_adm1":"Est","name_en":"Ngoïla","iso":"CM"},"geometry":{"type":"Point","coordinates":[14.01667,2.61667]}},{"type":"Feature","properties":{"country_en":"Cameroon","name":"Nkolmétet","name_adm0":"Cameroun","name_adm1":"Centre","name_en":"Nkolmetet","iso":"CM"},"geometry":{"type":"Point","coordinates":[11.76667,3.43333]}},{"type":"Feature","properties":{"country_en":"Cameroon","name":"Nkoloboudou","name_adm0":"Cameroun","name_adm1":"Centre","name_en":"Nkoloboudou","iso":"CM"},"geometry":{"type":"Point","coordinates":[12.616669999999997,4.16667]}},{"type":"Feature","properties":{"country_en":"Cameroon","name":"Nkondjok","name_adm0":"Cameroun","name_adm1":"Littoral","name_en":"Nkondjok","iso":"CM"},"geometry":{"type":"Point","coordinates":[10.58333,3.86667]}},{"type":"Feature","properties":{"country_en":"Cameroon","name":"Tchatibali","name_adm0":"Cameroun","name_adm1":"Extreme-Nord","name_en":"Tchatibali","iso":"CM"},"geometry":{"type":"Point","coordinates":[14.929599999999999,10.04377]}},{"type":"Feature","properties":{"country_en":"Cameroon","name":"Tildé Goulfey","name_adm0":"Cameroun","name_adm1":"Extreme-Nord","name_en":"Tilde Goulfey","iso":"CM"},"geometry":{"type":"Point","coordinates":[14.762249999999998,12.12344]}},{"type":"Feature","properties":{"country_en":"Cameroon","name":"Tinto","name_adm0":"Cameroun","name_adm1":"Sud-Ouest","name_en":"Tinto","iso":"CM"},"geometry":{"type":"Point","coordinates":[9.58946,5.54549]}},{"type":"Feature","properties":{"country_en":"Cameroon","name":"Baïla","name_adm0":"Cameroun","name_adm1":"Nord","name_en":"Baila","iso":"CM"},"geometry":{"type":"Point","coordinates":[14.916670000000002,8.58333]}},{"type":"Feature","properties":{"country_en":"Cameroon","name":"Béka","name_adm0":"Cameroun","name_adm1":"Nord","name_en":"Béka","iso":"CM"},"geometry":{"type":"Point","coordinates":[12.883329999999999,9.06667]}},{"type":"Feature","properties":{"country_en":"Cameroon","name":"Biwong","name_adm0":"Cameroun","name_adm1":"Sud","name_en":"Biwong","iso":"CM"},"geometry":{"type":"Point","coordinates":[11.15,3.13333]}},{"type":"Feature","properties":{"country_en":"Cameroon","name":"Dargala","name_adm0":"Cameroun","name_adm1":"Extreme-Nord","name_en":"Dargala","iso":"CM"},"geometry":{"type":"Point","coordinates":[14.604589999999998,10.52623]}},{"type":"Feature","properties":{"country_en":"Cameroon","name":"Datcheka","name_adm0":"Cameroun","name_adm1":"Extreme-Nord","name_en":"Datcheka","iso":"CM"},"geometry":{"type":"Point","coordinates":[14.89513,10.14054]}},{"type":"Feature","properties":{"country_en":"Cameroon","name":"Masso","name_adm0":"Cameroun","name_adm1":"Est","name_en":"Masso","iso":"CM"},"geometry":{"type":"Point","coordinates":[14.01667,3.11667]}},{"type":"Feature","properties":{"country_en":"Cameroon","name":"Méré","name_adm0":"Cameroun","name_adm1":"Adamaoua","name_en":"Mere","iso":"CM"},"geometry":{"type":"Point","coordinates":[12.68333,6.81667]}},{"type":"Feature","properties":{"country_en":"Cameroon","name":"Mésondo","name_adm0":"Cameroun","name_adm1":"Centre","name_en":"Mésondo","iso":"CM"},"geometry":{"type":"Point","coordinates":[10.48333,3.68333]}},{"type":"Feature","properties":{"country_en":"Cameroon","name":"Mingémé","name_adm0":"Cameroun","name_adm1":"Centre","name_en":"Mingeme","iso":"CM"},"geometry":{"type":"Point","coordinates":[11.93333,4.08333]}},{"type":"Feature","properties":{"country_en":"Cameroon","name":"Ngoumou","name_adm0":"Cameroun","name_adm1":"Centre","name_en":"Ngoumou","iso":"CM"},"geometry":{"type":"Point","coordinates":[11.43333,3.7]}},{"type":"Feature","properties":{"country_en":"Cameroon","name":"Nkonga","name_adm0":"Cameroun","name_adm1":"Littoral","name_en":"Nkonga","iso":"CM"},"geometry":{"type":"Point","coordinates":[10.58333,3.96667]}},{"type":"Feature","properties":{"country_en":"Cameroon","name":"Nord-Ouest","name_adm0":"Cameroun","name_adm1":"Nord-Ouest","name_en":"Nord-Ouest","iso":"CM"},"geometry":{"type":"Point","coordinates":[10.5,6.33333]}},{"type":"Feature","properties":{"country_en":"Cameroon","name":"Bafoussam","name_adm0":"Cameroun","name_adm1":"Ouest","name_en":"Bafoussam","iso":"CM"},"geometry":{"type":"Point","coordinates":[10.41786,5.47366]}},{"type":"Feature","properties":{"country_en":"Cameroon","name":"Ngoro","name_adm0":"Cameroun","name_adm1":"Centre","name_en":"Ngoro","iso":"CM"},"geometry":{"type":"Point","coordinates":[11.38333,4.95]}},{"type":"Feature","properties":{"country_en":"Cameroon","name":"Tonga","name_adm0":"Cameroun","name_adm1":"Ouest","name_en":"Tonga","iso":"CM"},"geometry":{"type":"Point","coordinates":[10.7,4.96667]}},{"type":"Feature","properties":{"country_en":"Cameroon","name":"Waza","name_adm0":"Cameroun","name_adm1":"Extreme-Nord","name_en":"Waza","iso":"CM"},"geometry":{"type":"Point","coordinates":[14.57067,11.39879]}},{"type":"Feature","properties":{"country_en":"Cameroon","name":"Littoral","name_adm0":"Cameroun","name_adm1":"Littoral","name_en":"Littoral","iso":"CM"},"geometry":{"type":"Point","coordinates":[9.999999999999998,4]}},{"type":"Feature","properties":{"country_en":"Cameroon","name":"Bell","name_adm0":"Cameroun","name_adm1":"Littoral","name_en":"Bell","iso":"CM"},"geometry":{"type":"Point","coordinates":[9.716669999999999,4.05]}},{"type":"Feature","properties":{"country_en":"Cameroon","name":"Njinikom","name_adm0":"Cameroun","name_adm1":"Nord-Ouest","name_en":"Njinikom","iso":"CM"},"geometry":{"type":"Point","coordinates":[10.28333,6.233329999999999]}},{"type":"Feature","properties":{"country_en":"Cameroon","name":"Nguélémendouka","name_adm0":"Cameroun","name_adm1":"Est","name_en":"Nguélémendouka","iso":"CM"},"geometry":{"type":"Point","coordinates":[12.91667,4.38333]}},{"type":"Feature","properties":{"country_en":"Cameroon","name":"Ngoundi","name_adm0":"Cameroun","name_adm1":"Est","name_en":"Ngoundi","iso":"CM"},"geometry":{"type":"Point","coordinates":[15.116669999999997,3.9]}},{"type":"Feature","properties":{"country_en":"Cameroon","name":"Ngoulemakong","name_adm0":"Cameroun","name_adm1":"Sud","name_en":"Ngoulemakong","iso":"CM"},"geometry":{"type":"Point","coordinates":[11.43333,3.08333]}},{"type":"Feature","properties":{"country_en":"Cameroon","name":"Meïganga","name_adm0":"Cameroun","name_adm1":"Adamaoua","name_en":"Meïganga","iso":"CM"},"geometry":{"type":"Point","coordinates":[14.3,6.5166699999999995]}},{"type":"Feature","properties":{"country_en":"Cameroon","name":"Mangafé","name_adm0":"Cameroun","name_adm1":"Extreme-Nord","name_en":"Mangafe","iso":"CM"},"geometry":{"type":"Point","coordinates":[14.26052,10.91105]}},{"type":"Feature","properties":{"country_en":"Cameroon","name":"Mana","name_adm0":"Cameroun","name_adm1":"Nord","name_en":"Mana","iso":"CM"},"geometry":{"type":"Point","coordinates":[12.86667,7.966669999999999]}},{"type":"Feature","properties":{"country_en":"Cameroon","name":"Makouri","name_adm0":"Cameroun","name_adm1":"Centre","name_en":"Makouri","iso":"CM"},"geometry":{"type":"Point","coordinates":[12.86667,5.48333]}},{"type":"Feature","properties":{"country_en":"Cameroon","name":"Kon","name_adm0":"Cameroun","name_adm1":"Centre","name_en":"Kon","iso":"CM"},"geometry":{"type":"Point","coordinates":[11.06667,4.83333]}},{"type":"Feature","properties":{"country_en":"Cameroon","name":"Deng Deng","name_adm0":"Cameroun","name_adm1":"Est","name_en":"Deng Deng","iso":"CM"},"geometry":{"type":"Point","coordinates":[13.51667,5.199999999999999]}},{"type":"Feature","properties":{"country_en":"Cameroon","name":"Dibombari","name_adm0":"Cameroun","name_adm1":"Littoral","name_en":"Dibombari","iso":"CM"},"geometry":{"type":"Point","coordinates":[9.6561,4.1787]}},{"type":"Feature","properties":{"country_en":"Cameroon","name":"Buea","name_adm0":"Cameroun","name_adm1":"Sud-Ouest","name_en":"Buea","iso":"CM"},"geometry":{"type":"Point","coordinates":[9.241,4.1527]}},{"type":"Feature","properties":{"country_en":"Cameroon","name":"Bibassa","name_adm0":"Cameroun","name_adm1":"Centre","name_en":"Bibassa","iso":"CM"},"geometry":{"type":"Point","coordinates":[12.53333,4.5]}},{"type":"Feature","properties":{"country_en":"Cameroon","name":"Bertoua","name_adm0":"Cameroun","name_adm1":"Est","name_en":"Bertoua","iso":"CM"},"geometry":{"type":"Point","coordinates":[13.68459,4.57728]}},{"type":"Feature","properties":{"country_en":"Cameroon","name":"Batouri","name_adm0":"Cameroun","name_adm1":"Est","name_en":"Batouri","iso":"CM"},"geometry":{"type":"Point","coordinates":[14.366670000000001,4.43333]}},{"type":"Feature","properties":{"country_en":"Cameroon","name":"Bamendjou","name_adm0":"Cameroun","name_adm1":"Ouest","name_en":"Bamendjou","iso":"CM"},"geometry":{"type":"Point","coordinates":[10.33161,5.38875]}},{"type":"Feature","properties":{"country_en":"Cameroon","name":"Akono","name_adm0":"Cameroun","name_adm1":"Centre","name_en":"Akono","iso":"CM"},"geometry":{"type":"Point","coordinates":[11.33333,3.5]}},{"type":"Feature","properties":{"country_en":"Cameroon","name":"New Bell","name_adm0":"Cameroun","name_adm1":"Littoral","name_en":"New Bell","iso":"CM"},"geometry":{"type":"Point","coordinates":[9.721499999999999,4.0354]}},{"type":"Feature","properties":{"country_en":"Cameroon","name":"Fontem","name_adm0":"Cameroun","name_adm1":"Sud-Ouest","name_en":"Fontem","iso":"CM"},"geometry":{"type":"Point","coordinates":[9.881799999999998,5.4685]}},{"type":"Feature","properties":{"country_en":"Cameroon","name":"Mindif","name_adm0":"Cameroun","name_adm1":"Extreme-Nord","name_en":"Mindif","iso":"CM"},"geometry":{"type":"Point","coordinates":[14.43626,10.39757]}},{"type":"Feature","properties":{"country_en":"Cameroon","name":"Ntui","name_adm0":"Cameroun","name_adm1":"Centre","name_en":"Ntui","iso":"CM"},"geometry":{"type":"Point","coordinates":[11.633329999999999,4.45]}},{"type":"Feature","properties":{"country_en":"Cameroon","name":"Nkoteng","name_adm0":"Cameroun","name_adm1":"Centre","name_en":"Nkoteng","iso":"CM"},"geometry":{"type":"Point","coordinates":[12.03333,4.5166699999999995]}},{"type":"Feature","properties":{"country_en":"Cameroon","name":"Nkongsamba","name_adm0":"Cameroun","name_adm1":"Littoral","name_en":"Nkongsamba","iso":"CM"},"geometry":{"type":"Point","coordinates":[9.9404,4.9547]}},{"type":"Feature","properties":{"country_en":"Cameroon","name":"Nyombé","name_adm0":"Cameroun","name_adm1":"Littoral","name_en":"Nyombé","iso":"CM"},"geometry":{"type":"Point","coordinates":[9.66472,4.58056]}},{"type":"Feature","properties":{"country_en":"Cameroon","name":"Tibati","name_adm0":"Cameroun","name_adm1":"Adamaoua","name_en":"Tibati","iso":"CM"},"geometry":{"type":"Point","coordinates":[12.63333,6.46667]}},{"type":"Feature","properties":{"country_en":"Cameroon","name":"Tcholliré","name_adm0":"Cameroun","name_adm1":"Nord","name_en":"Tcholliré","iso":"CM"},"geometry":{"type":"Point","coordinates":[14.1698,8.4022]}},{"type":"Feature","properties":{"country_en":"Cameroon","name":"Mbanga","name_adm0":"Cameroun","name_adm1":"Littoral","name_en":"Mbanga","iso":"CM"},"geometry":{"type":"Point","coordinates":[9.5671,4.5016]}},{"type":"Feature","properties":{"country_en":"Cameroon","name":"Mbang","name_adm0":"Cameroun","name_adm1":"Est","name_en":"Mbang","iso":"CM"},"geometry":{"type":"Point","coordinates":[13.33333,4.58333]}},{"type":"Feature","properties":{"country_en":"Cameroon","name":"Mbalmayo","name_adm0":"Cameroun","name_adm1":"Centre","name_en":"Mbalmayo","iso":"CM"},"geometry":{"type":"Point","coordinates":[11.499999999999998,3.51667]}},{"type":"Feature","properties":{"country_en":"Cameroon","name":"Kaélé","name_adm0":"Cameroun","name_adm1":"Extreme-Nord","name_en":"Kaélé","iso":"CM"},"geometry":{"type":"Point","coordinates":[14.45083,10.10917]}},{"type":"Feature","properties":{"country_en":"Cameroon","name":"Akonolinga","name_adm0":"Cameroun","name_adm1":"Centre","name_en":"Akonolinga","iso":"CM"},"geometry":{"type":"Point","coordinates":[12.25,3.76667]}},{"type":"Feature","properties":{"country_en":"Cameroon","name":"Kumba","name_adm0":"Cameroun","name_adm1":"Sud-Ouest","name_en":"Kumba","iso":"CM"},"geometry":{"type":"Point","coordinates":[9.4469,4.6363]}},{"type":"Feature","properties":{"country_en":"Cameroon","name":"Bakassa","name_adm0":"Cameroun","name_adm1":"Ouest","name_en":"Bakassa","iso":"CM"},"geometry":{"type":"Point","coordinates":[10.238899999999997,5.1253899999999994]}},{"type":"Feature","properties":{"country_en":"Cameroon","name":"Bandja","name_adm0":"Cameroun","name_adm1":"Ouest","name_en":"Bandja","iso":"CM"},"geometry":{"type":"Point","coordinates":[10.26373,5.4547]}},{"type":"Feature","properties":{"country_en":"Cameroon","name":"Yokadouma","name_adm0":"Cameroun","name_adm1":"Est","name_en":"Yokadouma","iso":"CM"},"geometry":{"type":"Point","coordinates":[15.05,3.51667]}},{"type":"Feature","properties":{"country_en":"Cameroon","name":"Nanga Eboko","name_adm0":"Cameroun","name_adm1":"Centre","name_en":"Nanga Eboko","iso":"CM"},"geometry":{"type":"Point","coordinates":[12.36667,4.68333]}},{"type":"Feature","properties":{"country_en":"Cameroon","name":"Eséka","name_adm0":"Cameroun","name_adm1":"Centre","name_en":"Eséka","iso":"CM"},"geometry":{"type":"Point","coordinates":[10.76667,3.6499999999999995]}},{"type":"Feature","properties":{"country_en":"Cameroon","name":"Bayangam","name_adm0":"Cameroun","name_adm1":"Ouest","name_en":"Bayangam","iso":"CM"},"geometry":{"type":"Point","coordinates":[10.466999999999999,5.29894]}},{"type":"Feature","properties":{"country_en":"Cameroon","name":"Widekum","name_adm0":"Cameroun","name_adm1":"Nord-Ouest","name_en":"Widekum","iso":"CM"},"geometry":{"type":"Point","coordinates":[9.7707,5.8719]}},{"type":"Feature","properties":{"country_en":"Cameroon","name":"Wina","name_adm0":"Cameroun","name_adm1":"Extreme-Nord","name_en":"Wina","iso":"CM"},"geometry":{"type":"Point","coordinates":[15.22083,10.15361]}},{"type":"Feature","properties":{"country_en":"Cameroon","name":"Koungoulou","name_adm0":"Cameroun","name_adm1":"Est","name_en":"Koungoulou","iso":"CM"},"geometry":{"type":"Point","coordinates":[13.81667,3.03333]}},{"type":"Feature","properties":{"country_en":"Cameroon","name":"Koungoulou","name_adm0":"Cameroun","name_adm1":"Sud","name_en":"Koungoulou","iso":"CM"},"geometry":{"type":"Point","coordinates":[11.783329999999998,2.71667]}},{"type":"Feature","properties":{"country_en":"Cameroon","name":"Maan","name_adm0":"Cameroun","name_adm1":"Sud","name_en":"Maan","iso":"CM"},"geometry":{"type":"Point","coordinates":[10.61667,2.35]}},{"type":"Feature","properties":{"country_en":"Cameroon","name":"Ngaoundéré","name_adm0":"Cameroun","name_adm1":"Adamaoua","name_en":"Ngaoundéré","iso":"CM"},"geometry":{"type":"Point","coordinates":[13.58333,7.31667]}},{"type":"Feature","properties":{"country_en":"Cameroon","name":"Kenzou","name_adm0":"Cameroun","name_adm1":"Est","name_en":"Kenzou","iso":"CM"},"geometry":{"type":"Point","coordinates":[15.0293,4.17865]}},{"type":"Feature","properties":{"country_en":"Cameroon","name":"Cameroun","name_adm0":"Cameroun","name_en":"Cameroon","iso":"CM"},"geometry":{"type":"Point","coordinates":[12.34344,7.36529]}},{"type":"Feature","properties":{"country_en":"Cameroon","name":"Ébebda II","name_adm0":"Cameroun","name_adm1":"Centre","name_en":"Ébebda II","iso":"CM"},"geometry":{"type":"Point","coordinates":[11.26667,4.35]}},{"type":"Feature","properties":{"country_en":"Cameroon","name":"Eboné","name_adm0":"Cameroun","name_adm1":"Littoral","name_en":"Eboné","iso":"CM"},"geometry":{"type":"Point","coordinates":[9.8991,4.8774999999999995]}},{"type":"Feature","properties":{"country_en":"Cameroon","name":"Balikumbat","name_adm0":"Cameroun","name_adm1":"Nord-Ouest","name_en":"Balikumbat","iso":"CM"},"geometry":{"type":"Point","coordinates":[10.3538,5.88954]}},{"type":"Feature","properties":{"country_en":"Cameroon","name":"Gadjia","name_adm0":"Cameroun","name_adm1":"Extreme-Nord","name_en":"Gadjia","iso":"CM"},"geometry":{"type":"Point","coordinates":[14.696899999999998,10.34035]}},{"type":"Feature","properties":{"country_en":"Cameroon","name":"Galim","name_adm0":"Cameroun","name_adm1":"Ouest","name_en":"Galim","iso":"CM"},"geometry":{"type":"Point","coordinates":[10.36909,5.68911]}},{"type":"Feature","properties":{"country_en":"Cameroon","name":"Gaschiga","name_adm0":"Cameroun","name_adm1":"Nord","name_en":"Gaschiga","iso":"CM"},"geometry":{"type":"Point","coordinates":[13.36667,9.433329999999998]}},{"type":"Feature","properties":{"country_en":"Cameroon","name":"Ndoubian","name_adm0":"Cameroun","name_adm1":"Littoral","name_en":"Ndoubian","iso":"CM"},"geometry":{"type":"Point","coordinates":[10.35,4.98333]}},{"type":"Feature","properties":{"country_en":"Cameroon","name":"Ndu","name_adm0":"Cameroun","name_adm1":"Nord-Ouest","name_en":"Ndu","iso":"CM"},"geometry":{"type":"Point","coordinates":[10.76667,6.4]}},{"type":"Feature","properties":{"country_en":"Cameroon","name":"Roua","name_adm0":"Cameroun","name_adm1":"Extreme-Nord","name_en":"Roua","iso":"CM"},"geometry":{"type":"Point","coordinates":[13.98316,10.77845]}},{"type":"Feature","properties":{"country_en":"Cameroon","name":"Sambolabbo","name_adm0":"Cameroun","name_adm1":"Adamaoua","name_en":"Sambolabbo","iso":"CM"},"geometry":{"type":"Point","coordinates":[12.616669999999997,7.58333]}},{"type":"Feature","properties":{"country_en":"Cameroon","name":"Abong-Mbang","name_adm0":"Cameroun","name_adm1":"Est","name_en":"Abong-Mbang","iso":"CM"},"geometry":{"type":"Point","coordinates":[13.18333,3.9833299999999996]}},{"type":"Feature","properties":{"country_en":"Cameroon","name":"Ekona Mbenge","name_adm0":"Cameroun","name_adm1":"Sud-Ouest","name_en":"Ekona Mbenge","iso":"CM"},"geometry":{"type":"Point","coordinates":[9.3369,4.2281]}},{"type":"Feature","properties":{"country_en":"Cameroon","name":"Maroua","name_adm0":"Cameroun","name_adm1":"Extreme-Nord","name_en":"Maroua","iso":"CM"},"geometry":{"type":"Point","coordinates":[14.31592,10.59095]}},{"type":"Feature","properties":{"country_en":"Cameroon","name":"Garoua","name_adm0":"Cameroun","name_adm1":"Nord","name_en":"Garoua","iso":"CM"},"geometry":{"type":"Point","coordinates":[13.4,9.299999999999999]}},{"type":"Feature","properties":{"country_en":"Cameroon","name":"Bafut","name_adm0":"Cameroun","name_adm1":"Nord-Ouest","name_en":"Bafut","iso":"CM"},"geometry":{"type":"Point","coordinates":[10.1,6.08333]}},{"type":"Feature","properties":{"country_en":"Cameroon","name":"Bamougoum","name_adm0":"Cameroun","name_adm1":"Ouest","name_en":"Bamougoum","iso":"CM"},"geometry":{"type":"Point","coordinates":[10.34394,5.51198]}},{"type":"Feature","properties":{"country_en":"Cameroon","name":"Benakuma","name_adm0":"Cameroun","name_adm1":"Nord-Ouest","name_en":"Benakuma","iso":"CM"},"geometry":{"type":"Point","coordinates":[9.9118,6.414]}},{"type":"Feature","properties":{"country_en":"Cameroon","name":"Zina","name_adm0":"Cameroun","name_adm1":"Extreme-Nord","name_en":"Zina","iso":"CM"},"geometry":{"type":"Point","coordinates":[14.96529,11.26235]}},{"type":"Feature","properties":{"country_en":"Cameroon","name":"Est","name_adm0":"Cameroun","name_adm1":"Est","name_en":"Est","iso":"CM"},"geometry":{"type":"Point","coordinates":[14,4]}},{"type":"Feature","properties":{"country_en":"Cameroon","name":"Akom II","name_adm0":"Cameroun","name_adm1":"Sud","name_en":"Akom II","iso":"CM"},"geometry":{"type":"Point","coordinates":[10.56667,2.78333]}},{"type":"Feature","properties":{"country_en":"Cameroon","name":"Bembaran","name_adm0":"Cameroun","name_adm1":"Adamaoua","name_en":"Bembaran","iso":"CM"},"geometry":{"type":"Point","coordinates":[14.366670000000001,6.25]}},{"type":"Feature","properties":{"country_en":"Cameroon","name":"Gbatoua","name_adm0":"Cameroun","name_adm1":"Adamaoua","name_en":"Gbatoua","iso":"CM"},"geometry":{"type":"Point","coordinates":[14.71667,6.31667]}},{"type":"Feature","properties":{"country_en":"Cameroon","name":"Doreissou","name_adm0":"Cameroun","name_adm1":"Extreme-Nord","name_en":"Doreissou","iso":"CM"},"geometry":{"type":"Point","coordinates":[15.1335,10.53839]}},{"type":"Feature","properties":{"country_en":"Cameroon","name":"Kalfou","name_adm0":"Cameroun","name_adm1":"Extreme-Nord","name_en":"Kalfou","iso":"CM"},"geometry":{"type":"Point","coordinates":[14.9298,10.28397]}},{"type":"Feature","properties":{"country_en":"Cameroon","name":"Kalaldi","name_adm0":"Cameroun","name_adm1":"Adamaoua","name_en":"Kalaldi","iso":"CM"},"geometry":{"type":"Point","coordinates":[14.06667,6.5]}},{"type":"Feature","properties":{"country_en":"Cameroon","name":"Kagnol II","name_adm0":"Cameroun","name_adm1":"Est","name_en":"Kagnol II","iso":"CM"},"geometry":{"type":"Point","coordinates":[14.500000000000002,4.099999999999999]}},{"type":"Feature","properties":{"country_en":"Cameroon","name":"Mbankomo","name_adm0":"Cameroun","name_adm1":"Centre","name_en":"Mbankomo","iso":"CM"},"geometry":{"type":"Point","coordinates":[11.38333,3.7833299999999994]}},{"type":"Feature","properties":{"country_en":"Cameroon","name":"Mbargué","name_adm0":"Cameroun","name_adm1":"Centre","name_en":"Mbargue","iso":"CM"},"geometry":{"type":"Point","coordinates":[13.08333,4.9]}},{"type":"Feature","properties":{"country_en":"Cameroon","name":"Tchamba","name_adm0":"Cameroun","name_adm1":"Nord","name_en":"Tchamba","iso":"CM"},"geometry":{"type":"Point","coordinates":[12.8,8.616669999999997]}},{"type":"Feature","properties":{"country_en":"Cameroon","name":"Somalomo","name_adm0":"Cameroun","name_adm1":"Est","name_en":"Somalomo","iso":"CM"},"geometry":{"type":"Point","coordinates":[12.733329999999999,3.38333]}},{"type":"Feature","properties":{"country_en":"Cameroon","name":"Loum","name_adm0":"Cameroun","name_adm1":"Littoral","name_en":"Loum","iso":"CM"},"geometry":{"type":"Point","coordinates":[9.7351,4.7182]}},{"type":"Feature","properties":{"country_en":"Cameroon","name":"Melong","name_adm0":"Cameroun","name_adm1":"Littoral","name_en":"Melong","iso":"CM"},"geometry":{"type":"Point","coordinates":[9.961429999999998,5.1217999999999995]}},{"type":"Feature","properties":{"country_en":"Cameroon","name":"Maga","name_adm0":"Cameroun","name_adm1":"Extreme-Nord","name_en":"Maga","iso":"CM"},"geometry":{"type":"Point","coordinates":[14.939620000000001,10.843399999999999]}},{"type":"Feature","properties":{"country_en":"Cameroon","name":"Baré","name_adm0":"Cameroun","name_adm1":"Littoral","name_en":"Baré","iso":"CM"},"geometry":{"type":"Point","coordinates":[9.9653,5.0068]}},{"type":"Feature","properties":{"country_en":"Cameroon","name":"Kombone","name_adm0":"Cameroun","name_adm1":"Sud-Ouest","name_en":"Kombone","iso":"CM"},"geometry":{"type":"Point","coordinates":[9.3061,4.583199999999999]}},{"type":"Feature","properties":{"country_en":"Cameroon","name":"Yagoua","name_adm0":"Cameroun","name_adm1":"Extreme-Nord","name_en":"Yagoua","iso":"CM"},"geometry":{"type":"Point","coordinates":[15.232879999999998,10.34107]}},{"type":"Feature","properties":{"country_en":"Cameroon","name":"Egba","name_adm0":"Cameroun","name_adm1":"Centre","name_en":"Egba","iso":"CM"},"geometry":{"type":"Point","coordinates":[11.083329999999998,3.9833299999999996]}},{"type":"Feature","properties":{"country_en":"Cameroon","name":"Ziguagué","name_adm0":"Cameroun","name_adm1":"Extreme-Nord","name_en":"Ziguague","iso":"CM"},"geometry":{"type":"Point","coordinates":[14.649699999999998,11.6794]}},{"type":"Feature","properties":{"country_en":"Cameroon","name":"Douala","name_adm0":"Cameroun","name_adm1":"Littoral","name_en":"Douala","iso":"CM"},"geometry":{"type":"Point","coordinates":[9.70428,4.04827]}},{"type":"Feature","properties":{"country_en":"Cameroon","name":"Idenau","name_adm0":"Cameroun","name_adm1":"Sud-Ouest","name_en":"Idenau","iso":"CM"},"geometry":{"type":"Point","coordinates":[8.9912,4.240499999999999]}},{"type":"Feature","properties":{"country_en":"Cameroon","name":"Mfou","name_adm0":"Cameroun","name_adm1":"Centre","name_en":"Mfou","iso":"CM"},"geometry":{"type":"Point","coordinates":[11.633329999999999,3.7166699999999997]}},{"type":"Feature","properties":{"country_en":"Cameroon","name":"Extreme-Nord","name_adm0":"Cameroun","name_adm1":"Extreme-Nord","name_en":"Extreme-Nord","iso":"CM"},"geometry":{"type":"Point","coordinates":[14.500000000000002,11]}},{"type":"Feature","properties":{"country_en":"Cameroon","name":"Nord","name_adm0":"Cameroun","name_adm1":"Nord","name_en":"Nord","iso":"CM"},"geometry":{"type":"Point","coordinates":[14,8.5]}},{"type":"Feature","properties":{"country_en":"Cameroon","name":"Pitoa","name_adm0":"Cameroun","name_adm1":"Nord","name_en":"Pitoa","iso":"CM"},"geometry":{"type":"Point","coordinates":[13.53333,9.38333]}},{"type":"Feature","properties":{"country_en":"Cameroon","name":"Mbouda","name_adm0":"Cameroun","name_adm1":"Ouest","name_en":"Mbouda","iso":"CM"},"geometry":{"type":"Point","coordinates":[10.25517,5.62578]}},{"type":"Feature","properties":{"country_en":"Cameroon","name":"Jakiri","name_adm0":"Cameroun","name_adm1":"Nord-Ouest","name_en":"Jakiri","iso":"CM"},"geometry":{"type":"Point","coordinates":[10.65,6.099999999999999]}},{"type":"Feature","properties":{"country_en":"Cameroon","name":"Bonabéri","name_adm0":"Cameroun","name_adm1":"Littoral","name_en":"Bonaberi","iso":"CM"},"geometry":{"type":"Point","coordinates":[9.6759,4.0779]}},{"type":"Feature","properties":{"country_en":"Cameroon","name":"Kouoptamo","name_adm0":"Cameroun","name_adm1":"Ouest","name_en":"Kouoptamo","iso":"CM"},"geometry":{"type":"Point","coordinates":[10.58278,5.65248]}},{"type":"Feature","properties":{"country_en":"Cameroon","name":"Kokobuma","name_adm0":"Cameroun","name_adm1":"Sud-Ouest","name_en":"Kokobuma","iso":"CM"},"geometry":{"type":"Point","coordinates":[9.40142,5.07732]}},{"type":"Feature","properties":{"country_en":"Cameroon","name":"Kousséri","name_adm0":"Cameroun","name_adm1":"Extreme-Nord","name_en":"Kousséri","iso":"CM"},"geometry":{"type":"Point","coordinates":[15.03063,12.07689]}},{"type":"Feature","properties":{"country_en":"Cameroon","name":"Bétaré Oya","name_adm0":"Cameroun","name_adm1":"Est","name_en":"Bétaré Oya","iso":"CM"},"geometry":{"type":"Point","coordinates":[14.08333,5.6]}},{"type":"Feature","properties":{"country_en":"Cameroon","name":"Ouest","name_adm0":"Cameroun","name_adm1":"Ouest","name_en":"Ouest","iso":"CM"},"geometry":{"type":"Point","coordinates":[10.5,5.5]}},{"type":"Feature","properties":{"country_en":"Cameroon","name":"Ayos","name_adm0":"Cameroun","name_adm1":"Centre","name_en":"Ayos","iso":"CM"},"geometry":{"type":"Point","coordinates":[12.51667,3.9]}},{"type":"Feature","properties":{"country_en":"Cameroon","name":"Balaza","name_adm0":"Cameroun","name_adm1":"Extreme-Nord","name_en":"Balaza","iso":"CM"},"geometry":{"type":"Point","coordinates":[14.473560000000003,10.69683]}},{"type":"Feature","properties":{"country_en":"Cameroon","name":"Tékel","name_adm0":"Cameroun","name_adm1":"Adamaoua","name_en":"Tekel","iso":"CM"},"geometry":{"type":"Point","coordinates":[13.166669999999998,6.783329999999999]}},{"type":"Feature","properties":{"country_en":"Cameroon","name":"Tchévi","name_adm0":"Cameroun","name_adm1":"Extreme-Nord","name_en":"Tchevi","iso":"CM"},"geometry":{"type":"Point","coordinates":[13.50538,10.1643]}},{"type":"Feature","properties":{"country_en":"Cameroon","name":"Ouarkla","name_adm0":"Cameroun","name_adm1":"Nord","name_en":"Ouarkla","iso":"CM"},"geometry":{"type":"Point","coordinates":[14.4207,8.9316]}},{"type":"Feature","properties":{"country_en":"Cameroon","name":"Moutouroua","name_adm0":"Cameroun","name_adm1":"Extreme-Nord","name_en":"Moutouroua","iso":"CM"},"geometry":{"type":"Point","coordinates":[14.17777,10.19896]}},{"type":"Feature","properties":{"country_en":"Cameroon","name":"Mbang","name_adm0":"Cameroun","name_adm1":"Adamaoua","name_en":"Mbang","iso":"CM"},"geometry":{"type":"Point","coordinates":[13.849999999999998,7.51667]}},{"type":"Feature","properties":{"country_en":"Cameroon","name":"Mbama","name_adm0":"Cameroun","name_adm1":"Est","name_en":"Mbama","iso":"CM"},"geometry":{"type":"Point","coordinates":[12.76667,3.96667]}},{"type":"Feature","properties":{"country_en":"Cameroon","name":"Makam","name_adm0":"Cameroun","name_adm1":"Adamaoua","name_en":"Makam","iso":"CM"},"geometry":{"type":"Point","coordinates":[12.13333,6.83333]}},{"type":"Feature","properties":{"country_en":"Cameroon","name":"Joundi","name_adm0":"Cameroun","name_adm1":"Nord","name_en":"Joundi","iso":"CM"},"geometry":{"type":"Point","coordinates":[14.2789,9.1545]}},{"type":"Feature","properties":{"country_en":"Cameroon","name":"Hina Vindé","name_adm0":"Cameroun","name_adm1":"Extreme-Nord","name_en":"Hina Vinde","iso":"CM"},"geometry":{"type":"Point","coordinates":[13.863939999999998,10.33545]}},{"type":"Feature","properties":{"country_en":"Cameroon","name":"Djengreng","name_adm0":"Cameroun","name_adm1":"Extreme-Nord","name_en":"Djengreng","iso":"CM"},"geometry":{"type":"Point","coordinates":[15.22379,10.06441]}},{"type":"Feature","properties":{"country_en":"Cameroon","name":"Djal","name_adm0":"Cameroun","name_adm1":"Est","name_en":"Djal","iso":"CM"},"geometry":{"type":"Point","coordinates":[13.81667,4.26667]}},{"type":"Feature","properties":{"country_en":"Cameroon","name":"Dir","name_adm0":"Cameroun","name_adm1":"Adamaoua","name_en":"Dir","iso":"CM"},"geometry":{"type":"Point","coordinates":[13.53333,6.33333]}},{"type":"Feature","properties":{"country_en":"Cameroon","name":"Bibey","name_adm0":"Cameroun","name_adm1":"Centre","name_en":"Bibey","iso":"CM"},"geometry":{"type":"Point","coordinates":[12.81667,4.86667]}},{"type":"Feature","properties":{"country_en":"Cameroon","name":"Yenga Sans Famille","name_adm0":"Cameroun","name_adm1":"Est","name_en":"Yenga Sans Famille","iso":"CM"},"geometry":{"type":"Point","coordinates":[15.349999999999998,2.3]}},{"type":"Feature","properties":{"country_en":"Cameroon","name":"Ngélébok","name_adm0":"Cameroun","name_adm1":"Est","name_en":"Ngelebok","iso":"CM"},"geometry":{"type":"Point","coordinates":[14.05,4.26667]}},{"type":"Feature","properties":{"country_en":"Cameroon","name":"Mvangan","name_adm0":"Cameroun","name_adm1":"Sud","name_en":"Mvangan","iso":"CM"},"geometry":{"type":"Point","coordinates":[11.74026,2.65602]}},{"type":"Feature","properties":{"country_en":"Cameroon","name":"Menziong","name_adm0":"Cameroun","name_adm1":"Est","name_en":"Menziong","iso":"CM"},"geometry":{"type":"Point","coordinates":[15.21667,3.5]}},{"type":"Feature","properties":{"country_en":"Cameroon","name":"Mélangé I","name_adm0":"Cameroun","name_adm1":"Sud","name_en":"Melange I","iso":"CM"},"geometry":{"type":"Point","coordinates":[11.11667,3.03333]}},{"type":"Feature","properties":{"country_en":"Cameroon","name":"Mbiélémé","name_adm0":"Cameroun","name_adm1":"Sud","name_en":"Mbieleme","iso":"CM"},"geometry":{"type":"Point","coordinates":[12.21667,2.83333]}},{"type":"Feature","properties":{"country_en":"Cameroon","name":"Mayo Darlé","name_adm0":"Cameroun","name_adm1":"Adamaoua","name_en":"Mayo Darle","iso":"CM"},"geometry":{"type":"Point","coordinates":[11.55,6.46667]}},{"type":"Feature","properties":{"country_en":"Cameroon","name":"Massangam","name_adm0":"Cameroun","name_adm1":"Ouest","name_en":"Massangam","iso":"CM"},"geometry":{"type":"Point","coordinates":[10.96667,5.416669999999999]}},{"type":"Feature","properties":{"country_en":"Cameroon","name":"Makak","name_adm0":"Cameroun","name_adm1":"Centre","name_en":"Makak","iso":"CM"},"geometry":{"type":"Point","coordinates":[11.03333,3.55]}},{"type":"Feature","properties":{"country_en":"Cameroon","name":"Lokomo","name_adm0":"Cameroun","name_adm1":"Est","name_en":"Lokomo","iso":"CM"},"geometry":{"type":"Point","coordinates":[15.316670000000002,2.68333]}},{"type":"Feature","properties":{"country_en":"Cameroon","name":"Lembé","name_adm0":"Cameroun","name_adm1":"Centre","name_en":"Lembe","iso":"CM"},"geometry":{"type":"Point","coordinates":[12.28333,4.23333]}},{"type":"Feature","properties":{"country_en":"Cameroon","name":"Laf","name_adm0":"Cameroun","name_adm1":"Extreme-Nord","name_en":"Laf","iso":"CM"},"geometry":{"type":"Point","coordinates":[14.22559,10.252199999999998]}},{"type":"Feature","properties":{"country_en":"Cameroon","name":"Kotcholi","name_adm0":"Cameroun","name_adm1":"Adamaoua","name_en":"Kotcholi","iso":"CM"},"geometry":{"type":"Point","coordinates":[12.21667,8.11667]}},{"type":"Feature","properties":{"country_en":"Cameroon","name":"Gouna","name_adm0":"Cameroun","name_adm1":"Nord","name_en":"Gouna","iso":"CM"},"geometry":{"type":"Point","coordinates":[13.566669999999998,8.53333]}},{"type":"Feature","properties":{"country_en":"Cameroon","name":"Goulfey","name_adm0":"Cameroun","name_adm1":"Extreme-Nord","name_en":"Goulfey","iso":"CM"},"geometry":{"type":"Point","coordinates":[14.929869999999998,12.37993]}},{"type":"Feature","properties":{"country_en":"Cameroon","name":"Gétalé","name_adm0":"Cameroun","name_adm1":"Extreme-Nord","name_en":"Getale","iso":"CM"},"geometry":{"type":"Point","coordinates":[13.913729999999997,10.878569999999998]}},{"type":"Feature","properties":{"country_en":"Cameroon","name":"Fotokol","name_adm0":"Cameroun","name_adm1":"Extreme-Nord","name_en":"Fotokol","iso":"CM"},"geometry":{"type":"Point","coordinates":[14.22774,12.373079999999998]}},{"type":"Feature","properties":{"country_en":"Cameroon","name":"Endengé","name_adm0":"Cameroun","name_adm1":"Sud","name_en":"Endenge","iso":"CM"},"geometry":{"type":"Point","coordinates":[12.65,2.68333]}},{"type":"Feature","properties":{"country_en":"Cameroon","name":"Emini","name_adm0":"Cameroun","name_adm1":"Centre","name_en":"Emini","iso":"CM"},"geometry":{"type":"Point","coordinates":[12.01667,4.099999999999999]}},{"type":"Feature","properties":{"country_en":"Cameroon","name":"Elokbatindi","name_adm0":"Cameroun","name_adm1":"Sud","name_en":"Elokbatindi","iso":"CM"},"geometry":{"type":"Point","coordinates":[10.13333,3.45]}},{"type":"Feature","properties":{"country_en":"Cameroon","name":"Ekundukundu I","name_adm0":"Cameroun","name_adm1":"Sud-Ouest","name_en":"Ekundukundu I","iso":"CM"},"geometry":{"type":"Point","coordinates":[8.8877,5.1471]}},{"type":"Feature","properties":{"country_en":"Cameroon","name":"Djimvoum","name_adm0":"Cameroun","name_adm1":"Nord","name_en":"Djimvoum","iso":"CM"},"geometry":{"type":"Point","coordinates":[14.616669999999997,7.4]}},{"type":"Feature","properties":{"country_en":"Cameroon","name":"Dimpam","name_adm0":"Cameroun","name_adm1":"Est","name_en":"Dimpam","iso":"CM"},"geometry":{"type":"Point","coordinates":[12.81667,3.55]}},{"type":"Feature","properties":{"country_en":"Cameroon","name":"Bipindi","name_adm0":"Cameroun","name_adm1":"Sud","name_en":"Bipindi","iso":"CM"},"geometry":{"type":"Point","coordinates":[10.416669999999998,3.08333]}},{"type":"Feature","properties":{"country_en":"Cameroon","name":"Bindem","name_adm0":"Cameroun","name_adm1":"Sud","name_en":"Bindem","iso":"CM"},"geometry":{"type":"Point","coordinates":[10.816669999999998,2.6999999999999997]}},{"type":"Feature","properties":{"country_en":"Cameroon","name":"Bibémi","name_adm0":"Cameroun","name_adm1":"Nord","name_en":"Bibémi","iso":"CM"},"geometry":{"type":"Point","coordinates":[13.88333,9.31667]}},{"type":"Feature","properties":{"country_en":"Cameroon","name":"Bandjoukri","name_adm0":"Cameroun","name_adm1":"Nord","name_en":"Bandjoukri","iso":"CM"},"geometry":{"type":"Point","coordinates":[13.833329999999998,8.03333]}},{"type":"Feature","properties":{"country_en":"Cameroon","name":"Bakut","name_adm0":"Cameroun","name_adm1":"Sud-Ouest","name_en":"Bakut","iso":"CM"},"geometry":{"type":"Point","coordinates":[9.12034,5.45785]}},{"type":"Feature","properties":{"country_en":"Cameroon","name":"Bakebe","name_adm0":"Cameroun","name_adm1":"Sud-Ouest","name_en":"Bakebe","iso":"CM"},"geometry":{"type":"Point","coordinates":[9.5595,5.5654]}},{"type":"Feature","properties":{"country_en":"Cameroon","name":"Baché","name_adm0":"Cameroun","name_adm1":"Nord","name_en":"Bache","iso":"CM"},"geometry":{"type":"Point","coordinates":[13.372219999999999,9.672219999999998]}},{"type":"Feature","properties":{"country_en":"Cameroon","name":"Atiek","name_adm0":"Cameroun","name_adm1":"Est","name_en":"Atiek","iso":"CM"},"geometry":{"type":"Point","coordinates":[13.76667,3.9]}},{"type":"Feature","properties":{"country_en":"Cameroon","name":"Alat Makay","name_adm0":"Cameroun","name_adm1":"Est","name_en":"Alat Makay","iso":"CM"},"geometry":{"type":"Point","coordinates":[13.35,2.86667]}},{"type":"Feature","properties":{"country_en":"Cameroon","name":"Alati","name_adm0":"Cameroun","name_adm1":"Sud","name_en":"Alati","iso":"CM"},"geometry":{"type":"Point","coordinates":[13.41667,2.2]}},{"type":"Feature","properties":{"country_en":"Cameroon","name":"Dompta","name_adm0":"Cameroun","name_adm1":"Nord","name_en":"Dompta","iso":"CM"},"geometry":{"type":"Point","coordinates":[15.154499999999999,7.3034]}},{"type":"Feature","properties":{"country_en":"Cameroon","name":"Mbakana","name_adm0":"Cameroun","name_adm1":"Nord","name_en":"Mbakana","iso":"CM"},"geometry":{"type":"Point","coordinates":[15.14989,8.04695]}},{"type":"Feature","properties":{"country_en":"Cameroon","name":"Nigba","name_adm0":"Cameroun","name_adm1":"Nord","name_en":"Nigba","iso":"CM"},"geometry":{"type":"Point","coordinates":[13.58333,8.13333]}},{"type":"Feature","properties":{"country_en":"Cameroon","name":"Kumbo","name_adm0":"Cameroun","name_adm1":"Nord-Ouest","name_en":"Kumbo","iso":"CM"},"geometry":{"type":"Point","coordinates":[10.66667,6.2]}},{"type":"Feature","properties":{"country_en":"Cameroon","name":"Tongo","name_adm0":"Cameroun","name_adm1":"Nord","name_en":"Tongo","iso":"CM"},"geometry":{"type":"Point","coordinates":[13.51667,8.91667]}},{"type":"Feature","properties":{"country_en":"Cameroon","name":"Guidiguis","name_adm0":"Cameroun","name_adm1":"Extreme-Nord","name_en":"Guidiguis","iso":"CM"},"geometry":{"type":"Point","coordinates":[14.70748,10.13366]}},{"type":"Feature","properties":{"country_en":"Cameroon","name":"Gounjel","name_adm0":"Cameroun","name_adm1":"Adamaoua","name_en":"Gounjel","iso":"CM"},"geometry":{"type":"Point","coordinates":[14.18333,7.283329999999999]}},{"type":"Feature","properties":{"country_en":"Cameroon","name":"Kontcha","name_adm0":"Cameroun","name_adm1":"Adamaoua","name_en":"Kontcha","iso":"CM"},"geometry":{"type":"Point","coordinates":[12.23333,7.966669999999999]}},{"type":"Feature","properties":{"country_en":"Cameroon","name":"Guider","name_adm0":"Cameroun","name_adm1":"Nord","name_en":"Guider","iso":"CM"},"geometry":{"type":"Point","coordinates":[13.94861,9.93417]}},{"type":"Feature","properties":{"country_en":"Cameroon","name":"Foumban","name_adm0":"Cameroun","name_adm1":"Ouest","name_en":"Foumban","iso":"CM"},"geometry":{"type":"Point","coordinates":[10.90011,5.7291]}},{"type":"Feature","properties":{"country_en":"Cameroon","name":"Tchédé","name_adm0":"Cameroun","name_adm1":"Extreme-Nord","name_en":"Tchede","iso":"CM"},"geometry":{"type":"Point","coordinates":[14.838259999999998,11.19246]}},{"type":"Feature","properties":{"country_en":"Cameroon","name":"Tchèboa","name_adm0":"Cameroun","name_adm1":"Nord","name_en":"Tcheboa","iso":"CM"},"geometry":{"type":"Point","coordinates":[13.18333,9.01667]}},{"type":"Feature","properties":{"country_en":"Cameroon","name":"Pouss","name_adm0":"Cameroun","name_adm1":"Extreme-Nord","name_en":"Pouss","iso":"CM"},"geometry":{"type":"Point","coordinates":[15.05557,10.8472]}},{"type":"Feature","properties":{"country_en":"Cameroon","name":"Pété","name_adm0":"Cameroun","name_adm1":"Extreme-Nord","name_en":"Pete","iso":"CM"},"geometry":{"type":"Point","coordinates":[14.50083,10.96778]}},{"type":"Feature","properties":{"country_en":"Cameroon","name":"Woulki","name_adm0":"Cameroun","name_adm1":"Extreme-Nord","name_en":"Woulki","iso":"CM"},"geometry":{"type":"Point","coordinates":[14.639860000000002,12.47607]}},{"type":"Feature","properties":{"country_en":"Cameroon","name":"Ouassa Bamvélé","name_adm0":"Cameroun","name_adm1":"Centre","name_en":"Ouassa Bamvele","iso":"CM"},"geometry":{"type":"Point","coordinates":[12.599999999999998,4.9]}},{"type":"Feature","properties":{"country_en":"Cameroon","name":"Nyaourédou","name_adm0":"Cameroun","name_adm1":"Nord","name_en":"Nyaouredou","iso":"CM"},"geometry":{"type":"Point","coordinates":[13.11667,8.63333]}},{"type":"Feature","properties":{"country_en":"Cameroon","name":"Mogodé","name_adm0":"Cameroun","name_adm1":"Extreme-Nord","name_en":"Mogodé","iso":"CM"},"geometry":{"type":"Point","coordinates":[13.567979999999999,10.60336]}},{"type":"Feature","properties":{"country_en":"Cameroon","name":"Mindourou","name_adm0":"Cameroun","name_adm1":"Est","name_en":"Mindourou","iso":"CM"},"geometry":{"type":"Point","coordinates":[13.40392,3.55745]}},{"type":"Feature","properties":{"country_en":"Cameroon","name":"Medjambouni","name_adm0":"Cameroun","name_adm1":"Centre","name_en":"Medjambouni","iso":"CM"},"geometry":{"type":"Point","coordinates":[12.43333,5.36667]}},{"type":"Feature","properties":{"country_en":"Cameroon","name":"Mboula","name_adm0":"Cameroun","name_adm1":"Adamaoua","name_en":"Mboula","iso":"CM"},"geometry":{"type":"Point","coordinates":[13.983329999999999,6.66667]}},{"type":"Feature","properties":{"country_en":"Cameroon","name":"Mbonge","name_adm0":"Cameroun","name_adm1":"Sud-Ouest","name_en":"Mbonge","iso":"CM"},"geometry":{"type":"Point","coordinates":[9.1069,4.5343]}},{"type":"Feature","properties":{"country_en":"Cameroon","name":"Guirvidig","name_adm0":"Cameroun","name_adm1":"Extreme-Nord","name_en":"Guirvidig","iso":"CM"},"geometry":{"type":"Point","coordinates":[14.83441,10.88047]}},{"type":"Feature","properties":{"country_en":"Cameroon","name":"Guingleï","name_adm0":"Cameroun","name_adm1":"Extreme-Nord","name_en":"Guinglei","iso":"CM"},"geometry":{"type":"Point","coordinates":[14.68152,10.78114]}},{"type":"Feature","properties":{"country_en":"Cameroon","name":"Gidjiba","name_adm0":"Cameroun","name_adm1":"Nord","name_en":"Gidjiba","iso":"CM"},"geometry":{"type":"Point","coordinates":[13.73333,8.466669999999999]}},{"type":"Feature","properties":{"country_en":"Cameroon","name":"Campo","name_adm0":"Cameroun","name_adm1":"Sud","name_en":"Campo","iso":"CM"},"geometry":{"type":"Point","coordinates":[9.81667,2.36667]}},{"type":"Feature","properties":{"country_en":"Cameroon","name":"Bérim","name_adm0":"Cameroun","name_adm1":"Adamaoua","name_en":"Berim","iso":"CM"},"geometry":{"type":"Point","coordinates":[12.333329999999998,6.68333]}},{"type":"Feature","properties":{"country_en":"Cameroon","name":"Djoum","name_adm0":"Cameroun","name_adm1":"Sud","name_en":"Djoum","iso":"CM"},"geometry":{"type":"Point","coordinates":[12.66667,2.66667]}},{"type":"Feature","properties":{"country_en":"Cameroon","name":"Mayo Djarendi","name_adm0":"Cameroun","name_adm1":"Nord","name_en":"Mayo Djarendi","iso":"CM"},"geometry":{"type":"Point","coordinates":[14.789200000000001,8.379]}},{"type":"Feature","properties":{"country_en":"Cameroon","name":"Ngoasé","name_adm0":"Cameroun","name_adm1":"Sud","name_en":"Ngoase","iso":"CM"},"geometry":{"type":"Point","coordinates":[12.13333,3.25]}},{"type":"Feature","properties":{"country_en":"Cameroon","name":"Ngila","name_adm0":"Cameroun","name_adm1":"Centre","name_en":"Ngila","iso":"CM"},"geometry":{"type":"Point","coordinates":[11.68333,4.71667]}},{"type":"Feature","properties":{"country_en":"Cameroon","name":"Magdémé","name_adm0":"Cameroun","name_adm1":"Extreme-Nord","name_en":"Magdeme","iso":"CM"},"geometry":{"type":"Point","coordinates":[14.23639,11.17389]}},{"type":"Feature","properties":{"country_en":"Cameroon","name":"Magba","name_adm0":"Cameroun","name_adm1":"Ouest","name_en":"Magba","iso":"CM"},"geometry":{"type":"Point","coordinates":[11.21667,5.95]}},{"type":"Feature","properties":{"country_en":"Cameroon","name":"Bella","name_adm0":"Cameroun","name_adm1":"Sud","name_en":"Bella","iso":"CM"},"geometry":{"type":"Point","coordinates":[10.2,3.25]}},{"type":"Feature","properties":{"country_en":"Cameroon","name":"Brazzaville","name_adm0":"Cameroun","name_adm1":"Est","name_en":"Brazzaville","iso":"CM"},"geometry":{"type":"Point","coordinates":[15.416669999999998,2.51667]}},{"type":"Feature","properties":{"country_en":"Cameroon","name":"Botmakak","name_adm0":"Cameroun","name_adm1":"Centre","name_en":"Botmakak","iso":"CM"},"geometry":{"type":"Point","coordinates":[10.91667,4]}},{"type":"Feature","properties":{"country_en":"Cameroon","name":"Bonépoupa","name_adm0":"Cameroun","name_adm1":"Littoral","name_en":"Bonepoupa","iso":"CM"},"geometry":{"type":"Point","coordinates":[10.03333,4.08333]}},{"type":"Feature","properties":{"country_en":"Cameroon","name":"Bokito","name_adm0":"Cameroun","name_adm1":"Centre","name_en":"Bokito","iso":"CM"},"geometry":{"type":"Point","coordinates":[11.11667,4.56667]}},{"type":"Feature","properties":{"country_en":"Cameroon","name":"Bobok","name_adm0":"Cameroun","name_adm1":"Littoral","name_en":"Bobok","iso":"CM"},"geometry":{"type":"Point","coordinates":[9.879199999999999,4.5673]}},{"type":"Feature","properties":{"country_en":"Cameroon","name":"Bobodji","name_adm0":"Cameroun","name_adm1":"Adamaoua","name_en":"Bobodji","iso":"CM"},"geometry":{"type":"Point","coordinates":[13.016669999999998,6.98333]}},{"type":"Feature","properties":{"country_en":"Cameroon","name":"Donkéré","name_adm0":"Cameroun","name_adm1":"Adamaoua","name_en":"Donkere","iso":"CM"},"geometry":{"type":"Point","coordinates":[12.199999999999998,7.76667]}},{"type":"Feature","properties":{"country_en":"Cameroon","name":"Dogba","name_adm0":"Cameroun","name_adm1":"Extreme-Nord","name_en":"Dogba","iso":"CM"},"geometry":{"type":"Point","coordinates":[14.325899999999999,10.79118]}},{"type":"Feature","properties":{"country_en":"Cameroon","name":"Dodéo","name_adm0":"Cameroun","name_adm1":"Adamaoua","name_en":"Dodeo","iso":"CM"},"geometry":{"type":"Point","coordinates":[12.066669999999998,7.48333]}},{"type":"Feature","properties":{"country_en":"Cameroon","name":"Dobinga","name_adm0":"Cameroun","name_adm1":"Nord","name_en":"Dobinga","iso":"CM"},"geometry":{"type":"Point","coordinates":[13.88333,8.96667]}},{"type":"Feature","properties":{"country_en":"Cameroon","name":"Mbaboèn","name_adm0":"Cameroun","name_adm1":"Centre","name_en":"Mbaboen","iso":"CM"},"geometry":{"type":"Point","coordinates":[11.83333,5.58333]}},{"type":"Feature","properties":{"country_en":"Cameroon","name":"Mayo Lopé","name_adm0":"Cameroun","name_adm1":"Nord","name_en":"Mayo Lope","iso":"CM"},"geometry":{"type":"Point","coordinates":[14.2388,9.3505]}},{"type":"Feature","properties":{"country_en":"Cameroon","name":"Missaje","name_adm0":"Cameroun","name_adm1":"Nord-Ouest","name_en":"Missaje","iso":"CM"},"geometry":{"type":"Point","coordinates":[10.55,6.56667]}},{"type":"Feature","properties":{"country_en":"Cameroon","name":"Nyabéssan","name_adm0":"Cameroun","name_adm1":"Sud","name_en":"Nyabessan","iso":"CM"},"geometry":{"type":"Point","coordinates":[10.399999999999999,2.4]}},{"type":"Feature","properties":{"country_en":"Cameroon","name":"Nsomessok","name_adm0":"Cameroun","name_adm1":"Sud","name_en":"Nsomessok","iso":"CM"},"geometry":{"type":"Point","coordinates":[10.76667,2.33333]}},{"type":"Feature","properties":{"country_en":"Cameroon","name":"Nkongzok I","name_adm0":"Cameroun","name_adm1":"Centre","name_en":"Nkongzok I","iso":"CM"},"geometry":{"type":"Point","coordinates":[11.3,3.56667]}},{"type":"Feature","properties":{"country_en":"Cameroon","name":"Nkolkosé","name_adm0":"Cameroun","name_adm1":"Centre","name_en":"Nkolkose","iso":"CM"},"geometry":{"type":"Point","coordinates":[11.28333,4.28333]}},{"type":"Feature","properties":{"country_en":"Cameroon","name":"Sorombéo","name_adm0":"Cameroun","name_adm1":"Nord","name_en":"Sorombeo","iso":"CM"},"geometry":{"type":"Point","coordinates":[14.94285,8.222809999999999]}},{"type":"Feature","properties":{"country_en":"Cameroon","name":"Songmbengé","name_adm0":"Cameroun","name_adm1":"Littoral","name_en":"Songmbenge","iso":"CM"},"geometry":{"type":"Point","coordinates":[10.56667,4.05]}},{"type":"Feature","properties":{"country_en":"Cameroon","name":"Sangbé","name_adm0":"Cameroun","name_adm1":"Centre","name_en":"Sangbe","iso":"CM"},"geometry":{"type":"Point","coordinates":[12.466669999999999,6.05]}},{"type":"Feature","properties":{"country_en":"Cameroon","name":"Salak","name_adm0":"Cameroun","name_adm1":"Extreme-Nord","name_en":"Salak","iso":"CM"},"geometry":{"type":"Point","coordinates":[14.25251,10.45935]}},{"type":"Feature","properties":{"country_en":"Cameroon","name":"Pongsolo","name_adm0":"Cameroun","name_adm1":"Centre","name_en":"Pongsolo","iso":"CM"},"geometry":{"type":"Point","coordinates":[11.28333,4.11667]}},{"type":"Feature","properties":{"country_en":"Cameroon","name":"Woutchaba","name_adm0":"Cameroun","name_adm1":"Est","name_en":"Woutchaba","iso":"CM"},"geometry":{"type":"Point","coordinates":[13.08333,5.21667]}},{"type":"Feature","properties":{"country_en":"Cameroon","name":"Viali","name_adm0":"Cameroun","name_adm1":"Est","name_en":"Viali","iso":"CM"},"geometry":{"type":"Point","coordinates":[13.51667,4.91667]}},{"type":"Feature","properties":{"country_en":"Cameroon","name":"Tongo","name_adm0":"Cameroun","name_adm1":"Littoral","name_en":"Tongo","iso":"CM"},"geometry":{"type":"Point","coordinates":[10.416669999999998,4.9]}},{"type":"Feature","properties":{"country_en":"Cameroon","name":"Hinalé","name_adm0":"Cameroun","name_adm1":"Extreme-Nord","name_en":"Hinale","iso":"CM"},"geometry":{"type":"Point","coordinates":[14.991709999999998,11.58408]}},{"type":"Feature","properties":{"country_en":"Cameroon","name":"Longji","name_adm0":"Cameroun","name_adm1":"Sud","name_en":"Longji","iso":"CM"},"geometry":{"type":"Point","coordinates":[9.97778,3.07528]}},{"type":"Feature","properties":{"country_en":"Cameroon","name":"Lomié","name_adm0":"Cameroun","name_adm1":"Est","name_en":"Lomié","iso":"CM"},"geometry":{"type":"Point","coordinates":[13.61667,3.16667]}},{"type":"Feature","properties":{"country_en":"Cameroon","name":"Logone Birni","name_adm0":"Cameroun","name_adm1":"Extreme-Nord","name_en":"Logone Birni","iso":"CM"},"geometry":{"type":"Point","coordinates":[15.102849999999998,11.77934]}},{"type":"Feature","properties":{"country_en":"Cameroon","name":"Linté","name_adm0":"Cameroun","name_adm1":"Centre","name_en":"Linte","iso":"CM"},"geometry":{"type":"Point","coordinates":[11.7,5.3999999999999995]}},{"type":"Feature","properties":{"country_en":"Cameroon","name":"Bambouti","name_adm0":"Cameroun","name_adm1":"Est","name_en":"Bambouti","iso":"CM"},"geometry":{"type":"Point","coordinates":[14.03333,5.08333]}},{"type":"Feature","properties":{"country_en":"Cameroon","name":"Bangambi","name_adm0":"Cameroun","name_adm1":"Ouest","name_en":"Bangambi","iso":"CM"},"geometry":{"type":"Point","coordinates":[10.73962,5.83333]}},{"type":"Feature","properties":{"country_en":"Cameroon","name":"Lèna","name_adm0":"Cameroun","name_adm1":"Centre","name_en":"Lena","iso":"CM"},"geometry":{"type":"Point","coordinates":[12.36667,5.8]}},{"type":"Feature","properties":{"country_en":"Cameroon","name":"Laédégoulda","name_adm0":"Cameroun","name_adm1":"Adamaoua","name_en":"Laédégoulda","iso":"CM"},"geometry":{"type":"Point","coordinates":[12.599999999999998,6.98333]}},{"type":"Feature","properties":{"country_en":"Cameroon","name":"Koum","name_adm0":"Cameroun","name_adm1":"Nord","name_en":"Koum","iso":"CM"},"geometry":{"type":"Point","coordinates":[14.5164,8.38254]}},{"type":"Feature","properties":{"country_en":"Cameroon","name":"Meyo-Centre","name_adm0":"Cameroun","name_adm1":"Sud","name_en":"Meyo-Centre","iso":"CM"},"geometry":{"type":"Point","coordinates":[11.03333,2.55]}},{"type":"Feature","properties":{"country_en":"Cameroon","name":"Meuban","name_adm0":"Cameroun","name_adm1":"Sud","name_en":"Meuban","iso":"CM"},"geometry":{"type":"Point","coordinates":[12.68333,2.45]}},{"type":"Feature","properties":{"country_en":"Cameroon","name":"Mesaména","name_adm0":"Cameroun","name_adm1":"Est","name_en":"Mesamena","iso":"CM"},"geometry":{"type":"Point","coordinates":[12.82388,3.7412699999999997]}},{"type":"Feature","properties":{"country_en":"Cameroon","name":"Ndonga","name_adm0":"Cameroun","name_adm1":"Littoral","name_en":"Ndonga","iso":"CM"},"geometry":{"type":"Point","coordinates":[9.865,3.8466699999999996]}},{"type":"Feature","properties":{"country_en":"Cameroon","name":"Ndjolé","name_adm0":"Cameroun","name_adm1":"Centre","name_en":"Ndjore","iso":"CM"},"geometry":{"type":"Point","coordinates":[11.93333,4.81667]}},{"type":"Feature","properties":{"country_en":"Cameroon","name":"Alou","name_adm0":"Cameroun","name_adm1":"Sud-Ouest","name_en":"Alou","iso":"CM"},"geometry":{"type":"Point","coordinates":[9.78333,3.68333]}},{"type":"Feature","properties":{"country_en":"Cameroon","name":"Bamessi","name_adm0":"Cameroun","name_adm1":"Nord-Ouest","name_en":"Bamessi","iso":"CM"},"geometry":{"type":"Point","coordinates":[10.56667,6.01667]}},{"type":"Feature","properties":{"country_en":"Cameroon","name":"Ndikiniméki","name_adm0":"Cameroun","name_adm1":"Centre","name_en":"Ndikiniméki","iso":"CM"},"geometry":{"type":"Point","coordinates":[10.83333,4.76667]}},{"type":"Feature","properties":{"country_en":"Cameroon","name":"Ndjok Nkong I","name_adm0":"Cameroun","name_adm1":"Centre","name_en":"Ndjok Nkong I","iso":"CM"},"geometry":{"type":"Point","coordinates":[10.9,3.86667]}},{"type":"Feature","properties":{"country_en":"Cameroon","name":"Ndiguina","name_adm0":"Cameroun","name_adm1":"Extreme-Nord","name_en":"Ndiguina","iso":"CM"},"geometry":{"type":"Point","coordinates":[14.67763,11.48724]}},{"type":"Feature","properties":{"country_en":"Cameroon","name":"Ndélélé","name_adm0":"Cameroun","name_adm1":"Est","name_en":"Ndélélé","iso":"CM"},"geometry":{"type":"Point","coordinates":[14.92501,4.04065]}},{"type":"Feature","properties":{"country_en":"Cameroon","name":"Yoko","name_adm0":"Cameroun","name_adm1":"Centre","name_en":"Yoko","iso":"CM"},"geometry":{"type":"Point","coordinates":[12.31667,5.53333]}},{"type":"Feature","properties":{"country_en":"Cameroon","name":"Essé","name_adm0":"Cameroun","name_adm1":"Centre","name_en":"Essé","iso":"CM"},"geometry":{"type":"Point","coordinates":[11.9,4.099999999999999]}},{"type":"Feature","properties":{"country_en":"Cameroon","name":"Obout","name_adm0":"Cameroun","name_adm1":"Centre","name_en":"Obout","iso":"CM"},"geometry":{"type":"Point","coordinates":[11.73333,3.4666699999999997]}},{"type":"Feature","properties":{"country_en":"Cameroon","name":"Ngoura","name_adm0":"Cameroun","name_adm1":"Est","name_en":"Ngoura","iso":"CM"},"geometry":{"type":"Point","coordinates":[14.24369,4.87427]}},{"type":"Feature","properties":{"country_en":"Cameroon","name":"Ngato","name_adm0":"Cameroun","name_adm1":"Est","name_en":"Ngato","iso":"CM"},"geometry":{"type":"Point","coordinates":[14.96667,3.25]}},{"type":"Feature","properties":{"country_en":"Cameroon","name":"Zoétélé","name_adm0":"Cameroun","name_adm1":"Sud","name_en":"Zoétélé","iso":"CM"},"geometry":{"type":"Point","coordinates":[12.13333,2.38333]}},{"type":"Feature","properties":{"country_en":"Cameroon","name":"Kété","name_adm0":"Cameroun","name_adm1":"Est","name_en":"Kété","iso":"CM"},"geometry":{"type":"Point","coordinates":[14.56306,4.96577]}},{"type":"Feature","properties":{"country_en":"Cameroon","name":"Mbemdem","name_adm0":"Cameroun","name_adm1":"Centre","name_en":"Mbemdem","iso":"CM"},"geometry":{"type":"Point","coordinates":[12.183329999999998,5.23333]}},{"type":"Feature","properties":{"country_en":"Cameroon","name":"Nyanda","name_adm0":"Cameroun","name_adm1":"Adamaoua","name_en":"Nyanda","iso":"CM"},"geometry":{"type":"Point","coordinates":[14.03333,7.450000000000001]}},{"type":"Feature","properties":{"country_en":"Cameroon","name":"Dongrossé","name_adm0":"Cameroun","name_adm1":"Extreme-Nord","name_en":"Dongrosse","iso":"CM"},"geometry":{"type":"Point","coordinates":[14.88793,10.08102]}},{"type":"Feature","properties":{"country_en":"Cameroon","name":"Dziguilao","name_adm0":"Cameroun","name_adm1":"Extreme-Nord","name_en":"Dziguilao","iso":"CM"},"geometry":{"type":"Point","coordinates":[14.791820000000001,10.01614]}},{"type":"Feature","properties":{"country_en":"Cameroon","name":"Mboma","name_adm0":"Cameroun","name_adm1":"Est","name_en":"Mboma","iso":"CM"},"geometry":{"type":"Point","coordinates":[12.91667,4.21667]}},{"type":"Feature","properties":{"country_en":"Cameroon","name":"Mengong","name_adm0":"Cameroun","name_adm1":"Sud","name_en":"Mengong","iso":"CM"},"geometry":{"type":"Point","coordinates":[11.41667,2.93333]}},{"type":"Feature","properties":{"country_en":"Cameroon","name":"Menguémé","name_adm0":"Cameroun","name_adm1":"Centre","name_en":"Mengueme","iso":"CM"},"geometry":{"type":"Point","coordinates":[11.4,3.25]}},{"type":"Feature","properties":{"country_en":"Cameroon","name":"Nsem","name_adm0":"Cameroun","name_adm1":"Centre","name_en":"Nsem","iso":"CM"},"geometry":{"type":"Point","coordinates":[12.93333,4.88333]}},{"type":"Feature","properties":{"country_en":"Cameroon","name":"Paro Baya","name_adm0":"Cameroun","name_adm1":"Adamaoua","name_en":"Paro Baya","iso":"CM"},"geometry":{"type":"Point","coordinates":[12.96667,7.299999999999999]}},{"type":"Feature","properties":{"country_en":"Cameroon","name":"Rohaya","name_adm0":"Cameroun","name_adm1":"Extreme-Nord","name_en":"Rohaya","iso":"CM"},"geometry":{"type":"Point","coordinates":[14.640559999999999,11.39028]}},{"type":"Feature","properties":{"country_en":"Cameroon","name":"Béré","name_adm0":"Cameroun","name_adm1":"Nord","name_en":"Bere","iso":"CM"},"geometry":{"type":"Point","coordinates":[14.2283,9.0155]}},{"type":"Feature","properties":{"country_en":"Cameroon","name":"Makari","name_adm0":"Cameroun","name_adm1":"Extreme-Nord","name_en":"Makari","iso":"CM"},"geometry":{"type":"Point","coordinates":[14.466619999999999,12.571699999999998]}},{"type":"Feature","properties":{"country_en":"Cameroon","name":"Poli","name_adm0":"Cameroun","name_adm1":"Nord","name_en":"Poli","iso":"CM"},"geometry":{"type":"Point","coordinates":[13.25,8.48333]}},{"type":"Feature","properties":{"country_en":"Cameroon","name":"Lagdo","name_adm0":"Cameroun","name_adm1":"Nord","name_en":"Lagdo","iso":"CM"},"geometry":{"type":"Point","coordinates":[13.73333,9.05]}},{"type":"Feature","properties":{"country_en":"Cameroon","name":"Dschang","name_adm0":"Cameroun","name_adm1":"Ouest","name_en":"Dschang","iso":"CM"},"geometry":{"type":"Point","coordinates":[10.054999999999998,5.44559]}},{"type":"Feature","properties":{"country_en":"Cameroon","name":"Doumé","name_adm0":"Cameroun","name_adm1":"Est","name_en":"Doumé","iso":"CM"},"geometry":{"type":"Point","coordinates":[13.449999999999998,4.23333]}},{"type":"Feature","properties":{"country_en":"Cameroon","name":"Batoua","name_adm0":"Cameroun","name_adm1":"Centre","name_en":"Batoua","iso":"CM"},"geometry":{"type":"Point","coordinates":[12.45,5.11667]}},{"type":"Feature","properties":{"country_en":"Cameroon","name":"Amvom","name_adm0":"Cameroun","name_adm1":"Sud","name_en":"Amvom","iso":"CM"},"geometry":{"type":"Point","coordinates":[12.25,3.03333]}},{"type":"Feature","properties":{"country_en":"Cameroon","name":"Angossas","name_adm0":"Cameroun","name_adm1":"Est","name_en":"Angossas","iso":"CM"},"geometry":{"type":"Point","coordinates":[12.98333,4.08333]}}]}