{"type":"FeatureCollection","features":[{"type":"Feature","properties":{"country_en":"Colombia","name":"Tuta","name_adm0":"Colombia","name_adm1":"Boyaca","name_adm2":"Tuta","name_en":"Tuta","iso":"CO"},"geometry":{"type":"Point","coordinates":[-73.16667,5.749999999999999]}},{"type":"Feature","properties":{"country_en":"Colombia","name":"Ventaquemada","name_adm0":"Colombia","name_adm1":"Boyaca","name_adm2":"Ventaquemada","name_en":"Ventaquemada","iso":"CO"},"geometry":{"type":"Point","coordinates":[-73.5,5.416669999999999]}},{"type":"Feature","properties":{"country_en":"Colombia","name":"Guepsa","name_adm0":"Colombia","name_adm1":"Santander","name_adm2":"Guepsa","name_en":"Guepsa","iso":"CO"},"geometry":{"type":"Point","coordinates":[-73.5,6.08333]}},{"type":"Feature","properties":{"country_en":"Colombia","name":"San Cayetano","name_adm0":"Colombia","name_adm1":"Cundinamarca","name_adm2":"San Cayetano","name_en":"San Cayetano","iso":"CO"},"geometry":{"type":"Point","coordinates":[-74.08333,5.333329999999999]}},{"type":"Feature","properties":{"country_en":"Colombia","name":"San Pablo","name_adm0":"Colombia","name_adm1":"Narino","name_adm2":"San Pablo","name_en":"San Pablo","iso":"CO"},"geometry":{"type":"Point","coordinates":[-76.91667,1.66667]}},{"type":"Feature","properties":{"country_en":"Colombia","name":"Abrego","name_adm0":"Colombia","name_adm1":"Norte de Santander","name_adm2":"Abrego","name_en":"Abrego","iso":"CO"},"geometry":{"type":"Point","coordinates":[-73.2,8]}},{"type":"Feature","properties":{"country_en":"Colombia","name":"Arenal","name_adm0":"Colombia","name_adm1":"Bolivar","name_adm2":"Arenal","name_en":"Arenal","iso":"CO"},"geometry":{"type":"Point","coordinates":[-75.549974,10.427546]}},{"type":"Feature","properties":{"country_en":"Colombia","name":"Pueblo Rico","name_adm0":"Colombia","name_adm1":"Antioquia","name_adm2":"Pueblo Rico","name_en":"Pueblo Rico","iso":"CO"},"geometry":{"type":"Point","coordinates":[-75.501265,6.227933]}},{"type":"Feature","properties":{"country_en":"Colombia","name":"Chachagui","name_adm0":"Colombia","name_adm1":"Narino","name_adm2":"Chachagui","name_en":"Chachagui","iso":"CO"},"geometry":{"type":"Point","coordinates":[-77.31211699999999,1.4993965]}},{"type":"Feature","properties":{"country_en":"Colombia","name":"Casanare","name_adm0":"Colombia","name_adm1":"Casanare","name_en":"Casanare","iso":"CO"},"geometry":{"type":"Point","coordinates":[-71.5,5.5]}},{"type":"Feature","properties":{"country_en":"Colombia","name":"Armenia","name_adm0":"Colombia","name_adm1":"Antioquia","name_adm2":"Armenia","name_en":"Armenia","iso":"CO"},"geometry":{"type":"Point","coordinates":[-75.78722,6.15639]}},{"type":"Feature","properties":{"country_en":"Colombia","name":"Belén","name_adm0":"Colombia","name_adm1":"Narino","name_adm2":"Belen","name_en":"Belén","iso":"CO"},"geometry":{"type":"Point","coordinates":[-77.01399,1.5978699999999997]}},{"type":"Feature","properties":{"country_en":"Colombia","name":"Bayunca","name_adm0":"Colombia","name_adm1":"Bolivar","name_adm2":"Cartagena","name_en":"Bayunca","iso":"CO"},"geometry":{"type":"Point","coordinates":[-75.39728,10.53569]}},{"type":"Feature","properties":{"country_en":"Colombia","name":"La Belleza","name_adm0":"Colombia","name_adm1":"Santander","name_adm2":"La Belleza","name_en":"La Belleza","iso":"CO"},"geometry":{"type":"Point","coordinates":[-73.96167,5.863709999999999]}},{"type":"Feature","properties":{"country_en":"Colombia","name":"Los Córdobas","name_adm0":"Colombia","name_adm1":"Cordoba","name_adm2":"Los Cordobas","name_en":"Los Córdobas","iso":"CO"},"geometry":{"type":"Point","coordinates":[-76.35455,8.89403]}},{"type":"Feature","properties":{"country_en":"Colombia","name":"María la Baja","name_adm0":"Colombia","name_adm1":"Bolivar","name_adm2":"Maria la Baja","name_en":"María la Baja","iso":"CO"},"geometry":{"type":"Point","coordinates":[-75.30155,9.983199999999998]}},{"type":"Feature","properties":{"country_en":"Colombia","name":"Medialuna","name_adm0":"Colombia","name_adm1":"Magdalena","name_adm2":"Pivijay","name_en":"Medialuna","iso":"CO"},"geometry":{"type":"Point","coordinates":[-74.50373,10.512469999999999]}},{"type":"Feature","properties":{"country_en":"Colombia","name":"Maporillal","name_adm0":"Colombia","name_adm1":"Arauca","name_adm2":"Arauca","name_en":"Maporillal","iso":"CO"},"geometry":{"type":"Point","coordinates":[-70.61361,6.71229]}},{"type":"Feature","properties":{"country_en":"Colombia","name":"Padilla","name_adm0":"Colombia","name_adm1":"Cauca","name_adm2":"Padilla","name_en":"Padilla","iso":"CO"},"geometry":{"type":"Point","coordinates":[-76.31385,3.2203799999999996]}},{"type":"Feature","properties":{"country_en":"Colombia","name":"Ospina","name_adm0":"Colombia","name_adm1":"Narino","name_adm2":"Ospina","name_en":"Ospina","iso":"CO"},"geometry":{"type":"Point","coordinates":[-77.56554,1.0595]}},{"type":"Feature","properties":{"country_en":"Colombia","name":"Pie de Pató","name_adm0":"Colombia","name_adm1":"Choco","name_adm2":"Alto Baudo","name_en":"Pie de Pató","iso":"CO"},"geometry":{"type":"Point","coordinates":[-76.97448999999999,5.51604]}},{"type":"Feature","properties":{"country_en":"Colombia","name":"Palestina","name_adm0":"Colombia","name_adm1":"Huila","name_adm2":"Palestina","name_en":"Palestina","iso":"CO"},"geometry":{"type":"Point","coordinates":[-76.13403,1.72362]}},{"type":"Feature","properties":{"country_en":"Colombia","name":"San Roque","name_adm0":"Colombia","name_adm1":"Antioquia","name_adm2":"San Roque","name_en":"San Roque","iso":"CO"},"geometry":{"type":"Point","coordinates":[-75.0196,6.48511]}},{"type":"Feature","properties":{"country_en":"Colombia","name":"San Pedro de Urabá","name_adm0":"Colombia","name_adm1":"Antioquia","name_adm2":"San Pedro de Uraba","name_en":"San Pedro de Urabá","iso":"CO"},"geometry":{"type":"Point","coordinates":[-76.37641,8.27515]}},{"type":"Feature","properties":{"country_en":"Colombia","name":"San Zenón","name_adm0":"Colombia","name_adm1":"Magdalena","name_adm2":"San Zenon","name_en":"San Zenón","iso":"CO"},"geometry":{"type":"Point","coordinates":[-74.50037,9.24217]}},{"type":"Feature","properties":{"country_en":"Colombia","name":"Santa Ana","name_adm0":"Colombia","name_adm1":"Magdalena","name_adm2":"Santa Ana","name_en":"Santa Ana","iso":"CO"},"geometry":{"type":"Point","coordinates":[-74.56848,9.32125]}},{"type":"Feature","properties":{"country_en":"Colombia","name":"Chiriguaná","name_adm0":"Colombia","name_adm1":"Cesar","name_adm2":"Chiriguana","name_en":"Chiriguaná","iso":"CO"},"geometry":{"type":"Point","coordinates":[-73.60314,9.36238]}},{"type":"Feature","properties":{"country_en":"Colombia","name":"Angostura","name_adm0":"Colombia","name_adm1":"Antioquia","name_adm2":"Angostura","name_en":"Angostura","iso":"CO"},"geometry":{"type":"Point","coordinates":[-75.33466999999999,6.88508]}},{"type":"Feature","properties":{"country_en":"Colombia","name":"Achí","name_adm0":"Colombia","name_adm1":"Bolivar","name_adm2":"Achi","name_en":"Achí","iso":"CO"},"geometry":{"type":"Point","coordinates":[-74.55405,8.568179999999998]}},{"type":"Feature","properties":{"country_en":"Colombia","name":"Mercaderes","name_adm0":"Colombia","name_adm1":"Cauca","name_adm2":"Mercaderes","name_en":"Mercaderes","iso":"CO"},"geometry":{"type":"Point","coordinates":[-77.16596,1.80094]}},{"type":"Feature","properties":{"country_en":"Colombia","name":"Marquetalia","name_adm0":"Colombia","name_adm1":"Caldas","name_adm2":"Marquetalia","name_en":"Marquetalia","iso":"CO"},"geometry":{"type":"Point","coordinates":[-75.05496,5.29659]}},{"type":"Feature","properties":{"country_en":"Colombia","name":"La Paz","name_adm0":"Colombia","name_adm1":"Santander","name_adm2":"La Paz","name_en":"La Paz","iso":"CO"},"geometry":{"type":"Point","coordinates":[-73.58948,6.17848]}},{"type":"Feature","properties":{"country_en":"Colombia","name":"La Palma","name_adm0":"Colombia","name_adm1":"Cundinamarca","name_adm2":"La Palma","name_en":"La Palma","iso":"CO"},"geometry":{"type":"Point","coordinates":[-73.87215,4.35308]}},{"type":"Feature","properties":{"country_en":"Colombia","name":"San Diego","name_adm0":"Colombia","name_adm1":"Cesar","name_adm2":"San Diego","name_en":"San Diego","iso":"CO"},"geometry":{"type":"Point","coordinates":[-73.18004,10.33427]}},{"type":"Feature","properties":{"country_en":"Colombia","name":"San Calixto","name_adm0":"Colombia","name_adm1":"Norte de Santander","name_adm2":"San Calixto","name_en":"San Calixto","iso":"CO"},"geometry":{"type":"Point","coordinates":[-73.20737,8.4021]}},{"type":"Feature","properties":{"country_en":"Colombia","name":"San Benito Abad","name_adm0":"Colombia","name_adm1":"Sucre","name_adm2":"San Benito Abad","name_en":"San Benito Abad","iso":"CO"},"geometry":{"type":"Point","coordinates":[-75.02709,8.92901]}},{"type":"Feature","properties":{"country_en":"Colombia","name":"San Antonio","name_adm0":"Colombia","name_adm1":"Tolima","name_adm2":"San Antonio","name_en":"San Antonio","iso":"CO"},"geometry":{"type":"Point","coordinates":[-75.48008,3.9142299999999994]}},{"type":"Feature","properties":{"country_en":"Colombia","name":"Yacopí","name_adm0":"Colombia","name_adm1":"Cundinamarca","name_adm2":"Yacopi","name_en":"Yacopí","iso":"CO"},"geometry":{"type":"Point","coordinates":[-74.33823,5.45948]}},{"type":"Feature","properties":{"country_en":"Colombia","name":"Versalles","name_adm0":"Colombia","name_adm1":"Valle del Cauca","name_adm2":"Versalles","name_en":"Versalles","iso":"CO"},"geometry":{"type":"Point","coordinates":[-76.19814,4.57544]}},{"type":"Feature","properties":{"country_en":"Colombia","name":"Trujillo","name_adm0":"Colombia","name_adm1":"Valle del Cauca","name_adm2":"Trujillo","name_en":"Trujillo","iso":"CO"},"geometry":{"type":"Point","coordinates":[-76.31945,4.21217]}},{"type":"Feature","properties":{"country_en":"Colombia","name":"Toledo","name_adm0":"Colombia","name_adm1":"Norte de Santander","name_adm2":"Toledo","name_en":"Toledo","iso":"CO"},"geometry":{"type":"Point","coordinates":[-72.48295,7.30984]}},{"type":"Feature","properties":{"country_en":"Colombia","name":"Gámeza","name_adm0":"Colombia","name_adm1":"Boyaca","name_adm2":"Gameza","name_en":"Gámeza","iso":"CO"},"geometry":{"type":"Point","coordinates":[-72.80586,5.80263]}},{"type":"Feature","properties":{"country_en":"Colombia","name":"El Tambo","name_adm0":"Colombia","name_adm1":"Narino","name_adm2":"El Tambo","name_en":"El Tambo","iso":"CO"},"geometry":{"type":"Point","coordinates":[-77.39678,1.41814]}},{"type":"Feature","properties":{"country_en":"Colombia","name":"Momil","name_adm0":"Colombia","name_adm1":"Cordoba","name_adm2":"Momil","name_en":"Momil","iso":"CO"},"geometry":{"type":"Point","coordinates":[-75.67489,9.23768]}},{"type":"Feature","properties":{"country_en":"Colombia","name":"Medina","name_adm0":"Colombia","name_adm1":"Cundinamarca","name_adm2":"Medina","name_en":"Medina","iso":"CO"},"geometry":{"type":"Point","coordinates":[-73.34982,4.51005]}},{"type":"Feature","properties":{"country_en":"Colombia","name":"Margarita","name_adm0":"Colombia","name_adm1":"Bolivar","name_adm2":"Margarita","name_en":"Margarita","iso":"CO"},"geometry":{"type":"Point","coordinates":[-74.26618,9.15596]}},{"type":"Feature","properties":{"country_en":"Colombia","name":"Manta","name_adm0":"Colombia","name_adm1":"Cundinamarca","name_adm2":"Manta","name_en":"Manta","iso":"CO"},"geometry":{"type":"Point","coordinates":[-73.54115,5.00864]}},{"type":"Feature","properties":{"country_en":"Colombia","name":"Maceo","name_adm0":"Colombia","name_adm1":"Antioquia","name_adm2":"Maceo","name_en":"Maceo","iso":"CO"},"geometry":{"type":"Point","coordinates":[-74.78742,6.55196]}},{"type":"Feature","properties":{"country_en":"Colombia","name":"Lourdes","name_adm0":"Colombia","name_adm1":"Norte de Santander","name_adm2":"Lourdes","name_en":"Lourdes","iso":"CO"},"geometry":{"type":"Point","coordinates":[-72.83252999999999,7.94411]}},{"type":"Feature","properties":{"country_en":"Colombia","name":"Lloró","name_adm0":"Colombia","name_adm1":"Choco","name_adm2":"Lloro","name_en":"Lloró","iso":"CO"},"geometry":{"type":"Point","coordinates":[-76.54945,5.496049999999999]}},{"type":"Feature","properties":{"country_en":"Colombia","name":"Buenavista","name_adm0":"Colombia","name_adm1":"Sucre","name_adm2":"Buenavista","name_en":"Buenavista","iso":"CO"},"geometry":{"type":"Point","coordinates":[-74.97358,9.31939]}},{"type":"Feature","properties":{"country_en":"Colombia","name":"Calamar","name_adm0":"Colombia","name_adm1":"Guavaire","name_adm2":"Calamar","name_en":"Calamar","iso":"CO"},"geometry":{"type":"Point","coordinates":[-72.65315,1.9596]}},{"type":"Feature","properties":{"country_en":"Colombia","name":"Cáchira","name_adm0":"Colombia","name_adm1":"Norte de Santander","name_adm2":"Cachira","name_en":"Cáchira","iso":"CO"},"geometry":{"type":"Point","coordinates":[-73.0483,7.74104]}},{"type":"Feature","properties":{"country_en":"Colombia","name":"La Sabana","name_adm0":"Colombia","name_adm1":"Guainia","name_adm2":"Puerto Colombia","name_en":"La Sabana","iso":"CO"},"geometry":{"type":"Point","coordinates":[-68.5,2.38333]}},{"type":"Feature","properties":{"country_en":"Colombia","name":"Oporapa","name_adm0":"Colombia","name_adm1":"Huila","name_adm2":"Oporapa","name_en":"Oporapa","iso":"CO"},"geometry":{"type":"Point","coordinates":[-75.97675,2.05015]}},{"type":"Feature","properties":{"country_en":"Colombia","name":"Santiago","name_adm0":"Colombia","name_adm1":"Norte de Santander","name_adm2":"Santiago","name_en":"Santiago","iso":"CO"},"geometry":{"type":"Point","coordinates":[-72.7162,7.864320000000001]}},{"type":"Feature","properties":{"country_en":"Colombia","name":"Carmen de Carupa","name_adm0":"Colombia","name_adm1":"Cundinamarca","name_adm2":"Carmen de Carupa","name_en":"Carmen de Carupa","iso":"CO"},"geometry":{"type":"Point","coordinates":[-73.91667,5.333329999999999]}},{"type":"Feature","properties":{"country_en":"Colombia","name":"Iscuande","name_adm0":"Colombia","name_adm1":"Narino","name_adm2":"Iscuande","name_en":"Iscuande","iso":"CO"},"geometry":{"type":"Point","coordinates":[-77.91667,2.33333]}},{"type":"Feature","properties":{"country_en":"Colombia","name":"Sapuyes","name_adm0":"Colombia","name_adm1":"Narino","name_adm2":"Sapuyes","name_en":"Sapuyes","iso":"CO"},"geometry":{"type":"Point","coordinates":[-77.6,1.03333]}},{"type":"Feature","properties":{"country_en":"Colombia","name":"Hacari","name_adm0":"Colombia","name_adm1":"Norte de Santander","name_adm2":"Hacari","name_en":"Hacari","iso":"CO"},"geometry":{"type":"Point","coordinates":[-73.08333,8.5]}},{"type":"Feature","properties":{"country_en":"Colombia","name":"Herran","name_adm0":"Colombia","name_adm1":"Norte de Santander","name_adm2":"Herran","name_en":"Herran","iso":"CO"},"geometry":{"type":"Point","coordinates":[-72.46667,7.499999999999999]}},{"type":"Feature","properties":{"country_en":"Colombia","name":"Berlín","name_adm0":"Colombia","name_adm1":"Tolima","name_adm2":"Prado","name_en":"Berlín","iso":"CO"},"geometry":{"type":"Point","coordinates":[-75.61139,3.62389]}},{"type":"Feature","properties":{"country_en":"Colombia","name":"Bilbao","name_adm0":"Colombia","name_adm1":"Tolima","name_adm2":"Planadas","name_en":"Bilbao","iso":"CO"},"geometry":{"type":"Point","coordinates":[-75.74676,3.2748]}},{"type":"Feature","properties":{"country_en":"Colombia","name":"Buenavista","name_adm0":"Colombia","name_adm1":"Tolima","name_adm2":"Purificacion","name_en":"Buenavista","iso":"CO"},"geometry":{"type":"Point","coordinates":[-74.92972,3.45583]}},{"type":"Feature","properties":{"country_en":"Colombia","name":"Jericó","name_adm0":"Colombia","name_adm1":"Boyaca","name_adm2":"Jerico","name_en":"Jericó","iso":"CO"},"geometry":{"type":"Point","coordinates":[-72.5708,6.14592]}},{"type":"Feature","properties":{"country_en":"Colombia","name":"La Botica","name_adm0":"Colombia","name_adm1":"Cundinamarca","name_adm2":"Quipile","name_en":"La Botica","iso":"CO"},"geometry":{"type":"Point","coordinates":[-74.57275,4.7109]}},{"type":"Feature","properties":{"country_en":"Colombia","name":"La Calera","name_adm0":"Colombia","name_adm1":"Cundinamarca","name_adm2":"Caqueza","name_en":"La Calera","iso":"CO"},"geometry":{"type":"Point","coordinates":[-73.98333,4.38333]}},{"type":"Feature","properties":{"country_en":"Colombia","name":"La Ceiba","name_adm0":"Colombia","name_adm1":"Arauca","name_adm2":"Saravena","name_en":"La Ceiba","iso":"CO"},"geometry":{"type":"Point","coordinates":[-70.96086,6.4122]}},{"type":"Feature","properties":{"country_en":"Colombia","name":"La Chiquita","name_adm0":"Colombia","name_adm1":"Huila","name_adm2":"Gigante","name_en":"La Chiquita","iso":"CO"},"geometry":{"type":"Point","coordinates":[-75.48333,2.31667]}},{"type":"Feature","properties":{"country_en":"Colombia","name":"La Perla","name_adm0":"Colombia","name_adm1":"Tolima","name_adm2":"Purificacion","name_en":"La Perla","iso":"CO"},"geometry":{"type":"Point","coordinates":[-75.57611,4.15]}},{"type":"Feature","properties":{"country_en":"Colombia","name":"La Vega","name_adm0":"Colombia","name_adm1":"Cundinamarca","name_adm2":"Pandi","name_en":"La Vega","iso":"CO"},"geometry":{"type":"Point","coordinates":[-74.44609999999999,4.20122]}},{"type":"Feature","properties":{"country_en":"Colombia","name":"Miramar","name_adm0":"Colombia","name_adm1":"Tolima","name_adm2":"Coyaima","name_en":"Miramar","iso":"CO"},"geometry":{"type":"Point","coordinates":[-75.42194,3.82917]}},{"type":"Feature","properties":{"country_en":"Colombia","name":"Miranda","name_adm0":"Colombia","name_adm1":"Antioquia","name_adm2":"Medellin","name_en":"Miranda","iso":"CO"},"geometry":{"type":"Point","coordinates":[-75.56268,6.27489]}},{"type":"Feature","properties":{"country_en":"Colombia","name":"La Angostura","name_adm0":"Colombia","name_adm1":"Putumayo","name_adm2":"Puerto Guzman","name_en":"La Angostura","iso":"CO"},"geometry":{"type":"Point","coordinates":[-76.33403,0.38476]}},{"type":"Feature","properties":{"country_en":"Colombia","name":"Playa Grande","name_adm0":"Colombia","name_adm1":"Narino","name_adm2":"El Charco","name_en":"Playa Grande","iso":"CO"},"geometry":{"type":"Point","coordinates":[-78.11835,2.17087]}},{"type":"Feature","properties":{"country_en":"Colombia","name":"Taridó","name_adm0":"Colombia","name_adm1":"Choco","name_adm2":"Istmina","name_en":"Taridó","iso":"CO"},"geometry":{"type":"Point","coordinates":[-76.78247,5.405399999999999]}},{"type":"Feature","properties":{"country_en":"Colombia","name":"El Peñol","name_adm0":"Colombia","name_adm1":"Narino","name_adm2":"El Peñol","name_en":"El Peñol","iso":"CO"},"geometry":{"type":"Point","coordinates":[-77.266845,1.11958]}},{"type":"Feature","properties":{"country_en":"Colombia","name":"Iles","name_adm0":"Colombia","name_adm1":"Narino","name_adm2":"Iles","name_en":"Iles","iso":"CO"},"geometry":{"type":"Point","coordinates":[-77.53333,0.95]}},{"type":"Feature","properties":{"country_en":"Colombia","name":"Imues","name_adm0":"Colombia","name_adm1":"Narino","name_adm2":"Imues","name_en":"Imues","iso":"CO"},"geometry":{"type":"Point","coordinates":[-77.5,1.05]}},{"type":"Feature","properties":{"country_en":"Colombia","name":"Cuítiva","name_adm0":"Colombia","name_adm1":"Boyaca","name_adm2":"Cuitiva","name_en":"Cuítiva","iso":"CO"},"geometry":{"type":"Point","coordinates":[-72.96687,5.58007]}},{"type":"Feature","properties":{"country_en":"Colombia","name":"Cumaca","name_adm0":"Colombia","name_adm1":"Cundinamarca","name_adm2":"Tibacuy","name_en":"Cumaca","iso":"CO"},"geometry":{"type":"Point","coordinates":[-74.46947,4.33656]}},{"type":"Feature","properties":{"country_en":"Colombia","name":"Tena","name_adm0":"Colombia","name_adm1":"Cundinamarca","name_adm2":"Tena","name_en":"Tena","iso":"CO"},"geometry":{"type":"Point","coordinates":[-74.39258,4.66001]}},{"type":"Feature","properties":{"country_en":"Colombia","name":"Pitalito","name_adm0":"Colombia","name_adm1":"Huila","name_adm2":"Pitalito","name_en":"Pitalito","iso":"CO"},"geometry":{"type":"Point","coordinates":[-76.04785,1.84966]}},{"type":"Feature","properties":{"country_en":"Colombia","name":"Piedecuesta","name_adm0":"Colombia","name_adm1":"Santander","name_adm2":"Piedecuesta","name_en":"Piedecuesta","iso":"CO"},"geometry":{"type":"Point","coordinates":[-73.04953,6.987889999999999]}},{"type":"Feature","properties":{"country_en":"Colombia","name":"Pacho","name_adm0":"Colombia","name_adm1":"Cundinamarca","name_adm2":"Pacho","name_en":"Pacho","iso":"CO"},"geometry":{"type":"Point","coordinates":[-74.15977,5.13278]}},{"type":"Feature","properties":{"country_en":"Colombia","name":"Chocontá","name_adm0":"Colombia","name_adm1":"Cundinamarca","name_adm2":"Choconta","name_en":"Chocontá","iso":"CO"},"geometry":{"type":"Point","coordinates":[-73.68578,5.14468]}},{"type":"Feature","properties":{"country_en":"Colombia","name":"Carolina","name_adm0":"Colombia","name_adm1":"Antioquia","name_adm2":"Carolina","name_en":"Carolina","iso":"CO"},"geometry":{"type":"Point","coordinates":[-75.28168,6.72439]}},{"type":"Feature","properties":{"country_en":"Colombia","name":"Balboa","name_adm0":"Colombia","name_adm1":"Risaralda","name_adm2":"Balboa","name_en":"Balboa","iso":"CO"},"geometry":{"type":"Point","coordinates":[-75.95722,4.95167]}},{"type":"Feature","properties":{"country_en":"Colombia","name":"Carmen de Carupa","name_adm0":"Colombia","name_adm1":"Cundinamarca","name_adm2":"Carmen de Carupa","name_en":"Carmen de Carupa","iso":"CO"},"geometry":{"type":"Point","coordinates":[-73.90168,5.34862]}},{"type":"Feature","properties":{"country_en":"Colombia","name":"Bruselas","name_adm0":"Colombia","name_adm1":"Huila","name_adm2":"Pitalito","name_en":"Bruselas","iso":"CO"},"geometry":{"type":"Point","coordinates":[-76.17218,1.7741299999999998]}},{"type":"Feature","properties":{"country_en":"Colombia","name":"Caracolicito","name_adm0":"Colombia","name_adm1":"Cesar","name_adm2":"El Copey","name_en":"Caracolicito","iso":"CO"},"geometry":{"type":"Point","coordinates":[-73.08333,10.31667]}},{"type":"Feature","properties":{"country_en":"Colombia","name":"Carare","name_adm0":"Colombia","name_adm1":"Santander","name_adm2":"Cimitarra","name_en":"Carare","iso":"CO"},"geometry":{"type":"Point","coordinates":[-73.33474,6.3325]}},{"type":"Feature","properties":{"country_en":"Colombia","name":"Colombia","name_adm0":"Colombia","name_adm1":"Huila","name_adm2":"Colombia","name_en":"Colombia","iso":"CO"},"geometry":{"type":"Point","coordinates":[-74.8015,3.3760599999999994]}},{"type":"Feature","properties":{"country_en":"Colombia","name":"Cisneros","name_adm0":"Colombia","name_adm1":"Valle del Cauca","name_adm2":"Dagua","name_en":"Cisneros","iso":"CO"},"geometry":{"type":"Point","coordinates":[-76.78444,3.8230599999999995]}},{"type":"Feature","properties":{"country_en":"Colombia","name":"Cite","name_adm0":"Colombia","name_adm1":"Boyaca","name_adm2":"San Jose de Pare","name_en":"Cite","iso":"CO"},"geometry":{"type":"Point","coordinates":[-73.60287,5.964659999999999]}},{"type":"Feature","properties":{"country_en":"Colombia","name":"Coello","name_adm0":"Colombia","name_adm1":"Tolima","name_adm2":"Coello","name_en":"Coello","iso":"CO"},"geometry":{"type":"Point","coordinates":[-74.89825,4.28908]}},{"type":"Feature","properties":{"country_en":"Colombia","name":"Combita","name_adm0":"Colombia","name_adm1":"Boyaca","name_adm2":"Combita","name_en":"Combita","iso":"CO"},"geometry":{"type":"Point","coordinates":[-73.31667,5.63333]}},{"type":"Feature","properties":{"country_en":"Colombia","name":"El Playón","name_adm0":"Colombia","name_adm1":"Santander","name_adm2":"El Playon","name_en":"El Playón","iso":"CO"},"geometry":{"type":"Point","coordinates":[-73.2031,7.47131]}},{"type":"Feature","properties":{"country_en":"Colombia","name":"Guadualejo","name_adm0":"Colombia","name_adm1":"Tolima","name_adm2":"Purificacion","name_en":"Guadualejo","iso":"CO"},"geometry":{"type":"Point","coordinates":[-75.41417,3.39139]}},{"type":"Feature","properties":{"country_en":"Colombia","name":"La Paz","name_adm0":"Colombia","name_adm1":"Cesar","name_adm2":"La Paz","name_en":"La Paz","iso":"CO"},"geometry":{"type":"Point","coordinates":[-73.17331999999999,10.38439]}},{"type":"Feature","properties":{"country_en":"Colombia","name":"La Paz","name_adm0":"Colombia","name_adm1":"Cundinamarca","name_adm2":"Guaduas","name_en":"La Paz","iso":"CO"},"geometry":{"type":"Point","coordinates":[-74.63148,5.21768]}},{"type":"Feature","properties":{"country_en":"Colombia","name":"La Sierra","name_adm0":"Colombia","name_adm1":"Cundinamarca","name_adm2":"Bituima","name_en":"La Sierra","iso":"CO"},"geometry":{"type":"Point","coordinates":[-74.55136999999999,4.78983]}},{"type":"Feature","properties":{"country_en":"Colombia","name":"La Unión","name_adm0":"Colombia","name_adm1":"Antioquia","name_adm2":"Turbo","name_en":"La Unión","iso":"CO"},"geometry":{"type":"Point","coordinates":[-76.72832999999999,7.98417]}},{"type":"Feature","properties":{"country_en":"Colombia","name":"Montfort","name_adm0":"Colombia","name_adm1":"Meta","name_adm2":"El Calvario","name_en":"Montfort","iso":"CO"},"geometry":{"type":"Point","coordinates":[-73.64136,4.31871]}},{"type":"Feature","properties":{"country_en":"Colombia","name":"Payandé","name_adm0":"Colombia","name_adm1":"Tolima","name_adm2":"San Luis","name_en":"Payandé","iso":"CO"},"geometry":{"type":"Point","coordinates":[-75.09667,4.2975]}},{"type":"Feature","properties":{"country_en":"Colombia","name":"Patillal","name_adm0":"Colombia","name_adm1":"La Guajira","name_adm2":"San Juan del Cesar","name_en":"Patillal","iso":"CO"},"geometry":{"type":"Point","coordinates":[-73.21135,10.70362]}},{"type":"Feature","properties":{"country_en":"Colombia","name":"San Diego","name_adm0":"Colombia","name_adm1":"Caldas","name_adm2":"Samana","name_en":"San Diego","iso":"CO"},"geometry":{"type":"Point","coordinates":[-74.93268,5.66143]}},{"type":"Feature","properties":{"country_en":"Colombia","name":"San Javier","name_adm0":"Colombia","name_adm1":"Cundinamarca","name_adm2":"La Mesa","name_en":"San Javier","iso":"CO"},"geometry":{"type":"Point","coordinates":[-74.46281,4.65424]}},{"type":"Feature","properties":{"country_en":"Colombia","name":"San Joaquín","name_adm0":"Colombia","name_adm1":"Cundinamarca","name_adm2":"La Mesa","name_en":"San Joaquín","iso":"CO"},"geometry":{"type":"Point","coordinates":[-74.51945,4.63778]}},{"type":"Feature","properties":{"country_en":"Colombia","name":"Santiago","name_adm0":"Colombia","name_adm1":"Antioquia","name_adm2":"Yolombo","name_en":"Santiago","iso":"CO"},"geometry":{"type":"Point","coordinates":[-75.15594,6.542539999999999]}},{"type":"Feature","properties":{"country_en":"Colombia","name":"Suratá","name_adm0":"Colombia","name_adm1":"Santander","name_adm2":"Surata","name_en":"Suratá","iso":"CO"},"geometry":{"type":"Point","coordinates":[-72.98361,7.36633]}},{"type":"Feature","properties":{"country_en":"Colombia","name":"Sutatenza","name_adm0":"Colombia","name_adm1":"Boyaca","name_adm2":"Sutatenza","name_en":"Sutatenza","iso":"CO"},"geometry":{"type":"Point","coordinates":[-73.4405,5.02403]}},{"type":"Feature","properties":{"country_en":"Colombia","name":"Ubalá","name_adm0":"Colombia","name_adm1":"Cundinamarca","name_adm2":"Ubala","name_en":"Ubalá","iso":"CO"},"geometry":{"type":"Point","coordinates":[-72.53694,4.74778]}},{"type":"Feature","properties":{"country_en":"Colombia","name":"Tuchín","name_adm0":"Colombia","name_adm1":"Cordoba","name_adm2":"San Andres de Sotavento","name_en":"Tuchín","iso":"CO"},"geometry":{"type":"Point","coordinates":[-76.1975,8.81667]}},{"type":"Feature","properties":{"country_en":"Colombia","name":"Caramanta","name_adm0":"Colombia","name_adm1":"Antioquia","name_adm2":"Caramanta","name_en":"Caramanta","iso":"CO"},"geometry":{"type":"Point","coordinates":[-75.64368,5.54782]}},{"type":"Feature","properties":{"country_en":"Colombia","name":"Caparrapí","name_adm0":"Colombia","name_adm1":"Cundinamarca","name_adm2":"Caparrapi","name_en":"Caparrapí","iso":"CO"},"geometry":{"type":"Point","coordinates":[-74.49147,5.34644]}},{"type":"Feature","properties":{"country_en":"Colombia","name":"Morales","name_adm0":"Colombia","name_adm1":"Cauca","name_adm2":"Morales","name_en":"Morales","iso":"CO"},"geometry":{"type":"Point","coordinates":[-76.61723,2.75701]}},{"type":"Feature","properties":{"country_en":"Colombia","name":"Araracuara","name_adm0":"Colombia","name_adm1":"Amazonas","name_adm2":"Puerto Santander","name_en":"Araracuara","iso":"CO"},"geometry":{"type":"Point","coordinates":[-72.3839,-0.61526]}},{"type":"Feature","properties":{"country_en":"Colombia","name":"El Guamo","name_adm0":"Colombia","name_adm1":"Bolivar","name_adm2":"El Guamo","name_en":"El Guamo","iso":"CO"},"geometry":{"type":"Point","coordinates":[-74.97612,10.031549999999998]}},{"type":"Feature","properties":{"country_en":"Colombia","name":"Baraya","name_adm0":"Colombia","name_adm1":"Huila","name_adm2":"Baraya","name_en":"Baraya","iso":"CO"},"geometry":{"type":"Point","coordinates":[-75.05306,3.15333]}},{"type":"Feature","properties":{"country_en":"Colombia","name":"Ancuyá","name_adm0":"Colombia","name_adm1":"Narino","name_adm2":"Ancuya","name_en":"Ancuyá","iso":"CO"},"geometry":{"type":"Point","coordinates":[-77.51575,1.2702999999999998]}},{"type":"Feature","properties":{"country_en":"Colombia","name":"Amalfi","name_adm0":"Colombia","name_adm1":"Antioquia","name_adm2":"Amalfi","name_en":"Amalfi","iso":"CO"},"geometry":{"type":"Point","coordinates":[-75.07764,6.91016]}},{"type":"Feature","properties":{"country_en":"Colombia","name":"Victoria","name_adm0":"Colombia","name_adm1":"Caldas","name_adm2":"Victoria","name_en":"Victoria","iso":"CO"},"geometry":{"type":"Point","coordinates":[-74.91101,5.31648]}},{"type":"Feature","properties":{"country_en":"Colombia","name":"Ricaurte","name_adm0":"Colombia","name_adm1":"Narino","name_adm2":"Ricaurte","name_en":"Ricaurte","iso":"CO"},"geometry":{"type":"Point","coordinates":[-77.9372,1.1727]}},{"type":"Feature","properties":{"country_en":"Colombia","name":"Cocal","name_adm0":"Colombia","name_adm1":"Cauca","name_adm2":"El Tambo","name_en":"Cocal","iso":"CO"},"geometry":{"type":"Point","coordinates":[-77,2.51667]}},{"type":"Feature","properties":{"country_en":"Colombia","name":"Puerto Seco","name_adm0":"Colombia","name_adm1":"Huila","name_adm2":"Gigante","name_en":"Puerto Seco","iso":"CO"},"geometry":{"type":"Point","coordinates":[-75.54999999999998,2.4999999999999996]}},{"type":"Feature","properties":{"country_en":"Colombia","name":"Turbaco","name_adm0":"Colombia","name_adm1":"Bolivar","name_adm2":"Turbaco","name_en":"Turbaco","iso":"CO"},"geometry":{"type":"Point","coordinates":[-75.33333,10.35]}},{"type":"Feature","properties":{"country_en":"Colombia","name":"Putana","name_adm0":"Colombia","name_adm1":"Santander","name_adm2":"Barrancabermeja","name_en":"Putana","iso":"CO"},"geometry":{"type":"Point","coordinates":[-73.11381,7.06455]}},{"type":"Feature","properties":{"country_en":"Colombia","name":"El Salado","name_adm0":"Colombia","name_adm1":"Tolima","name_adm2":"Ibague","name_en":"El Salado","iso":"CO"},"geometry":{"type":"Point","coordinates":[-75.14413999999998,4.45133]}},{"type":"Feature","properties":{"country_en":"Colombia","name":"Campohermoso","name_adm0":"Colombia","name_adm1":"Boyaca","name_adm2":"Campohermoso","name_en":"Campohermoso","iso":"CO"},"geometry":{"type":"Point","coordinates":[-73.10327,5.03132]}},{"type":"Feature","properties":{"country_en":"Colombia","name":"Mosquera","name_adm0":"Colombia","name_adm1":"Narino","name_adm2":"Mosquera","name_en":"Mosquera","iso":"CO"},"geometry":{"type":"Point","coordinates":[-78.35,2.35]}},{"type":"Feature","properties":{"country_en":"Colombia","name":"Alejandria","name_adm0":"Colombia","name_adm1":"Antioquia","name_adm2":"Alejandria","name_en":"Alejandria","iso":"CO"},"geometry":{"type":"Point","coordinates":[-75.08333,6.36667]}},{"type":"Feature","properties":{"country_en":"Colombia","name":"Anza","name_adm0":"Colombia","name_adm1":"Antioquia","name_adm2":"Anza","name_en":"Anza","iso":"CO"},"geometry":{"type":"Point","coordinates":[-75.91667,6.33333]}},{"type":"Feature","properties":{"country_en":"Colombia","name":"Anori","name_adm0":"Colombia","name_adm1":"Antioquia","name_adm2":"Anori","name_en":"Anori","iso":"CO"},"geometry":{"type":"Point","coordinates":[-75.14716999999999,7.07415]}},{"type":"Feature","properties":{"country_en":"Colombia","name":"Belmira","name_adm0":"Colombia","name_adm1":"Antioquia","name_adm2":"Belmira","name_en":"Belmira","iso":"CO"},"geometry":{"type":"Point","coordinates":[-75.66667,6.66667]}},{"type":"Feature","properties":{"country_en":"Colombia","name":"Murindo","name_adm0":"Colombia","name_adm1":"Antioquia","name_adm2":"Murindo","name_en":"Murindo","iso":"CO"},"geometry":{"type":"Point","coordinates":[-76.8,6.8]}},{"type":"Feature","properties":{"country_en":"Colombia","name":"Remedios","name_adm0":"Colombia","name_adm1":"Antioquia","name_adm2":"Remedios","name_en":"Remedios","iso":"CO"},"geometry":{"type":"Point","coordinates":[-74.41667,7]}},{"type":"Feature","properties":{"country_en":"Colombia","name":"San Carlos","name_adm0":"Colombia","name_adm1":"Antioquia","name_adm2":"San Carlos","name_en":"San Carlos","iso":"CO"},"geometry":{"type":"Point","coordinates":[-74.91667,6.2]}},{"type":"Feature","properties":{"country_en":"Colombia","name":"Santuario","name_adm0":"Colombia","name_adm1":"Antioquia","name_adm2":"Santuario","name_en":"Santuario","iso":"CO"},"geometry":{"type":"Point","coordinates":[-75.25,6.13333]}},{"type":"Feature","properties":{"country_en":"Colombia","name":"Sabanagrande","name_adm0":"Colombia","name_adm1":"Atlantico","name_adm2":"Sabanagrande","name_en":"Sabanagrande","iso":"CO"},"geometry":{"type":"Point","coordinates":[-74.75,10.799999999999999]}},{"type":"Feature","properties":{"country_en":"Colombia","name":"La Uvita","name_adm0":"Colombia","name_adm1":"Boyaca","name_adm2":"La Uvita","name_en":"La Uvita","iso":"CO"},"geometry":{"type":"Point","coordinates":[-72.5,6.33333]}},{"type":"Feature","properties":{"country_en":"Colombia","name":"Macanal","name_adm0":"Colombia","name_adm1":"Boyaca","name_adm2":"Macanal","name_en":"Macanal","iso":"CO"},"geometry":{"type":"Point","coordinates":[-73.24999999999999,4.91667]}},{"type":"Feature","properties":{"country_en":"Colombia","name":"Pajarito","name_adm0":"Colombia","name_adm1":"Boyaca","name_adm2":"Pajarito","name_en":"Pajarito","iso":"CO"},"geometry":{"type":"Point","coordinates":[-72.66667,5.416669999999999]}},{"type":"Feature","properties":{"country_en":"Colombia","name":"San Pelayo","name_adm0":"Colombia","name_adm1":"Cordoba","name_adm2":"San Pelayo","name_en":"San Pelayo","iso":"CO"},"geometry":{"type":"Point","coordinates":[-75.91667,9]}},{"type":"Feature","properties":{"country_en":"Colombia","name":"Tierralta","name_adm0":"Colombia","name_adm1":"Cordoba","name_adm2":"Tierralta","name_en":"Tierralta","iso":"CO"},"geometry":{"type":"Point","coordinates":[-76.16667,7.916669999999999]}},{"type":"Feature","properties":{"country_en":"Colombia","name":"Valencia","name_adm0":"Colombia","name_adm1":"Cordoba","name_adm2":"Valencia","name_en":"Valencia","iso":"CO"},"geometry":{"type":"Point","coordinates":[-76.16667,8.3]}},{"type":"Feature","properties":{"country_en":"Colombia","name":"Anolaima","name_adm0":"Colombia","name_adm1":"Cundinamarca","name_adm2":"Anolaima","name_en":"Anolaima","iso":"CO"},"geometry":{"type":"Point","coordinates":[-74.5,4.83333]}},{"type":"Feature","properties":{"country_en":"Colombia","name":"Beltran","name_adm0":"Colombia","name_adm1":"Cundinamarca","name_adm2":"Beltran","name_en":"Beltran","iso":"CO"},"geometry":{"type":"Point","coordinates":[-74.75,4.8]}},{"type":"Feature","properties":{"country_en":"Colombia","name":"Nataga","name_adm0":"Colombia","name_adm1":"Huila","name_adm2":"Nataga","name_en":"Nataga","iso":"CO"},"geometry":{"type":"Point","coordinates":[-75.8,2.65]}},{"type":"Feature","properties":{"country_en":"Colombia","name":"Coello","name_adm0":"Colombia","name_adm1":"Tolima","name_adm2":"Coello","name_en":"Coello","iso":"CO"},"geometry":{"type":"Point","coordinates":[-74.91667,4.33333]}},{"type":"Feature","properties":{"country_en":"Colombia","name":"Antonio Nariño","name_adm0":"Colombia","name_adm1":"Distrito Especial","name_adm2":"Santafe de Bogota D.c.","name_en":"Antonio Nariño","iso":"CO"},"geometry":{"type":"Point","coordinates":[-73.64572999999999,4.86125]}},{"type":"Feature","properties":{"country_en":"Colombia","name":"Maracavita","name_adm0":"Colombia","name_adm1":"Santander","name_adm2":"Macaravita","name_en":"Maracavita","iso":"CO"},"geometry":{"type":"Point","coordinates":[-72.59299,6.50567]}},{"type":"Feature","properties":{"country_en":"Colombia","name":"Tierralta","name_adm0":"Colombia","name_adm1":"Cordoba","name_adm2":"Tierralta","name_en":"Tierralta","iso":"CO"},"geometry":{"type":"Point","coordinates":[-76.05917,8.17361]}},{"type":"Feature","properties":{"country_en":"Colombia","name":"San Marcos","name_adm0":"Colombia","name_adm1":"Sucre","name_adm2":"San Marcos","name_en":"San Marcos","iso":"CO"},"geometry":{"type":"Point","coordinates":[-75.12809,8.65972]}},{"type":"Feature","properties":{"country_en":"Colombia","name":"Fúnes","name_adm0":"Colombia","name_adm1":"Narino","name_adm2":"Funes","name_en":"Fúnes","iso":"CO"},"geometry":{"type":"Point","coordinates":[-77.45067,1.00266]}},{"type":"Feature","properties":{"country_en":"Colombia","name":"San Cayetano","name_adm0":"Colombia","name_adm1":"Cundinamarca","name_adm2":"Puerto Salgar","name_en":"San Cayetano","iso":"CO"},"geometry":{"type":"Point","coordinates":[-74.59506,5.59509]}},{"type":"Feature","properties":{"country_en":"Colombia","name":"San Antonio","name_adm0":"Colombia","name_adm1":"Bolivar","name_adm2":"Arjona","name_en":"San Antonio","iso":"CO"},"geometry":{"type":"Point","coordinates":[-75.5146,10.01418]}},{"type":"Feature","properties":{"country_en":"Colombia","name":"Silos","name_adm0":"Colombia","name_adm1":"Norte de Santander","name_adm2":"Silos","name_en":"Silos","iso":"CO"},"geometry":{"type":"Point","coordinates":[-72.75639,7.20524]}},{"type":"Feature","properties":{"country_en":"Colombia","name":"Vegachi","name_adm0":"Colombia","name_adm1":"Antioquia","name_adm2":"Vegachi","name_en":"Vegachi","iso":"CO"},"geometry":{"type":"Point","coordinates":[-74.79473,6.76141]}},{"type":"Feature","properties":{"country_en":"Colombia","name":"La Chorrera","name_adm0":"Colombia","name_adm1":"Amazonas","name_adm2":"La Chorrera","name_en":"La Chorrera","iso":"CO"},"geometry":{"type":"Point","coordinates":[-70.180704,-3.9006999999999996]}},{"type":"Feature","properties":{"country_en":"Colombia","name":"La Pedrera","name_adm0":"Colombia","name_adm1":"Amazonas","name_adm2":"La Pedrera","name_en":"La Pedrera","iso":"CO"},"geometry":{"type":"Point","coordinates":[-70.180704,-3.9006999999999996]}},{"type":"Feature","properties":{"country_en":"Colombia","name":"Puerto Santander","name_adm0":"Colombia","name_adm1":"Amazonas","name_adm2":"Puerto Santander","name_en":"Puerto Santander","iso":"CO"},"geometry":{"type":"Point","coordinates":[-70.180704,-3.9006999999999996]}},{"type":"Feature","properties":{"country_en":"Colombia","name":"Tarapaca","name_adm0":"Colombia","name_adm1":"Amazonas","name_adm2":"Tarapaca","name_en":"Tarapaca","iso":"CO"},"geometry":{"type":"Point","coordinates":[-70.180704,-3.9006999999999996]}},{"type":"Feature","properties":{"country_en":"Colombia","name":"Inirida","name_adm0":"Colombia","name_adm1":"Guainia","name_adm2":"Inirida","name_en":"Inirida","iso":"CO"},"geometry":{"type":"Point","coordinates":[-67.7379225,2.7235794999999996]}},{"type":"Feature","properties":{"country_en":"Colombia","name":"Puerto Arica","name_adm0":"Colombia","name_adm1":"Amazonas","name_adm2":"Puerto Arica","name_en":"Puerto Arica","iso":"CO"},"geometry":{"type":"Point","coordinates":[-70.180704,-3.9006999999999996]}},{"type":"Feature","properties":{"country_en":"Colombia","name":"Arroyohondo","name_adm0":"Colombia","name_adm1":"Bolivar","name_adm2":"Arroyohondo","name_en":"Arroyohondo","iso":"CO"},"geometry":{"type":"Point","coordinates":[-75.549974,10.427546]}},{"type":"Feature","properties":{"country_en":"Colombia","name":"La Pintada","name_adm0":"Colombia","name_adm1":"Antioquia","name_adm2":"La Pintada","name_en":"La Pintada","iso":"CO"},"geometry":{"type":"Point","coordinates":[-75.60626,5.74867]}},{"type":"Feature","properties":{"country_en":"Colombia","name":"Tiquisio Nuevo","name_adm0":"Colombia","name_adm1":"Bolivar","name_adm2":"Tiquisio Nuevo","name_en":"Tiquisio Nuevo","iso":"CO"},"geometry":{"type":"Point","coordinates":[-74.284057,8.600625]}},{"type":"Feature","properties":{"country_en":"Colombia","name":"Curillo","name_adm0":"Colombia","name_adm1":"Caqueta","name_adm2":"Curillo","name_en":"Curillo","iso":"CO"},"geometry":{"type":"Point","coordinates":[-74.966926,1.362176]}},{"type":"Feature","properties":{"country_en":"Colombia","name":"Floridablanca","name_adm0":"Colombia","name_adm1":"Santander","name_adm2":"Floridablanca","name_en":"Floridablanca","iso":"CO"},"geometry":{"type":"Point","coordinates":[-73.08644,7.06222]}},{"type":"Feature","properties":{"country_en":"Colombia","name":"Campo de la Cruz","name_adm0":"Colombia","name_adm1":"Atlantico","name_adm2":"Campo de la Cruz","name_en":"Campo de la Cruz","iso":"CO"},"geometry":{"type":"Point","coordinates":[-74.88356,10.37808]}},{"type":"Feature","properties":{"country_en":"Colombia","name":"Sevilla","name_adm0":"Colombia","name_adm1":"Magdalena","name_adm2":"Cienaga","name_en":"Sevilla","iso":"CO"},"geometry":{"type":"Point","coordinates":[-74.13916,10.76343]}},{"type":"Feature","properties":{"country_en":"Colombia","name":"Cerrejón","name_adm0":"Colombia","name_adm1":"La Guajira","name_adm2":"Hato Nuevo","name_en":"Cerrejón","iso":"CO"},"geometry":{"type":"Point","coordinates":[-72.65,11.03333]}},{"type":"Feature","properties":{"country_en":"Colombia","name":"Caldas","name_adm0":"Colombia","name_adm1":"Boyaca","name_adm2":"Caldas","name_en":"Caldas","iso":"CO"},"geometry":{"type":"Point","coordinates":[-73.86567,5.55456]}},{"type":"Feature","properties":{"country_en":"Colombia","name":"Armenia","name_adm0":"Colombia","name_adm1":"Bolivar","name_adm2":"Cartagena","name_en":"Armenia","iso":"CO"},"geometry":{"type":"Point","coordinates":[-75.51667,10.399999999999999]}},{"type":"Feature","properties":{"country_en":"Colombia","name":"Barrio Obrero","name_adm0":"Colombia","name_adm1":"Magdalena","name_adm2":"Santa Marta","name_en":"Barrio Obrero","iso":"CO"},"geometry":{"type":"Point","coordinates":[-74.2,11.25]}},{"type":"Feature","properties":{"country_en":"Colombia","name":"Boston","name_adm0":"Colombia","name_adm1":"Bolivar","name_adm2":"Cartagena","name_en":"Boston","iso":"CO"},"geometry":{"type":"Point","coordinates":[-75.51667,10.416669999999998]}},{"type":"Feature","properties":{"country_en":"Colombia","name":"Boyacá","name_adm0":"Colombia","name_adm1":"Atlantico","name_adm2":"Barranquilla","name_en":"Boyacá","iso":"CO"},"geometry":{"type":"Point","coordinates":[-74.78332999999999,10.95]}},{"type":"Feature","properties":{"country_en":"Colombia","name":"Ciudad Jardín","name_adm0":"Colombia","name_adm1":"Atlantico","name_adm2":"Barranquilla","name_en":"Ciudad Jardín","iso":"CO"},"geometry":{"type":"Point","coordinates":[-74.81667,11]}},{"type":"Feature","properties":{"country_en":"Colombia","name":"Gaitán","name_adm0":"Colombia","name_adm1":"Santander","name_adm2":"Bucaramanga","name_en":"Gaitán","iso":"CO"},"geometry":{"type":"Point","coordinates":[-73.13317,7.13346]}},{"type":"Feature","properties":{"country_en":"Colombia","name":"Buga","name_adm0":"Colombia","name_adm1":"Valle del Cauca","name_adm2":"Buga","name_en":"Buga","iso":"CO"},"geometry":{"type":"Point","coordinates":[-76.29783,3.9008899999999995]}},{"type":"Feature","properties":{"country_en":"Colombia","name":"Guachucal","name_adm0":"Colombia","name_adm1":"Narino","name_adm2":"Guachacal","name_en":"Guachucal","iso":"CO"},"geometry":{"type":"Point","coordinates":[-77.7316,0.96093]}},{"type":"Feature","properties":{"country_en":"Colombia","name":"Gramalote","name_adm0":"Colombia","name_adm1":"Norte de Santander","name_adm2":"Gramalote","name_en":"Gramalote","iso":"CO"},"geometry":{"type":"Point","coordinates":[-72.79749,7.88752]}},{"type":"Feature","properties":{"country_en":"Colombia","name":"Auyama","name_adm0":"Colombia","name_adm1":"La Guajira","name_adm2":"Uribia","name_en":"Auyama","iso":"CO"},"geometry":{"type":"Point","coordinates":[-72.21667,11.41667]}},{"type":"Feature","properties":{"country_en":"Colombia","name":"Begonia","name_adm0":"Colombia","name_adm1":"Caqueta","name_adm2":"Florencia","name_en":"Begonia","iso":"CO"},"geometry":{"type":"Point","coordinates":[-75.70149,1.5259299999999998]}},{"type":"Feature","properties":{"country_en":"Colombia","name":"Magdalena","name_adm0":"Colombia","name_adm1":"Magdalena","name_en":"Magdalena","iso":"CO"},"geometry":{"type":"Point","coordinates":[-74.5,9.999999999999998]}},{"type":"Feature","properties":{"country_en":"Colombia","name":"Sucre","name_adm0":"Colombia","name_adm1":"Sucre","name_en":"Sucre","iso":"CO"},"geometry":{"type":"Point","coordinates":[-75,9]}},{"type":"Feature","properties":{"country_en":"Colombia","name":"Carlosama(cuaspud)","name_adm0":"Colombia","name_adm1":"Narino","name_adm2":"Carlosama(cuaspud)","name_en":"Carlosama(cuaspud)","iso":"CO"},"geometry":{"type":"Point","coordinates":[-77.73333,0.86667]}},{"type":"Feature","properties":{"country_en":"Colombia","name":"El Rosario","name_adm0":"Colombia","name_adm1":"Narino","name_adm2":"El Rosario","name_en":"El Rosario","iso":"CO"},"geometry":{"type":"Point","coordinates":[-77.33333,1.83333]}},{"type":"Feature","properties":{"country_en":"Colombia","name":"Chia","name_adm0":"Colombia","name_adm1":"Cundinamarca","name_adm2":"Chia","name_en":"Chia","iso":"CO"},"geometry":{"type":"Point","coordinates":[-74.05,4.91667]}},{"type":"Feature","properties":{"country_en":"Colombia","name":"Choachi","name_adm0":"Colombia","name_adm1":"Cundinamarca","name_adm2":"Choachi","name_en":"Choachi","iso":"CO"},"geometry":{"type":"Point","coordinates":[-73.91667,4.58333]}},{"type":"Feature","properties":{"country_en":"Colombia","name":"La Victoria","name_adm0":"Colombia","name_adm1":"Amazonas","name_adm2":"La Victoria","name_en":"La Victoria","iso":"CO"},"geometry":{"type":"Point","coordinates":[-69.955444,-4.168375999999999]}},{"type":"Feature","properties":{"country_en":"Colombia","name":"La Guajira","name_adm0":"Colombia","name_adm1":"La Guajira","name_en":"La Guajira","iso":"CO"},"geometry":{"type":"Point","coordinates":[-72.5,11.499999999999998]}},{"type":"Feature","properties":{"country_en":"Colombia","name":"Retiro","name_adm0":"Colombia","name_adm1":"Antioquia","name_adm2":"Retiro","name_en":"Retiro","iso":"CO"},"geometry":{"type":"Point","coordinates":[-75.49999999999999,6.08333]}},{"type":"Feature","properties":{"country_en":"Colombia","name":"Santa Rosa de Cabal","name_adm0":"Colombia","name_adm1":"Risaralda","name_adm2":"Santa Rosa de Cabal","name_en":"Santa Rosa de Cabal","iso":"CO"},"geometry":{"type":"Point","coordinates":[-75.58333,4.83333]}},{"type":"Feature","properties":{"country_en":"Colombia","name":"Coveñas","name_adm0":"Colombia","name_adm1":"Cordoba","name_adm2":"San Antero","name_en":"Coveñas","iso":"CO"},"geometry":{"type":"Point","coordinates":[-75.69628,9.40412]}},{"type":"Feature","properties":{"country_en":"Colombia","name":"Las Aguas","name_adm0":"Colombia","name_adm1":"Distrito Especial","name_adm2":"Santafe de Bogota D.c.","name_en":"Las Aguas","iso":"CO"},"geometry":{"type":"Point","coordinates":[-74.06743999999999,4.60238]}},{"type":"Feature","properties":{"country_en":"Colombia","name":"Paipa","name_adm0":"Colombia","name_adm1":"Boyaca","name_adm2":"Paipa","name_en":"Paipa","iso":"CO"},"geometry":{"type":"Point","coordinates":[-73.1,5.83333]}},{"type":"Feature","properties":{"country_en":"Colombia","name":"Piendamo","name_adm0":"Colombia","name_adm1":"Cauca","name_adm2":"Piendamo","name_en":"Piendamo","iso":"CO"},"geometry":{"type":"Point","coordinates":[-76.5,2.75]}},{"type":"Feature","properties":{"country_en":"Colombia","name":"San Juan de Arama","name_adm0":"Colombia","name_adm1":"Meta","name_adm2":"San Juan de Arama","name_en":"San Juan de Arama","iso":"CO"},"geometry":{"type":"Point","coordinates":[-74.037208,4.527484]}},{"type":"Feature","properties":{"country_en":"Colombia","name":"Betulia","name_adm0":"Colombia","name_adm1":"Antioquia","name_adm2":"Betulia","name_en":"Betulia","iso":"CO"},"geometry":{"type":"Point","coordinates":[-75.91667,6.2]}},{"type":"Feature","properties":{"country_en":"Colombia","name":"Cisneros","name_adm0":"Colombia","name_adm1":"Antioquia","name_adm2":"Cisneros","name_en":"Cisneros","iso":"CO"},"geometry":{"type":"Point","coordinates":[-75.08333,6.58333]}},{"type":"Feature","properties":{"country_en":"Colombia","name":"Corrales","name_adm0":"Colombia","name_adm1":"Boyaca","name_adm2":"Corrales","name_en":"Corrales","iso":"CO"},"geometry":{"type":"Point","coordinates":[-72.83333,5.86667]}},{"type":"Feature","properties":{"country_en":"Colombia","name":"Buritica","name_adm0":"Colombia","name_adm1":"Antioquia","name_adm2":"Buritica","name_en":"Buritica","iso":"CO"},"geometry":{"type":"Point","coordinates":[-75.91667,6.75]}},{"type":"Feature","properties":{"country_en":"Colombia","name":"Tibana","name_adm0":"Colombia","name_adm1":"Boyaca","name_adm2":"Tibana","name_en":"Tibana","iso":"CO"},"geometry":{"type":"Point","coordinates":[-73.38333,5.333329999999999]}},{"type":"Feature","properties":{"country_en":"Colombia","name":"Victoria","name_adm0":"Colombia","name_adm1":"Caldas","name_adm2":"Victoria","name_en":"Victoria","iso":"CO"},"geometry":{"type":"Point","coordinates":[-74.83332999999999,5.416669999999999]}},{"type":"Feature","properties":{"country_en":"Colombia","name":"Paya","name_adm0":"Colombia","name_adm1":"Boyaca","name_adm2":"Paya","name_en":"Paya","iso":"CO"},"geometry":{"type":"Point","coordinates":[-72.38167,5.66667]}},{"type":"Feature","properties":{"country_en":"Colombia","name":"San Bernardo","name_adm0":"Colombia","name_adm1":"Cundinamarca","name_adm2":"San Bernardo","name_en":"San Bernardo","iso":"CO"},"geometry":{"type":"Point","coordinates":[-74.33333,4.2]}},{"type":"Feature","properties":{"country_en":"Colombia","name":"San Jose del Palmar","name_adm0":"Colombia","name_adm1":"Choco","name_adm2":"San Jose del Palmar","name_en":"San Jose del Palmar","iso":"CO"},"geometry":{"type":"Point","coordinates":[-76.25,4.91667]}},{"type":"Feature","properties":{"country_en":"Colombia","name":"Apia","name_adm0":"Colombia","name_adm1":"Risaralda","name_adm2":"Apia","name_en":"Apia","iso":"CO"},"geometry":{"type":"Point","coordinates":[-76,5.16667]}},{"type":"Feature","properties":{"country_en":"Colombia","name":"San Marcos","name_adm0":"Colombia","name_adm1":"Sucre","name_adm2":"San Marcos","name_en":"San Marcos","iso":"CO"},"geometry":{"type":"Point","coordinates":[-75.16666999999998,8.58333]}},{"type":"Feature","properties":{"country_en":"Colombia","name":"Villarrica","name_adm0":"Colombia","name_adm1":"Tolima","name_adm2":"Villarrica","name_en":"Villarrica","iso":"CO"},"geometry":{"type":"Point","coordinates":[-74.58333,4]}},{"type":"Feature","properties":{"country_en":"Colombia","name":"Hato Corozal","name_adm0":"Colombia","name_adm1":"Casanare","name_adm2":"Hato Corozal","name_en":"Hato Corozal","iso":"CO"},"geometry":{"type":"Point","coordinates":[-70.99694,6.16278]}},{"type":"Feature","properties":{"country_en":"Colombia","name":"Puerto Rico","name_adm0":"Colombia","name_adm1":"Bolivar","name_adm2":"Tiquisio Nuevo","name_en":"Puerto Rico","iso":"CO"},"geometry":{"type":"Point","coordinates":[-74.26331,8.55644]}},{"type":"Feature","properties":{"country_en":"Colombia","name":"Norte","name_adm0":"Colombia","name_adm1":"Santander","name_adm2":"Bucaramanga","name_en":"Norte","iso":"CO"},"geometry":{"type":"Point","coordinates":[-73.13322,7.14999]}},{"type":"Feature","properties":{"country_en":"Colombia","name":"Rionegro","name_adm0":"Colombia","name_adm1":"Santander","name_adm2":"Rionegro","name_en":"Rionegro","iso":"CO"},"geometry":{"type":"Point","coordinates":[-73.33333,7.499999999999999]}},{"type":"Feature","properties":{"country_en":"Colombia","name":"Chita","name_adm0":"Colombia","name_adm1":"Boyaca","name_adm2":"Chita","name_en":"Chita","iso":"CO"},"geometry":{"type":"Point","coordinates":[-72.47259999999999,6.18715]}},{"type":"Feature","properties":{"country_en":"Colombia","name":"Chinácota","name_adm0":"Colombia","name_adm1":"Norte de Santander","name_adm2":"Chinacota","name_en":"Chinácota","iso":"CO"},"geometry":{"type":"Point","coordinates":[-72.60108,7.60731]}},{"type":"Feature","properties":{"country_en":"Colombia","name":"Cucunubá","name_adm0":"Colombia","name_adm1":"Cundinamarca","name_adm2":"Cucunuba","name_en":"Cucunubá","iso":"CO"},"geometry":{"type":"Point","coordinates":[-73.7661,5.24958]}},{"type":"Feature","properties":{"country_en":"Colombia","name":"Madrid","name_adm0":"Colombia","name_adm1":"Cundinamarca","name_adm2":"Madrid","name_en":"Madrid","iso":"CO"},"geometry":{"type":"Point","coordinates":[-74.26419,4.7324399999999995]}},{"type":"Feature","properties":{"country_en":"Colombia","name":"Puerto Berrío","name_adm0":"Colombia","name_adm1":"Antioquia","name_adm2":"Puerto Berrio","name_en":"Puerto Berrío","iso":"CO"},"geometry":{"type":"Point","coordinates":[-74.40326,6.49156]}},{"type":"Feature","properties":{"country_en":"Colombia","name":"Apulo","name_adm0":"Colombia","name_adm1":"Cundinamarca","name_adm2":"Apulo","name_en":"Apulo","iso":"CO"},"geometry":{"type":"Point","coordinates":[-74.59293,4.51952]}},{"type":"Feature","properties":{"country_en":"Colombia","name":"Soledad","name_adm0":"Colombia","name_adm1":"Atlantico","name_adm2":"Soledad","name_en":"Soledad","iso":"CO"},"geometry":{"type":"Point","coordinates":[-74.76459,10.91843]}},{"type":"Feature","properties":{"country_en":"Colombia","name":"Urrao","name_adm0":"Colombia","name_adm1":"Antioquia","name_adm2":"Urrao","name_en":"Urrao","iso":"CO"},"geometry":{"type":"Point","coordinates":[-76.1342,6.3152]}},{"type":"Feature","properties":{"country_en":"Colombia","name":"La Dorada","name_adm0":"Colombia","name_adm1":"Caldas","name_adm2":"La Dorada","name_en":"La Dorada","iso":"CO"},"geometry":{"type":"Point","coordinates":[-74.66311,5.44783]}},{"type":"Feature","properties":{"country_en":"Colombia","name":"Guaduas","name_adm0":"Colombia","name_adm1":"Cundinamarca","name_adm2":"Guaduas","name_en":"Guaduas","iso":"CO"},"geometry":{"type":"Point","coordinates":[-74.59499,5.06692]}},{"type":"Feature","properties":{"country_en":"Colombia","name":"Machetá","name_adm0":"Colombia","name_adm1":"Cundinamarca","name_adm2":"Macheta","name_en":"Machetá","iso":"CO"},"geometry":{"type":"Point","coordinates":[-73.60760999999998,5.08154]}},{"type":"Feature","properties":{"country_en":"Colombia","name":"Jericó","name_adm0":"Colombia","name_adm1":"Antioquia","name_adm2":"Jerico","name_en":"Jericó","iso":"CO"},"geometry":{"type":"Point","coordinates":[-75.78601,5.79211]}},{"type":"Feature","properties":{"country_en":"Colombia","name":"Jardín","name_adm0":"Colombia","name_adm1":"Antioquia","name_adm2":"Jardin","name_en":"Jardin","iso":"CO"},"geometry":{"type":"Point","coordinates":[-75.81976,5.59902]}},{"type":"Feature","properties":{"country_en":"Colombia","name":"La Merced","name_adm0":"Colombia","name_adm1":"Distrito Especial","name_adm2":"Santafe de Bogota D.c.","name_en":"La Merced","iso":"CO"},"geometry":{"type":"Point","coordinates":[-74.06922,4.6213]}},{"type":"Feature","properties":{"country_en":"Colombia","name":"San Bernardo","name_adm0":"Colombia","name_adm1":"Distrito Especial","name_adm2":"Santafe de Bogota D.c.","name_en":"San Bernardo","iso":"CO"},"geometry":{"type":"Point","coordinates":[-74.10054999999998,4.636119999999999]}},{"type":"Feature","properties":{"country_en":"Colombia","name":"Otra Banda","name_adm0":"Colombia","name_adm1":"Antioquia","name_adm2":"Medellin","name_en":"Otra Banda","iso":"CO"},"geometry":{"type":"Point","coordinates":[-75.5852,6.26718]}},{"type":"Feature","properties":{"country_en":"Colombia","name":"Pescador","name_adm0":"Colombia","name_adm1":"Cauca","name_adm2":"Piendamo","name_en":"Pescador","iso":"CO"},"geometry":{"type":"Point","coordinates":[-76.55337999999999,2.8007]}},{"type":"Feature","properties":{"country_en":"Colombia","name":"Tota","name_adm0":"Colombia","name_adm1":"Boyaca","name_adm2":"Tota","name_en":"Tota","iso":"CO"},"geometry":{"type":"Point","coordinates":[-72.98757,5.55833]}},{"type":"Feature","properties":{"country_en":"Colombia","name":"Manrique","name_adm0":"Colombia","name_adm1":"Antioquia","name_adm2":"Medellin","name_en":"Manrique","iso":"CO"},"geometry":{"type":"Point","coordinates":[-75.56732,6.26713]}},{"type":"Feature","properties":{"country_en":"Colombia","name":"San Fernando","name_adm0":"Colombia","name_adm1":"Valle del Cauca","name_adm2":"Cali","name_en":"San Fernando","iso":"CO"},"geometry":{"type":"Point","coordinates":[-76.35722,3.69222]}},{"type":"Feature","properties":{"country_en":"Colombia","name":"Villa Hermosa","name_adm0":"Colombia","name_adm1":"Antioquia","name_adm2":"Medellin","name_en":"Villa Hermosa","iso":"CO"},"geometry":{"type":"Point","coordinates":[-75.5497,6.25726]}},{"type":"Feature","properties":{"country_en":"Colombia","name":"Viterbo","name_adm0":"Colombia","name_adm1":"Caldas","name_adm2":"Viterbo","name_en":"Viterbo","iso":"CO"},"geometry":{"type":"Point","coordinates":[-75.87159,5.06242]}},{"type":"Feature","properties":{"country_en":"Colombia","name":"Tuta","name_adm0":"Colombia","name_adm1":"Boyaca","name_adm2":"Tuta","name_en":"Tuta","iso":"CO"},"geometry":{"type":"Point","coordinates":[-73.22779,5.68966]}},{"type":"Feature","properties":{"country_en":"Colombia","name":"Tibaná","name_adm0":"Colombia","name_adm1":"Boyaca","name_adm2":"Tibana","name_en":"Tibaná","iso":"CO"},"geometry":{"type":"Point","coordinates":[-73.39655,5.31728]}},{"type":"Feature","properties":{"country_en":"Colombia","name":"Susa","name_adm0":"Colombia","name_adm1":"Cundinamarca","name_adm2":"Susa","name_en":"Susa","iso":"CO"},"geometry":{"type":"Point","coordinates":[-73.81436,5.4519]}},{"type":"Feature","properties":{"country_en":"Colombia","name":"Oiba","name_adm0":"Colombia","name_adm1":"Santander","name_adm2":"Oiba","name_en":"Oiba","iso":"CO"},"geometry":{"type":"Point","coordinates":[-73.29876,6.26388]}},{"type":"Feature","properties":{"country_en":"Colombia","name":"Tarqui","name_adm0":"Colombia","name_adm1":"Huila","name_adm2":"Tarqui","name_en":"Tarqui","iso":"CO"},"geometry":{"type":"Point","coordinates":[-75.91667,2.16667]}},{"type":"Feature","properties":{"country_en":"Colombia","name":"Guapota","name_adm0":"Colombia","name_adm1":"Santander","name_adm2":"Guapota","name_en":"Guapota","iso":"CO"},"geometry":{"type":"Point","coordinates":[-73.24999999999999,6.38333]}},{"type":"Feature","properties":{"country_en":"Colombia","name":"Arroyo de Piedra","name_adm0":"Colombia","name_adm1":"Atlantico","name_adm2":"Piojo","name_en":"Arroyo de Piedra","iso":"CO"},"geometry":{"type":"Point","coordinates":[-75.10447,10.62947]}},{"type":"Feature","properties":{"country_en":"Colombia","name":"Puerto Carreno","name_adm0":"Colombia","name_adm1":"Vichada","name_adm2":"Puerto Carreno","name_en":"Puerto Carreno","iso":"CO"},"geometry":{"type":"Point","coordinates":[-68.163814,6.068096999999999]}},{"type":"Feature","properties":{"country_en":"Colombia","name":"Confines","name_adm0":"Colombia","name_adm1":"Santander","name_adm2":"Confines","name_en":"Confines","iso":"CO"},"geometry":{"type":"Point","coordinates":[-73.24396,6.363599999999999]}},{"type":"Feature","properties":{"country_en":"Colombia","name":"Damasco","name_adm0":"Colombia","name_adm1":"Antioquia","name_adm2":"Santa Barbara","name_en":"Damasco","iso":"CO"},"geometry":{"type":"Point","coordinates":[-75.57411,5.79447]}},{"type":"Feature","properties":{"country_en":"Colombia","name":"Diamante","name_adm0":"Colombia","name_adm1":"Tolima","name_adm2":"Purificacion","name_en":"Diamante","iso":"CO"},"geometry":{"type":"Point","coordinates":[-74.8928,4.237]}},{"type":"Feature","properties":{"country_en":"Colombia","name":"La Donjuana","name_adm0":"Colombia","name_adm1":"Norte de Santander","name_adm2":"Bochalema","name_en":"La Donjuana","iso":"CO"},"geometry":{"type":"Point","coordinates":[-72.6075,7.6911700000000005]}},{"type":"Feature","properties":{"country_en":"Colombia","name":"La Encarnación","name_adm0":"Colombia","name_adm1":"Antioquia","name_adm2":"Urrao","name_en":"La Encarnación","iso":"CO"},"geometry":{"type":"Point","coordinates":[-76.20603,6.44071]}},{"type":"Feature","properties":{"country_en":"Colombia","name":"Tibiritá","name_adm0":"Colombia","name_adm1":"Cundinamarca","name_adm2":"Tibirita","name_en":"Tibiritá","iso":"CO"},"geometry":{"type":"Point","coordinates":[-73.50458,5.052269999999999]}},{"type":"Feature","properties":{"country_en":"Colombia","name":"Tierradentro","name_adm0":"Colombia","name_adm1":"Tolima","name_adm2":"Libano","name_en":"Tierradentro","iso":"CO"},"geometry":{"type":"Point","coordinates":[-75.00315999999998,4.871499999999999]}},{"type":"Feature","properties":{"country_en":"Colombia","name":"Timba","name_adm0":"Colombia","name_adm1":"Cauca","name_adm2":"Buenos Aires","name_en":"Timba","iso":"CO"},"geometry":{"type":"Point","coordinates":[-76.62621,3.11414]}},{"type":"Feature","properties":{"country_en":"Colombia","name":"Togüí","name_adm0":"Colombia","name_adm1":"Boyaca","name_adm2":"Togui","name_en":"Togüí","iso":"CO"},"geometry":{"type":"Point","coordinates":[-73.51667,5.39056]}},{"type":"Feature","properties":{"country_en":"Colombia","name":"Unguia","name_adm0":"Colombia","name_adm1":"Choco","name_adm2":"Unguia","name_en":"Unguia","iso":"CO"},"geometry":{"type":"Point","coordinates":[-77.097072,8.046991]}},{"type":"Feature","properties":{"country_en":"Colombia","name":"Agua de Dios","name_adm0":"Colombia","name_adm1":"Cundinamarca","name_adm2":"Agua de Dios","name_en":"Agua de Dios","iso":"CO"},"geometry":{"type":"Point","coordinates":[-74.66995,4.37648]}},{"type":"Feature","properties":{"country_en":"Colombia","name":"San José de Miranda","name_adm0":"Colombia","name_adm1":"Santander","name_adm2":"San Jose de Miranda","name_en":"San José de Miranda","iso":"CO"},"geometry":{"type":"Point","coordinates":[-72.73344,6.6587]}},{"type":"Feature","properties":{"country_en":"Colombia","name":"Corozal","name_adm0":"Colombia","name_adm1":"Sucre","name_adm2":"Corozal","name_en":"Corozal","iso":"CO"},"geometry":{"type":"Point","coordinates":[-75.29282999999998,9.31505]}},{"type":"Feature","properties":{"country_en":"Colombia","name":"Cartago","name_adm0":"Colombia","name_adm1":"Narino","name_adm2":"San Pedro de Cartago","name_en":"Cartago","iso":"CO"},"geometry":{"type":"Point","coordinates":[-77.1176,1.56305]}},{"type":"Feature","properties":{"country_en":"Colombia","name":"Casuarito","name_adm0":"Colombia","name_adm1":"Vichada","name_adm2":"Puerto Carreno","name_en":"Casuarito","iso":"CO"},"geometry":{"type":"Point","coordinates":[-67.64082999999998,5.68194]}},{"type":"Feature","properties":{"country_en":"Colombia","name":"Córdoba","name_adm0":"Colombia","name_adm1":"Narino","name_adm2":"Cordoba","name_en":"Córdoba","iso":"CO"},"geometry":{"type":"Point","coordinates":[-74.61733,8.79776]}},{"type":"Feature","properties":{"country_en":"Colombia","name":"Covarachía","name_adm0":"Colombia","name_adm1":"Boyaca","name_adm2":"Covarachia","name_en":"Covarachía","iso":"CO"},"geometry":{"type":"Point","coordinates":[-72.7331,6.50563]}},{"type":"Feature","properties":{"country_en":"Colombia","name":"San José de Isnos","name_adm0":"Colombia","name_adm1":"Huila","name_adm2":"Isnos","name_en":"San José de Isnos","iso":"CO"},"geometry":{"type":"Point","coordinates":[-76.21103999999998,1.92874]}},{"type":"Feature","properties":{"country_en":"Colombia","name":"Valparaíso","name_adm0":"Colombia","name_adm1":"Antioquia","name_adm2":"Valparaiso","name_en":"Valparaíso","iso":"CO"},"geometry":{"type":"Point","coordinates":[-75.62422,5.615]}},{"type":"Feature","properties":{"country_en":"Colombia","name":"Valle de San José","name_adm0":"Colombia","name_adm1":"Santander","name_adm2":"Valle de San Jose","name_en":"Valle de San José","iso":"CO"},"geometry":{"type":"Point","coordinates":[-73.14361,6.4475]}},{"type":"Feature","properties":{"country_en":"Colombia","name":"San Pablo de Borbur","name_adm0":"Colombia","name_adm1":"Boyaca","name_adm2":"San Pablo de Borbur","name_en":"San Pablo de Borbur","iso":"CO"},"geometry":{"type":"Point","coordinates":[-74.06212,5.66034]}},{"type":"Feature","properties":{"country_en":"Colombia","name":"San Lorenzo","name_adm0":"Colombia","name_adm1":"Narino","name_adm2":"San Lorenzo","name_en":"San Lorenzo","iso":"CO"},"geometry":{"type":"Point","coordinates":[-77.21898,1.50628]}},{"type":"Feature","properties":{"country_en":"Colombia","name":"Mongua","name_adm0":"Colombia","name_adm1":"Boyaca","name_adm2":"Mongua","name_en":"Mongua","iso":"CO"},"geometry":{"type":"Point","coordinates":[-72.80339,5.75084]}},{"type":"Feature","properties":{"country_en":"Colombia","name":"Marulanda","name_adm0":"Colombia","name_adm1":"Caldas","name_adm2":"Marulanda","name_en":"Marulanda","iso":"CO"},"geometry":{"type":"Point","coordinates":[-75.26015999999998,5.283929999999999]}},{"type":"Feature","properties":{"country_en":"Colombia","name":"Carrizal","name_adm0":"Colombia","name_adm1":"La Guajira","name_adm2":"Uribia","name_en":"Carrizal","iso":"CO"},"geometry":{"type":"Point","coordinates":[-72.17939,12.00942]}},{"type":"Feature","properties":{"country_en":"Colombia","name":"Carolina","name_adm0":"Colombia","name_adm1":"Cordoba","name_adm2":"Planeta Rica","name_en":"Carolina","iso":"CO"},"geometry":{"type":"Point","coordinates":[-75.61778,8.51194]}},{"type":"Feature","properties":{"country_en":"Colombia","name":"La Balsa","name_adm0":"Colombia","name_adm1":"Cauca","name_adm2":"Santander de Quilichao","name_en":"La Balsa","iso":"CO"},"geometry":{"type":"Point","coordinates":[-76.60127,3.088]}},{"type":"Feature","properties":{"country_en":"Colombia","name":"Puerto Nariño","name_adm0":"Colombia","name_adm1":"Vichada","name_adm2":"Santa Rita","name_en":"Puerto Nariño","iso":"CO"},"geometry":{"type":"Point","coordinates":[-67.83304,4.95558]}},{"type":"Feature","properties":{"country_en":"Colombia","name":"Puerto Chimaré","name_adm0":"Colombia","name_adm1":"La Guajira","name_adm2":"Uribia","name_en":"Puerto Chimaré","iso":"CO"},"geometry":{"type":"Point","coordinates":[-71.41667,12.38333]}},{"type":"Feature","properties":{"country_en":"Colombia","name":"Malagana","name_adm0":"Colombia","name_adm1":"Bolivar","name_adm2":"Mahates","name_en":"Malagana","iso":"CO"},"geometry":{"type":"Point","coordinates":[-75.22708,10.139719999999999]}},{"type":"Feature","properties":{"country_en":"Colombia","name":"San José del Palmar","name_adm0":"Colombia","name_adm1":"Choco","name_adm2":"San Jose del Palmar","name_en":"San José del Palmar","iso":"CO"},"geometry":{"type":"Point","coordinates":[-76.22833,4.97417]}},{"type":"Feature","properties":{"country_en":"Colombia","name":"Suárez","name_adm0":"Colombia","name_adm1":"Tolima","name_adm2":"Suarez","name_en":"Suárez","iso":"CO"},"geometry":{"type":"Point","coordinates":[-74.83198,4.04906]}},{"type":"Feature","properties":{"country_en":"Colombia","name":"Suárez","name_adm0":"Colombia","name_adm1":"Cauca","name_adm2":"Suárez","name_en":"Suárez","iso":"CO"},"geometry":{"type":"Point","coordinates":[-76.69643999999998,2.95395]}},{"type":"Feature","properties":{"country_en":"Colombia","name":"Mompós","name_adm0":"Colombia","name_adm1":"Bolivar","name_adm2":"Mompos","name_en":"Mompós","iso":"CO"},"geometry":{"type":"Point","coordinates":[-74.42667,9.24194]}},{"type":"Feature","properties":{"country_en":"Colombia","name":"Amazonas","name_adm0":"Colombia","name_adm1":"Amazonas","name_en":"Amazonas","iso":"CO"},"geometry":{"type":"Point","coordinates":[-71.93832999999998,-1.01972]}},{"type":"Feature","properties":{"country_en":"Colombia","name":"Puerto Triunfo","name_adm0":"Colombia","name_adm1":"Antioquia","name_adm2":"Puerto Triunfo","name_en":"Puerto Triunfo","iso":"CO"},"geometry":{"type":"Point","coordinates":[-74.790287,5.9288]}},{"type":"Feature","properties":{"country_en":"Colombia","name":"Leticia","name_adm0":"Colombia","name_adm1":"Amazonas","name_adm2":"Leticia","name_en":"Leticia","iso":"CO"},"geometry":{"type":"Point","coordinates":[-70.0708,-4.004685]}},{"type":"Feature","properties":{"country_en":"Colombia","name":"Puerto Nariño","name_adm0":"Colombia","name_adm1":"Amazonas","name_adm2":"Puerto Nariño","name_en":"Puerto Nariño","iso":"CO"},"geometry":{"type":"Point","coordinates":[-70.331726,-3.798483]}},{"type":"Feature","properties":{"country_en":"Colombia","name":"Guatavita","name_adm0":"Colombia","name_adm1":"Cundinamarca","name_adm2":"Guatavita","name_en":"Guatavita","iso":"CO"},"geometry":{"type":"Point","coordinates":[-73.75,4.96667]}},{"type":"Feature","properties":{"country_en":"Colombia","name":"San Zenon","name_adm0":"Colombia","name_adm1":"Magdalena","name_adm2":"San Zenon","name_en":"San Zenon","iso":"CO"},"geometry":{"type":"Point","coordinates":[-74.3,9.33333]}},{"type":"Feature","properties":{"country_en":"Colombia","name":"Armenia","name_adm0":"Colombia","name_adm1":"Quindio","name_adm2":"Armenia","name_en":"Armenia","iso":"CO"},"geometry":{"type":"Point","coordinates":[-75.70438,4.53307]}},{"type":"Feature","properties":{"country_en":"Colombia","name":"Cundinamarca","name_adm0":"Colombia","name_adm1":"Cundinamarca","name_en":"Cundinamarca","iso":"CO"},"geometry":{"type":"Point","coordinates":[-74.16667,4.999999999999999]}},{"type":"Feature","properties":{"country_en":"Colombia","name":"Aquitania","name_adm0":"Colombia","name_adm1":"Boyaca","name_adm2":"Aquitania","name_en":"Aquitania","iso":"CO"},"geometry":{"type":"Point","coordinates":[-72.83333,5.58333]}},{"type":"Feature","properties":{"country_en":"Colombia","name":"Riosucio","name_adm0":"Colombia","name_adm1":"Caldas","name_adm2":"Riosucio","name_en":"Riosucio","iso":"CO"},"geometry":{"type":"Point","coordinates":[-75.75,5.45]}},{"type":"Feature","properties":{"country_en":"Colombia","name":"San Antero","name_adm0":"Colombia","name_adm1":"Cordoba","name_adm2":"San Antero","name_en":"San Antero","iso":"CO"},"geometry":{"type":"Point","coordinates":[-75.75,9.35]}},{"type":"Feature","properties":{"country_en":"Colombia","name":"San Andrés","name_adm0":"Colombia","name_adm1":"San Andres y Providencia","name_adm2":"San Andrés","name_en":"San Andrés","iso":"CO"},"geometry":{"type":"Point","coordinates":[-81.3943,13.326563]}},{"type":"Feature","properties":{"country_en":"Colombia","name":"Dibulla","name_adm0":"Colombia","name_adm1":"La Guajira","name_adm2":"Dibulla","name_en":"Dibulla","iso":"CO"},"geometry":{"type":"Point","coordinates":[-73.448925,11.062937]}},{"type":"Feature","properties":{"country_en":"Colombia","name":"Barranco Mina","name_adm0":"Colombia","name_adm1":"Guainia","name_adm2":"Barranco Mina","name_en":"Barranco Mina","iso":"CO"},"geometry":{"type":"Point","coordinates":[-67.7379225,2.7235794999999996]}},{"type":"Feature","properties":{"country_en":"Colombia","name":"Zaragoza","name_adm0":"Colombia","name_adm1":"Antioquia","name_adm2":"Zaragoza","name_en":"Zaragoza","iso":"CO"},"geometry":{"type":"Point","coordinates":[-74.86919,7.48971]}},{"type":"Feature","properties":{"country_en":"Colombia","name":"Vijes","name_adm0":"Colombia","name_adm1":"Valle del Cauca","name_adm2":"Vijes","name_en":"Vijes","iso":"CO"},"geometry":{"type":"Point","coordinates":[-76.44229999999999,3.6993399999999994]}},{"type":"Feature","properties":{"country_en":"Colombia","name":"Icononzo","name_adm0":"Colombia","name_adm1":"Tolima","name_adm2":"Icononzo","name_en":"Icononzo","iso":"CO"},"geometry":{"type":"Point","coordinates":[-74.53254,4.17698]}},{"type":"Feature","properties":{"country_en":"Colombia","name":"Hobo","name_adm0":"Colombia","name_adm1":"Huila","name_adm2":"Hobo","name_en":"Hobo","iso":"CO"},"geometry":{"type":"Point","coordinates":[-75.44999999999999,2.58333]}},{"type":"Feature","properties":{"country_en":"Colombia","name":"Puebloviejo","name_adm0":"Colombia","name_adm1":"Magdalena","name_adm2":"Pueblo Viejo","name_en":"Puebloviejo","iso":"CO"},"geometry":{"type":"Point","coordinates":[-74.28438,10.99376]}},{"type":"Feature","properties":{"country_en":"Colombia","name":"Barrio de Crespo","name_adm0":"Colombia","name_adm1":"Bolivar","name_adm2":"Cartagena","name_en":"Barrio de Crespo","iso":"CO"},"geometry":{"type":"Point","coordinates":[-75.51888999999998,10.43944]}},{"type":"Feature","properties":{"country_en":"Colombia","name":"Buenos Aires","name_adm0":"Colombia","name_adm1":"Antioquia","name_adm2":"Medellin","name_en":"Buenos Aires","iso":"CO"},"geometry":{"type":"Point","coordinates":[-75.5555,6.23648]}},{"type":"Feature","properties":{"country_en":"Colombia","name":"Buenos Aires","name_adm0":"Colombia","name_adm1":"Valle del Cauca","name_adm2":"Cali","name_en":"Buenos Aires","iso":"CO"},"geometry":{"type":"Point","coordinates":[-76.18389,3.53778]}},{"type":"Feature","properties":{"country_en":"Colombia","name":"Canapote","name_adm0":"Colombia","name_adm1":"Bolivar","name_adm2":"Cartagena","name_en":"Canapote","iso":"CO"},"geometry":{"type":"Point","coordinates":[-75.53333,10.45]}},{"type":"Feature","properties":{"country_en":"Colombia","name":"El Prado","name_adm0":"Colombia","name_adm1":"Atlantico","name_adm2":"Barranquilla","name_en":"El Prado","iso":"CO"},"geometry":{"type":"Point","coordinates":[-74.8,11]}},{"type":"Feature","properties":{"country_en":"Colombia","name":"Anolaima","name_adm0":"Colombia","name_adm1":"Cundinamarca","name_adm2":"Anolaima","name_en":"Anolaima","iso":"CO"},"geometry":{"type":"Point","coordinates":[-74.4995,4.83362]}},{"type":"Feature","properties":{"country_en":"Colombia","name":"Guachaca","name_adm0":"Colombia","name_adm1":"Magdalena","name_adm2":"Santa Marta","name_en":"Guachaca","iso":"CO"},"geometry":{"type":"Point","coordinates":[-73.84082,11.253009999999998]}},{"type":"Feature","properties":{"country_en":"Colombia","name":"Nimaima","name_adm0":"Colombia","name_adm1":"Cundinamarca","name_adm2":"Nimaima","name_en":"Nimaima","iso":"CO"},"geometry":{"type":"Point","coordinates":[-74.38494,5.12614]}},{"type":"Feature","properties":{"country_en":"Colombia","name":"Panqueba","name_adm0":"Colombia","name_adm1":"Boyaca","name_adm2":"Panqueba","name_en":"Panqueba","iso":"CO"},"geometry":{"type":"Point","coordinates":[-72.45881999999999,6.44255]}},{"type":"Feature","properties":{"country_en":"Colombia","name":"Potosí","name_adm0":"Colombia","name_adm1":"Narino","name_adm2":"Potosi","name_en":"Potosí","iso":"CO"},"geometry":{"type":"Point","coordinates":[-77.57216,0.80739]}},{"type":"Feature","properties":{"country_en":"Colombia","name":"Marmato","name_adm0":"Colombia","name_adm1":"Caldas","name_adm2":"Marmato","name_en":"Marmato","iso":"CO"},"geometry":{"type":"Point","coordinates":[-75.59267,5.47843]}},{"type":"Feature","properties":{"country_en":"Colombia","name":"El Rosal","name_adm0":"Colombia","name_adm1":"Cundinamarca","name_adm2":"El Rosal","name_en":"El Rosal","iso":"CO"},"geometry":{"type":"Point","coordinates":[-74.25996,4.85314]}},{"type":"Feature","properties":{"country_en":"Colombia","name":"Santa Ana","name_adm0":"Colombia","name_adm1":"Magdalena","name_adm2":"Sitio Nuevo","name_en":"Santa Ana","iso":"CO"},"geometry":{"type":"Point","coordinates":[-74.78332999999999,11]}},{"type":"Feature","properties":{"country_en":"Colombia","name":"Silvania","name_adm0":"Colombia","name_adm1":"Cundinamarca","name_adm2":"Silvania","name_en":"Silvania","iso":"CO"},"geometry":{"type":"Point","coordinates":[-74.3867,4.403669999999999]}},{"type":"Feature","properties":{"country_en":"Colombia","name":"Ricaurte","name_adm0":"Colombia","name_adm1":"Cundinamarca","name_adm2":"Ricaurte","name_en":"Ricaurte","iso":"CO"},"geometry":{"type":"Point","coordinates":[-74.76469,4.28075]}},{"type":"Feature","properties":{"country_en":"Colombia","name":"Caucasia","name_adm0":"Colombia","name_adm1":"Antioquia","name_adm2":"Caucasia","name_en":"Caucasia","iso":"CO"},"geometry":{"type":"Point","coordinates":[-75.19349,7.986539999999999]}},{"type":"Feature","properties":{"country_en":"Colombia","name":"San Martín","name_adm0":"Colombia","name_adm1":"Meta","name_adm2":"San Martin","name_en":"San Martín","iso":"CO"},"geometry":{"type":"Point","coordinates":[-73.69958,3.6963699999999995]}},{"type":"Feature","properties":{"country_en":"Colombia","name":"La Mesa","name_adm0":"Colombia","name_adm1":"Cundinamarca","name_adm2":"La Mesa","name_en":"La Mesa","iso":"CO"},"geometry":{"type":"Point","coordinates":[-74.61667,4.999999999999999]}},{"type":"Feature","properties":{"country_en":"Colombia","name":"El Rodadeio","name_adm0":"Colombia","name_adm1":"Magdalena","name_adm2":"Santa Marta","name_en":"El Rodadeio","iso":"CO"},"geometry":{"type":"Point","coordinates":[-74.9,10.73333]}},{"type":"Feature","properties":{"country_en":"Colombia","name":"Puerto Colombia","name_adm0":"Colombia","name_adm1":"Atlantico","name_adm2":"Puerto Colombia","name_en":"Puerto Colombia","iso":"CO"},"geometry":{"type":"Point","coordinates":[-74.95472,10.98778]}},{"type":"Feature","properties":{"country_en":"Colombia","name":"Güepsa","name_adm0":"Colombia","name_adm1":"Santander","name_adm2":"Guepsa","name_en":"Güepsa","iso":"CO"},"geometry":{"type":"Point","coordinates":[-73.57313,6.02505]}},{"type":"Feature","properties":{"country_en":"Colombia","name":"Lucero","name_adm0":"Colombia","name_adm1":"Atlantico","name_adm2":"Barranquilla","name_en":"Lucero","iso":"CO"},"geometry":{"type":"Point","coordinates":[-74.8,10.98333]}},{"type":"Feature","properties":{"country_en":"Colombia","name":"San Martin","name_adm0":"Colombia","name_adm1":"Meta","name_adm2":"San Martin","name_en":"San Martin","iso":"CO"},"geometry":{"type":"Point","coordinates":[-73.7,3.7]}},{"type":"Feature","properties":{"country_en":"Colombia","name":"Curiti","name_adm0":"Colombia","name_adm1":"Santander","name_adm2":"Curiti","name_en":"Curiti","iso":"CO"},"geometry":{"type":"Point","coordinates":[-73,6.66667]}},{"type":"Feature","properties":{"country_en":"Colombia","name":"Lebrija","name_adm0":"Colombia","name_adm1":"Santander","name_adm2":"Lebrija","name_en":"Lebrija","iso":"CO"},"geometry":{"type":"Point","coordinates":[-73.41667,7.41667]}},{"type":"Feature","properties":{"country_en":"Colombia","name":"Charala","name_adm0":"Colombia","name_adm1":"Santander","name_adm2":"Charala","name_en":"Charala","iso":"CO"},"geometry":{"type":"Point","coordinates":[-73.08333,6.25]}},{"type":"Feature","properties":{"country_en":"Colombia","name":"San Jose del Guaviare","name_adm0":"Colombia","name_adm1":"Guavaire","name_adm2":"San Jose del Guaviare","name_en":"San Jose del Guaviare","iso":"CO"},"geometry":{"type":"Point","coordinates":[-72.68486,2.4848769999999996]}},{"type":"Feature","properties":{"country_en":"Colombia","name":"Briceño","name_adm0":"Colombia","name_adm1":"Boyaca","name_adm2":"Briceño","name_en":"Briceño","iso":"CO"},"geometry":{"type":"Point","coordinates":[-73.83333,5.749999999999999]}},{"type":"Feature","properties":{"country_en":"Colombia","name":"Buenavista","name_adm0":"Colombia","name_adm1":"Boyaca","name_adm2":"Buenavista","name_en":"Buenavista","iso":"CO"},"geometry":{"type":"Point","coordinates":[-73.96667,5.5]}},{"type":"Feature","properties":{"country_en":"Colombia","name":"San Mateo","name_adm0":"Colombia","name_adm1":"Boyaca","name_adm2":"San Mateo","name_en":"San Mateo","iso":"CO"},"geometry":{"type":"Point","coordinates":[-72.5,6.5]}},{"type":"Feature","properties":{"country_en":"Colombia","name":"Sativanorte","name_adm0":"Colombia","name_adm1":"Boyaca","name_adm2":"Sativanorte","name_en":"Sativanorte","iso":"CO"},"geometry":{"type":"Point","coordinates":[-72.66667,6.166669999999999]}},{"type":"Feature","properties":{"country_en":"Colombia","name":"Argelia","name_adm0":"Colombia","name_adm1":"Cauca","name_adm2":"Argelia","name_en":"Argelia","iso":"CO"},"geometry":{"type":"Point","coordinates":[-77.25,2.26667]}},{"type":"Feature","properties":{"country_en":"Colombia","name":"Jambalo","name_adm0":"Colombia","name_adm1":"Cauca","name_adm2":"Jambalo","name_en":"Jambalo","iso":"CO"},"geometry":{"type":"Point","coordinates":[-76.31667,2.85]}},{"type":"Feature","properties":{"country_en":"Colombia","name":"Lopez","name_adm0":"Colombia","name_adm1":"Cauca","name_adm2":"Lopez","name_en":"Lopez","iso":"CO"},"geometry":{"type":"Point","coordinates":[-77.25,3]}},{"type":"Feature","properties":{"country_en":"Colombia","name":"El Penon","name_adm0":"Colombia","name_adm1":"Cundinamarca","name_adm2":"El Penon","name_en":"El Penon","iso":"CO"},"geometry":{"type":"Point","coordinates":[-74.33333,5.333329999999999]}},{"type":"Feature","properties":{"country_en":"Colombia","name":"Fosca","name_adm0":"Colombia","name_adm1":"Cundinamarca","name_adm2":"Fosca","name_en":"Fosca","iso":"CO"},"geometry":{"type":"Point","coordinates":[-73.91667,4.33333]}},{"type":"Feature","properties":{"country_en":"Colombia","name":"Gama","name_adm0":"Colombia","name_adm1":"Cundinamarca","name_adm2":"Gama","name_en":"Gama","iso":"CO"},"geometry":{"type":"Point","coordinates":[-73.6,4.75]}},{"type":"Feature","properties":{"country_en":"Colombia","name":"Guacheta","name_adm0":"Colombia","name_adm1":"Cundinamarca","name_adm2":"Guacheta","name_en":"Guacheta","iso":"CO"},"geometry":{"type":"Point","coordinates":[-73.7,5.416669999999999]}},{"type":"Feature","properties":{"country_en":"Colombia","name":"Guataqui","name_adm0":"Colombia","name_adm1":"Cundinamarca","name_adm2":"Guataqui","name_en":"Guataqui","iso":"CO"},"geometry":{"type":"Point","coordinates":[-74.8,4.58333]}},{"type":"Feature","properties":{"country_en":"Colombia","name":"Genova","name_adm0":"Colombia","name_adm1":"Narino","name_adm2":"Genova","name_en":"Genova","iso":"CO"},"geometry":{"type":"Point","coordinates":[-77,1.58333]}},{"type":"Feature","properties":{"country_en":"Colombia","name":"Puerres","name_adm0":"Colombia","name_adm1":"Narino","name_adm2":"Puerres","name_en":"Puerres","iso":"CO"},"geometry":{"type":"Point","coordinates":[-77.25,0.9166699999999999]}},{"type":"Feature","properties":{"country_en":"Colombia","name":"Roberto Payan","name_adm0":"Colombia","name_adm1":"Narino","name_adm2":"Roberto Payan","name_en":"Roberto Payan","iso":"CO"},"geometry":{"type":"Point","coordinates":[-78.33333,1.91667]}},{"type":"Feature","properties":{"country_en":"Colombia","name":"Chitaga","name_adm0":"Colombia","name_adm1":"Norte de Santander","name_adm2":"Chitaga","name_en":"Chitaga","iso":"CO"},"geometry":{"type":"Point","coordinates":[-72.58332999999999,7.16667]}},{"type":"Feature","properties":{"country_en":"Colombia","name":"Convencion","name_adm0":"Colombia","name_adm1":"Norte de Santander","name_adm2":"Convencion","name_en":"Convencion","iso":"CO"},"geometry":{"type":"Point","coordinates":[-73.2,8.83333]}},{"type":"Feature","properties":{"country_en":"Colombia","name":"Cucutilla","name_adm0":"Colombia","name_adm1":"Norte de Santander","name_adm2":"Cucutilla","name_en":"Cucutilla","iso":"CO"},"geometry":{"type":"Point","coordinates":[-72.75,7.499999999999999]}},{"type":"Feature","properties":{"country_en":"Colombia","name":"Chima","name_adm0":"Colombia","name_adm1":"Santander","name_adm2":"Chima","name_en":"Chima","iso":"CO"},"geometry":{"type":"Point","coordinates":[-73.33333,6.41667]}},{"type":"Feature","properties":{"country_en":"Colombia","name":"Concepcion","name_adm0":"Colombia","name_adm1":"Santander","name_adm2":"Concepcion","name_en":"Concepcion","iso":"CO"},"geometry":{"type":"Point","coordinates":[-72.5,6.91667]}},{"type":"Feature","properties":{"country_en":"Colombia","name":"Arboleda","name_adm0":"Colombia","name_adm1":"Narino","name_adm2":"Arboleda","name_en":"Arboleda","iso":"CO"},"geometry":{"type":"Point","coordinates":[-77.13587,1.49766]}},{"type":"Feature","properties":{"country_en":"Colombia","name":"Carepa","name_adm0":"Colombia","name_adm1":"Antioquia","name_adm2":"Carepa","name_en":"Carepa","iso":"CO"},"geometry":{"type":"Point","coordinates":[-76.65254,7.75849]}},{"type":"Feature","properties":{"country_en":"Colombia","name":"Puerto Guzman","name_adm0":"Colombia","name_adm1":"Putumayo","name_adm2":"Puerto Guzman","name_en":"Puerto Guzman","iso":"CO"},"geometry":{"type":"Point","coordinates":[-76.58583,0.9702799999999999]}},{"type":"Feature","properties":{"country_en":"Colombia","name":"Sacama","name_adm0":"Colombia","name_adm1":"Casanare","name_adm2":"Sacama","name_en":"Sacama","iso":"CO"},"geometry":{"type":"Point","coordinates":[-72.2125,6.06083]}},{"type":"Feature","properties":{"country_en":"Colombia","name":"Tamara","name_adm0":"Colombia","name_adm1":"Casanare","name_adm2":"Tamara","name_en":"Tamara","iso":"CO"},"geometry":{"type":"Point","coordinates":[-72.21306,5.88972]}},{"type":"Feature","properties":{"country_en":"Colombia","name":"Taraira","name_adm0":"Colombia","name_adm1":"Vaupes","name_adm2":"Taraira","name_en":"Taraira","iso":"CO"},"geometry":{"type":"Point","coordinates":[-69.66694,0.49389]}},{"type":"Feature","properties":{"country_en":"Colombia","name":"Puerto Colombia","name_adm0":"Colombia","name_adm1":"Guainia","name_adm2":"Puerto Colombia","name_en":"Puerto Colombia","iso":"CO"},"geometry":{"type":"Point","coordinates":[-67.56578,2.72206]}},{"type":"Feature","properties":{"country_en":"Colombia","name":"Algarrobo","name_adm0":"Colombia","name_adm1":"Magdalena","name_adm2":"Algarrobo","name_en":"Algarrobo","iso":"CO"},"geometry":{"type":"Point","coordinates":[-74.06158,10.18553]}},{"type":"Feature","properties":{"country_en":"Colombia","name":"San Jeronimo","name_adm0":"Colombia","name_adm1":"Antioquia","name_adm2":"San Jeronimo","name_en":"San Jeronimo","iso":"CO"},"geometry":{"type":"Point","coordinates":[-75.7,6.45]}},{"type":"Feature","properties":{"country_en":"Colombia","name":"Nobsa","name_adm0":"Colombia","name_adm1":"Boyaca","name_adm2":"Nobsa","name_en":"Nobsa","iso":"CO"},"geometry":{"type":"Point","coordinates":[-72.91666999999998,5.83333]}},{"type":"Feature","properties":{"country_en":"Colombia","name":"La Dorada","name_adm0":"Colombia","name_adm1":"Caldas","name_adm2":"La Dorada","name_en":"La Dorada","iso":"CO"},"geometry":{"type":"Point","coordinates":[-74.7,5.53333]}},{"type":"Feature","properties":{"country_en":"Colombia","name":"Ayapel","name_adm0":"Colombia","name_adm1":"Cordoba","name_adm2":"Ayapel","name_en":"Ayapel","iso":"CO"},"geometry":{"type":"Point","coordinates":[-75.25,8.25]}},{"type":"Feature","properties":{"country_en":"Colombia","name":"Cucunuba","name_adm0":"Colombia","name_adm1":"Cundinamarca","name_adm2":"Cucunuba","name_en":"Cucunuba","iso":"CO"},"geometry":{"type":"Point","coordinates":[-73.75,5.25]}},{"type":"Feature","properties":{"country_en":"Colombia","name":"Apulo","name_adm0":"Colombia","name_adm1":"Cundinamarca","name_adm2":"Apulo","name_en":"Apulo","iso":"CO"},"geometry":{"type":"Point","coordinates":[-74.58333,4.58333]}},{"type":"Feature","properties":{"country_en":"Colombia","name":"Silvania","name_adm0":"Colombia","name_adm1":"Cundinamarca","name_adm2":"Silvania","name_en":"Silvania","iso":"CO"},"geometry":{"type":"Point","coordinates":[-74.33333,4.5]}},{"type":"Feature","properties":{"country_en":"Colombia","name":"Potosi","name_adm0":"Colombia","name_adm1":"Narino","name_adm2":"Potosi","name_en":"Potosi","iso":"CO"},"geometry":{"type":"Point","coordinates":[-77.41667,0.75]}},{"type":"Feature","properties":{"country_en":"Colombia","name":"Sasaima","name_adm0":"Colombia","name_adm1":"Cundinamarca","name_adm2":"Sasaima","name_en":"Sasaima","iso":"CO"},"geometry":{"type":"Point","coordinates":[-74.44999999999999,4.999999999999999]}},{"type":"Feature","properties":{"country_en":"Colombia","name":"Chinauta","name_adm0":"Colombia","name_adm1":"Cundinamarca","name_adm2":"Fusagasuga","name_en":"Chinauta","iso":"CO"},"geometry":{"type":"Point","coordinates":[-74.46917,4.30056]}},{"type":"Feature","properties":{"country_en":"Colombia","name":"La Apartada","name_adm0":"Colombia","name_adm1":"Cordoba","name_adm2":"Ayapel","name_en":"La Apartada","iso":"CO"},"geometry":{"type":"Point","coordinates":[-75.16666999999998,7.56667]}},{"type":"Feature","properties":{"country_en":"Colombia","name":"terminal","name_adm0":"Colombia","name_adm1":"Cundinamarca","name_adm2":"Girardot","name_en":"terminal","iso":"CO"},"geometry":{"type":"Point","coordinates":[-75.54999999999998,4.75]}},{"type":"Feature","properties":{"country_en":"Colombia","name":"Pamplonita","name_adm0":"Colombia","name_adm1":"Norte de Santander","name_adm2":"Pamplonita","name_en":"Pamplonita","iso":"CO"},"geometry":{"type":"Point","coordinates":[-72.58332999999999,7.499999999999999]}},{"type":"Feature","properties":{"country_en":"Colombia","name":"Oicata","name_adm0":"Colombia","name_adm1":"Boyaca","name_adm2":"Oicata","name_en":"Oicata","iso":"CO"},"geometry":{"type":"Point","coordinates":[-72.93273899999998,5.714379]}},{"type":"Feature","properties":{"country_en":"Colombia","name":"Cimitarra","name_adm0":"Colombia","name_adm1":"Santander","name_adm2":"Cimitarra","name_en":"Cimitarra","iso":"CO"},"geometry":{"type":"Point","coordinates":[-73.141822,6.825534]}},{"type":"Feature","properties":{"country_en":"Colombia","name":"Orito","name_adm0":"Colombia","name_adm1":"Putumayo","name_adm2":"Orito","name_en":"Orito","iso":"CO"},"geometry":{"type":"Point","coordinates":[-76.574707,0.4792725]}},{"type":"Feature","properties":{"country_en":"Colombia","name":"Guaranda","name_adm0":"Colombia","name_adm1":"Cordoba","name_adm2":"Pueblo Nuevo","name_en":"Guaranda","iso":"CO"},"geometry":{"type":"Point","coordinates":[-75.53833,8.46972]}},{"type":"Feature","properties":{"country_en":"Colombia","name":"Marmato","name_adm0":"Colombia","name_adm1":"Caldas","name_adm2":"Marmato","name_en":"Marmato","iso":"CO"},"geometry":{"type":"Point","coordinates":[-75.58333,5.5]}},{"type":"Feature","properties":{"country_en":"Colombia","name":"Miranda","name_adm0":"Colombia","name_adm1":"Cauca","name_adm2":"Miranda","name_en":"Miranda","iso":"CO"},"geometry":{"type":"Point","coordinates":[-76.25,3.25]}},{"type":"Feature","properties":{"country_en":"Colombia","name":"El Valle","name_adm0":"Colombia","name_adm1":"Choco","name_adm2":"Bahia Solano","name_en":"El Valle","iso":"CO"},"geometry":{"type":"Point","coordinates":[-77.42587,6.10333]}},{"type":"Feature","properties":{"country_en":"Colombia","name":"Esperanza","name_adm0":"Colombia","name_adm1":"Bolivar","name_adm2":"Cartagena","name_en":"Esperanza","iso":"CO"},"geometry":{"type":"Point","coordinates":[-75.51667,10.416669999999998]}},{"type":"Feature","properties":{"country_en":"Colombia","name":"Olaya Herrera","name_adm0":"Colombia","name_adm1":"Bolivar","name_adm2":"Cartagena","name_en":"Olaya Herrera","iso":"CO"},"geometry":{"type":"Point","coordinates":[-75.49139,10.41028]}},{"type":"Feature","properties":{"country_en":"Colombia","name":"La Calera","name_adm0":"Colombia","name_adm1":"Cundinamarca","name_adm2":"La Calera","name_en":"La Calera","iso":"CO"},"geometry":{"type":"Point","coordinates":[-73.91667,4.75]}},{"type":"Feature","properties":{"country_en":"Colombia","name":"Valle del Cauca","name_adm0":"Colombia","name_adm1":"Valle del Cauca","name_en":"Valle del Cauca","iso":"CO"},"geometry":{"type":"Point","coordinates":[-76.5,3.7499999999999996]}},{"type":"Feature","properties":{"country_en":"Colombia","name":"Soraca","name_adm0":"Colombia","name_adm1":"Boyaca","name_adm2":"Soraca","name_en":"Soraca","iso":"CO"},"geometry":{"type":"Point","coordinates":[-73.340606,5.538078]}},{"type":"Feature","properties":{"country_en":"Colombia","name":"Ciudad Jardín","name_adm0":"Colombia","name_adm1":"Distrito Especial","name_adm2":"Santafe de Bogota D.c.","name_en":"Ciudad Jardín","iso":"CO"},"geometry":{"type":"Point","coordinates":[-74.09961,4.583399999999999]}},{"type":"Feature","properties":{"country_en":"Colombia","name":"Obando","name_adm0":"Colombia","name_adm1":"Valle del Cauca","name_adm2":"Palmira","name_en":"Obando","iso":"CO"},"geometry":{"type":"Point","coordinates":[-76.40397,3.57557]}},{"type":"Feature","properties":{"country_en":"Colombia","name":"Obrero","name_adm0":"Colombia","name_adm1":"Valle del Cauca","name_adm2":"Cali","name_en":"Obrero","iso":"CO"},"geometry":{"type":"Point","coordinates":[-76.52036,3.44902]}},{"type":"Feature","properties":{"country_en":"Colombia","name":"Santa Catalina","name_adm0":"Colombia","name_adm1":"Magdalena","name_adm2":"San Zenon","name_en":"Santa Catalina","iso":"CO"},"geometry":{"type":"Point","coordinates":[-74.39999999999999,9.21667]}},{"type":"Feature","properties":{"country_en":"Colombia","name":"Santa Lucía","name_adm0":"Colombia","name_adm1":"Distrito Especial","name_adm2":"Santafe de Bogota D.c.","name_en":"Santa Lucía","iso":"CO"},"geometry":{"type":"Point","coordinates":[-74.13333,4.58333]}},{"type":"Feature","properties":{"country_en":"Colombia","name":"Santa Lucía","name_adm0":"Colombia","name_adm1":"Valle del Cauca","name_adm2":"Cali","name_en":"Santa Lucía","iso":"CO"},"geometry":{"type":"Point","coordinates":[-76.47035,3.4542599999999997]}},{"type":"Feature","properties":{"country_en":"Colombia","name":"Sotomayor","name_adm0":"Colombia","name_adm1":"Santander","name_adm2":"Bucaramanga","name_en":"Sotomayor","iso":"CO"},"geometry":{"type":"Point","coordinates":[-73.11472,7.12083]}},{"type":"Feature","properties":{"country_en":"Colombia","name":"Iza","name_adm0":"Colombia","name_adm1":"Boyaca","name_adm2":"Iza","name_en":"Iza","iso":"CO"},"geometry":{"type":"Point","coordinates":[-72.9793,5.61203]}},{"type":"Feature","properties":{"country_en":"Colombia","name":"Barbosa","name_adm0":"Colombia","name_adm1":"Antioquia","name_adm2":"Barbosa","name_en":"Barbosa","iso":"CO"},"geometry":{"type":"Point","coordinates":[-75.33333,6.45]}},{"type":"Feature","properties":{"country_en":"Colombia","name":"Jerico","name_adm0":"Colombia","name_adm1":"Antioquia","name_adm2":"Jerico","name_en":"Jerico","iso":"CO"},"geometry":{"type":"Point","coordinates":[-75.75,5.749999999999999]}},{"type":"Feature","properties":{"country_en":"Colombia","name":"La Union","name_adm0":"Colombia","name_adm1":"Antioquia","name_adm2":"La Union","name_en":"La Union","iso":"CO"},"geometry":{"type":"Point","coordinates":[-75.33333,5.91667]}},{"type":"Feature","properties":{"country_en":"Colombia","name":"Marinilla","name_adm0":"Colombia","name_adm1":"Antioquia","name_adm2":"Marinilla","name_en":"Marinilla","iso":"CO"},"geometry":{"type":"Point","coordinates":[-75.3,6.2]}},{"type":"Feature","properties":{"country_en":"Colombia","name":"Don Matias","name_adm0":"Colombia","name_adm1":"Antioquia","name_adm2":"Don Matias","name_en":"Don Matias","iso":"CO"},"geometry":{"type":"Point","coordinates":[-75.33333,6.5]}},{"type":"Feature","properties":{"country_en":"Colombia","name":"Montería","name_adm0":"Colombia","name_adm1":"Cordoba","name_adm2":"Monteria","name_en":"Montería","iso":"CO"},"geometry":{"type":"Point","coordinates":[-75.879135,8.763871]}},{"type":"Feature","properties":{"country_en":"Colombia","name":"Neiva","name_adm0":"Colombia","name_adm1":"Huila","name_adm2":"Neiva","name_en":"Neiva","iso":"CO"},"geometry":{"type":"Point","coordinates":[-75.289134,2.934469]}},{"type":"Feature","properties":{"country_en":"Colombia","name":"Pasto","name_adm0":"Colombia","name_adm1":"Narino","name_adm2":"Pasto","name_en":"Pasto","iso":"CO"},"geometry":{"type":"Point","coordinates":[-77.277832,1.2150129999999997]}},{"type":"Feature","properties":{"country_en":"Colombia","name":"Pereira","name_adm0":"Colombia","name_adm1":"Risaralda","name_adm2":"Pereira","name_en":"Pereira","iso":"CO"},"geometry":{"type":"Point","coordinates":[-75.685157,4.812095]}},{"type":"Feature","properties":{"country_en":"Colombia","name":"Peñol","name_adm0":"Colombia","name_adm1":"Antioquia","name_adm2":"Peñol","name_en":"Peñol","iso":"CO"},"geometry":{"type":"Point","coordinates":[-75.24298,6.21829]}},{"type":"Feature","properties":{"country_en":"Colombia","name":"El Bosque","name_adm0":"Colombia","name_adm1":"Bolivar","name_adm2":"Cartagena","name_en":"El Bosque","iso":"CO"},"geometry":{"type":"Point","coordinates":[-75.53333,10.383329999999999]}},{"type":"Feature","properties":{"country_en":"Colombia","name":"El Cabrero","name_adm0":"Colombia","name_adm1":"Bolivar","name_adm2":"Cartagena","name_en":"El Cabrero","iso":"CO"},"geometry":{"type":"Point","coordinates":[-75.54999999999998,10.43333]}},{"type":"Feature","properties":{"country_en":"Colombia","name":"La Chacra","name_adm0":"Colombia","name_adm1":"Valle del Cauca","name_adm2":"Cali","name_en":"La Chacra","iso":"CO"},"geometry":{"type":"Point","coordinates":[-76.54167,3.23222]}},{"type":"Feature","properties":{"country_en":"Colombia","name":"Villa del Rosario","name_adm0":"Colombia","name_adm1":"Norte de Santander","name_adm2":"Villa Rosario","name_en":"Villa del Rosario","iso":"CO"},"geometry":{"type":"Point","coordinates":[-72.47417,7.833890000000001]}},{"type":"Feature","properties":{"country_en":"Colombia","name":"Sesquile","name_adm0":"Colombia","name_adm1":"Cundinamarca","name_adm2":"Sesquile","name_en":"Sesquile","iso":"CO"},"geometry":{"type":"Point","coordinates":[-73.83333,5.08333]}},{"type":"Feature","properties":{"country_en":"Colombia","name":"Sabana de Torres","name_adm0":"Colombia","name_adm1":"Santander","name_adm2":"Sabana de Torres","name_en":"Sabana de Torres","iso":"CO"},"geometry":{"type":"Point","coordinates":[-73.141822,6.825534]}},{"type":"Feature","properties":{"country_en":"Colombia","name":"Villarrica","name_adm0":"Colombia","name_adm1":"Tolima","name_adm2":"Villarrica","name_en":"Villarrica","iso":"CO"},"geometry":{"type":"Point","coordinates":[-74.60036,3.93502]}},{"type":"Feature","properties":{"country_en":"Colombia","name":"Ventaquemada","name_adm0":"Colombia","name_adm1":"Boyaca","name_adm2":"Ventaquemada","name_en":"Ventaquemada","iso":"CO"},"geometry":{"type":"Point","coordinates":[-73.52075,5.36753]}},{"type":"Feature","properties":{"country_en":"Colombia","name":"El Campano","name_adm0":"Colombia","name_adm1":"Magdalena","name_adm2":"Santa Marta","name_en":"El Campano","iso":"CO"},"geometry":{"type":"Point","coordinates":[-74.21066,10.43078]}},{"type":"Feature","properties":{"country_en":"Colombia","name":"Altamira","name_adm0":"Colombia","name_adm1":"Antioquia","name_adm2":"Betulia","name_en":"Altamira","iso":"CO"},"geometry":{"type":"Point","coordinates":[-75.94889,6.21944]}},{"type":"Feature","properties":{"country_en":"Colombia","name":"Paletará","name_adm0":"Colombia","name_adm1":"Huila","name_adm2":"San Agustin","name_en":"Paletará","iso":"CO"},"geometry":{"type":"Point","coordinates":[-76.49639,2.20417]}},{"type":"Feature","properties":{"country_en":"Colombia","name":"Tinajas","name_adm0":"Colombia","name_adm1":"Tolima","name_adm2":"Natagaima","name_en":"Tinajas","iso":"CO"},"geometry":{"type":"Point","coordinates":[-75.06583,3.5227799999999996]}},{"type":"Feature","properties":{"country_en":"Colombia","name":"Tipaná","name_adm0":"Colombia","name_adm1":"Choco","name_adm2":"Unguia","name_en":"Tipaná","iso":"CO"},"geometry":{"type":"Point","coordinates":[-77.09065,8.18753]}},{"type":"Feature","properties":{"country_en":"Colombia","name":"Tibú","name_adm0":"Colombia","name_adm1":"Norte de Santander","name_adm2":"Tibu","name_en":"Tibú","iso":"CO"},