{"type":"FeatureCollection","features":[{"type":"Feature","properties":{"country_en":"Dominican Republic","name":"El Cercado","name_adm0":"República Dominicana","name_adm1":"San Juan","name_en":"El Cercado","iso":"DO"},"geometry":{"type":"Point","coordinates":[-71.51667,18.733329999999995]}},{"type":"Feature","properties":{"country_en":"Dominican Republic","name":"San Juan","name_adm0":"República Dominicana","name_adm1":"San Cristobal","name_en":"San Juan","iso":"DO"},"geometry":{"type":"Point","coordinates":[-70.08333,18.38333]}},{"type":"Feature","properties":{"country_en":"Dominican Republic","name":"San Rafael del Yuma","name_adm0":"República Dominicana","name_adm1":"La Altagracia","name_en":"San Rafael del Yuma","iso":"DO"},"geometry":{"type":"Point","coordinates":[-68.6739,18.42993]}},{"type":"Feature","properties":{"country_en":"Dominican Republic","name":"San Jose de Ocoa","name_adm0":"República Dominicana","name_adm1":"San Jose de Ocoa","name_en":"San Jose de Ocoa","iso":"DO"},"geometry":{"type":"Point","coordinates":[-70.50877,18.54882]}},{"type":"Feature","properties":{"country_en":"Dominican Republic","name":"El Soco","name_adm0":"República Dominicana","name_adm1":"San Pedro de Marcoris","name_en":"El Soco","iso":"DO"},"geometry":{"type":"Point","coordinates":[-69.19156,18.45012]}},{"type":"Feature","properties":{"country_en":"Dominican Republic","name":"Gascue","name_adm0":"República Dominicana","name_adm1":"Distrito Nacional","name_en":"Gascue","iso":"DO"},"geometry":{"type":"Point","coordinates":[-69.90497,18.46603]}},{"type":"Feature","properties":{"country_en":"Dominican Republic","name":"Pepillo Salcedo","name_adm0":"República Dominicana","name_adm1":"Monte Cristri","name_en":"Pepillo Salcedo","iso":"DO"},"geometry":{"type":"Point","coordinates":[-71.74513,19.69841]}},{"type":"Feature","properties":{"country_en":"Dominican Republic","name":"La Barquita de Santa Cruz","name_adm0":"República Dominicana","name_adm1":"Distrito Nacional","name_en":"La Barquita de Santa Cruz","iso":"DO"},"geometry":{"type":"Point","coordinates":[-69.91667,18.5]}},{"type":"Feature","properties":{"country_en":"Dominican Republic","name":"Villa Francisca","name_adm0":"República Dominicana","name_adm1":"Distrito Nacional","name_en":"Villa Francisca","iso":"DO"},"geometry":{"type":"Point","coordinates":[-69.89999999999999,18.466669999999997]}},{"type":"Feature","properties":{"country_en":"Dominican Republic","name":"El Valle","name_adm0":"República Dominicana","name_adm1":"Samana","name_en":"El Valle","iso":"DO"},"geometry":{"type":"Point","coordinates":[-69.33332999999999,19.283329999999996]}},{"type":"Feature","properties":{"country_en":"Dominican Republic","name":"Ensanche la Fe","name_adm0":"República Dominicana","name_adm1":"Distrito Nacional","name_en":"Ensanche la Fe","iso":"DO"},"geometry":{"type":"Point","coordinates":[-69.90715,18.494939999999996]}},{"type":"Feature","properties":{"country_en":"Dominican Republic","name":"Barahona","name_adm0":"República Dominicana","name_adm1":"Barahona","name_en":"Barahona","iso":"DO"},"geometry":{"type":"Point","coordinates":[-71.25,18.16667]}},{"type":"Feature","properties":{"country_en":"Dominican Republic","name":"San Juan","name_adm0":"República Dominicana","name_adm1":"San Juan","name_en":"San Juan","iso":"DO"},"geometry":{"type":"Point","coordinates":[-71.25,18.83333]}},{"type":"Feature","properties":{"country_en":"Dominican Republic","name":"Santiago","name_adm0":"República Dominicana","name_adm1":"Santiago","name_en":"Santiago","iso":"DO"},"geometry":{"type":"Point","coordinates":[-70.88333,19.316669999999995]}},{"type":"Feature","properties":{"country_en":"Dominican Republic","name":"Valverde","name_adm0":"República Dominicana","name_adm1":"Valverde","name_en":"Valverde","iso":"DO"},"geometry":{"type":"Point","coordinates":[-71.05,19.58333]}},{"type":"Feature","properties":{"country_en":"Dominican Republic","name":"El Seibo","name_adm0":"República Dominicana","name_adm1":"El Seibo","name_en":"El Seibo","iso":"DO"},"geometry":{"type":"Point","coordinates":[-69.05,18.8]}},{"type":"Feature","properties":{"country_en":"Dominican Republic","name":"La Esperilla","name_adm0":"República Dominicana","name_adm1":"Distrito Nacional","name_en":"La Esperilla","iso":"DO"},"geometry":{"type":"Point","coordinates":[-69.95292,18.45149]}},{"type":"Feature","properties":{"country_en":"Dominican Republic","name":"El Cabo","name_adm0":"República Dominicana","name_adm1":"La Altagracia","name_en":"El Cabo","iso":"DO"},"geometry":{"type":"Point","coordinates":[-68.45019,18.4088]}},{"type":"Feature","properties":{"country_en":"Dominican Republic","name":"Ensanche Independencia","name_adm0":"República Dominicana","name_adm1":"Distrito Nacional","name_en":"Ensanche Independencia","iso":"DO"},"geometry":{"type":"Point","coordinates":[-69.89999999999999,18.466669999999997]}},{"type":"Feature","properties":{"country_en":"Dominican Republic","name":"Licey al Medio","name_adm0":"República Dominicana","name_adm1":"Espaillat","name_en":"Licey al Medio","iso":"DO"},"geometry":{"type":"Point","coordinates":[-70.6,19.43333]}},{"type":"Feature","properties":{"country_en":"Dominican Republic","name":"El Algodonal","name_adm0":"República Dominicana","name_adm1":"Distrito Nacional","name_en":"El Algodonal","iso":"DO"},"geometry":{"type":"Point","coordinates":[-69.94999999999999,18.433329999999998]}},{"type":"Feature","properties":{"country_en":"Dominican Republic","name":"Ferrand","name_adm0":"República Dominicana","name_adm1":"Distrito Nacional","name_en":"Ferrand","iso":"DO"},"geometry":{"type":"Point","coordinates":[-69.93333,18.45]}},{"type":"Feature","properties":{"country_en":"Dominican Republic","name":"Duarte","name_adm0":"República Dominicana","name_adm1":"Duarte","name_en":"Duarte","iso":"DO"},"geometry":{"type":"Point","coordinates":[-70.08333,19.25]}},{"type":"Feature","properties":{"country_en":"Dominican Republic","name":"Espaillat","name_adm0":"República Dominicana","name_adm1":"Espaillat","name_en":"Espaillat","iso":"DO"},"geometry":{"type":"Point","coordinates":[-70.41667,19.58333]}},{"type":"Feature","properties":{"country_en":"Dominican Republic","name":"Independencia","name_adm0":"República Dominicana","name_adm1":"Independencia","name_en":"Independencia","iso":"DO"},"geometry":{"type":"Point","coordinates":[-71.63333,18.4]}},{"type":"Feature","properties":{"country_en":"Dominican Republic","name":"Pedernales","name_adm0":"República Dominicana","name_adm1":"Pedernales","name_en":"Pedernales","iso":"DO"},"geometry":{"type":"Point","coordinates":[-71.56667,18]}},{"type":"Feature","properties":{"country_en":"Dominican Republic","name":"El Macao","name_adm0":"República Dominicana","name_adm1":"La Altagracia","name_en":"El Macao","iso":"DO"},"geometry":{"type":"Point","coordinates":[-68.54845,18.76739]}},{"type":"Feature","properties":{"country_en":"Dominican Republic","name":"Villa Tapia","name_adm0":"República Dominicana","name_adm1":"Salcedo","name_en":"Villa Tapia","iso":"DO"},"geometry":{"type":"Point","coordinates":[-70.42199,19.30084]}},{"type":"Feature","properties":{"country_en":"Dominican Republic","name":"Ensanche Luperón","name_adm0":"República Dominicana","name_adm1":"Distrito Nacional","name_en":"Ensanche Luperón","iso":"DO"},"geometry":{"type":"Point","coordinates":[-69.89999999999999,18.5]}},{"type":"Feature","properties":{"country_en":"Dominican Republic","name":"Villa Bisonó","name_adm0":"República Dominicana","name_adm1":"Santiago","name_en":"Villa Bisonó","iso":"DO"},"geometry":{"type":"Point","coordinates":[-70.87582,19.56378]}},{"type":"Feature","properties":{"country_en":"Dominican Republic","name":"El Rubio","name_adm0":"República Dominicana","name_adm1":"Santiago","name_en":"El Rubio","iso":"DO"},"geometry":{"type":"Point","coordinates":[-71.06964,19.36966]}},{"type":"Feature","properties":{"country_en":"Dominican Republic","name":"Arroyo Hondo","name_adm0":"República Dominicana","name_adm1":"San Jose de Ocoa","name_en":"Arroyo Hondo","iso":"DO"},"geometry":{"type":"Point","coordinates":[-70.45866,18.54892]}},{"type":"Feature","properties":{"country_en":"Dominican Republic","name":"Capotillo","name_adm0":"República Dominicana","name_adm1":"Distrito Nacional","name_en":"Capotillo","iso":"DO"},"geometry":{"type":"Point","coordinates":[-69.89999999999999,18.5]}},{"type":"Feature","properties":{"country_en":"Dominican Republic","name":"El Algibe","name_adm0":"República Dominicana","name_adm1":"Distrito Nacional","name_en":"El Algibe","iso":"DO"},"geometry":{"type":"Point","coordinates":[-69.89999999999999,18.5]}},{"type":"Feature","properties":{"country_en":"Dominican Republic","name":"El Cachón","name_adm0":"República Dominicana","name_adm1":"Distrito Nacional","name_en":"El Cachón","iso":"DO"},"geometry":{"type":"Point","coordinates":[-69.93333,18.5]}},{"type":"Feature","properties":{"country_en":"Dominican Republic","name":"Ensanche Presidente Espaillat","name_adm0":"República Dominicana","name_adm1":"Distrito Nacional","name_en":"Ensanche Presidente Espaillat","iso":"DO"},"geometry":{"type":"Point","coordinates":[-69.88333,18.5]}},{"type":"Feature","properties":{"country_en":"Dominican Republic","name":"Ensanche Villa Faro","name_adm0":"República Dominicana","name_adm1":"Santo Domingo","name_en":"Ensanche Villa Faro","iso":"DO"},"geometry":{"type":"Point","coordinates":[-69.85,18.5]}},{"type":"Feature","properties":{"country_en":"Dominican Republic","name":"La Guaranas","name_adm0":"República Dominicana","name_adm1":"Duarte","name_en":"La Guaranas","iso":"DO"},"geometry":{"type":"Point","coordinates":[-69.10745,18.66091]}},{"type":"Feature","properties":{"country_en":"Dominican Republic","name":"Pimentel","name_adm0":"República Dominicana","name_adm1":"Duarte","name_en":"Pimentel","iso":"DO"},"geometry":{"type":"Point","coordinates":[-70.10884,19.18416]}},{"type":"Feature","properties":{"country_en":"Dominican Republic","name":"Sánchez Ramirez","name_adm0":"República Dominicana","name_adm1":"Sánchez Ramirez","name_en":"Sánchez Ramirez","iso":"DO"},"geometry":{"type":"Point","coordinates":[-70.14495799999999,19.073799]}},{"type":"Feature","properties":{"country_en":"Dominican Republic","name":"San Pedro de Marcoris","name_adm0":"República Dominicana","name_adm1":"San Pedro de Marcoris","name_en":"San Pedro de Marcoris","iso":"DO"},"geometry":{"type":"Point","coordinates":[-69.430117,18.420702]}},{"type":"Feature","properties":{"country_en":"Dominican Republic","name":"Santo Domingo","name_adm0":"República Dominicana","name_adm1":"Santo Domingo","name_en":"Santo Domingo","iso":"DO"},"geometry":{"type":"Point","coordinates":[-69.91871,18.48042]}},{"type":"Feature","properties":{"country_en":"Dominican Republic","name":"Carlos Guerra","name_adm0":"República Dominicana","name_adm1":"Distrito Nacional","name_en":"Carlos Guerra","iso":"DO"},"geometry":{"type":"Point","coordinates":[-69.93333,18.483329999999995]}},{"type":"Feature","properties":{"country_en":"Dominican Republic","name":"Dajabon","name_adm0":"República Dominicana","name_adm1":"Dajabon","name_en":"Dajabon","iso":"DO"},"geometry":{"type":"Point","coordinates":[-71.58333,19.43333]}},{"type":"Feature","properties":{"country_en":"Dominican Republic","name":"Santiago Rodriguez","name_adm0":"República Dominicana","name_adm1":"Santiago Rodriguez","name_en":"Santiago Rodriguez","iso":"DO"},"geometry":{"type":"Point","coordinates":[-71.33333,19.41667]}},{"type":"Feature","properties":{"country_en":"Dominican Republic","name":"Baní","name_adm0":"República Dominicana","name_adm1":"Peravia","name_en":"Baní","iso":"DO"},"geometry":{"type":"Point","coordinates":[-70.329837,18.28054]}},{"type":"Feature","properties":{"country_en":"Dominican Republic","name":"La piña","name_adm0":"República Dominicana","name_adm1":"San Juan","name_en":"La piña","iso":"DO"},"geometry":{"type":"Point","coordinates":[-71.45311,19.3452]}},{"type":"Feature","properties":{"country_en":"Dominican Republic","name":"Santa Cruz de El Seibo","name_adm0":"República Dominicana","name_adm1":"El Seibo","name_en":"Santa Cruz de El Seibo","iso":"DO"},"geometry":{"type":"Point","coordinates":[-69.038343,18.766554]}},{"type":"Feature","properties":{"country_en":"Dominican Republic","name":"Colonia Agrícola","name_adm0":"República Dominicana","name_adm1":"Distrito Nacional","name_en":"Colonia Agrícola","iso":"DO"},"geometry":{"type":"Point","coordinates":[-69.93333,18.5]}},{"type":"Feature","properties":{"country_en":"Dominican Republic","name":"San Francisco de Macorís","name_adm0":"República Dominicana","name_adm1":"Duarte","name_en":"San Francisco de Macorís","iso":"DO"},"geometry":{"type":"Point","coordinates":[-70.2561,19.2933]}},{"type":"Feature","properties":{"country_en":"Dominican Republic","name":"Simón Bolivar","name_adm0":"República Dominicana","name_adm1":"Distrito Nacional","name_en":"Simón Bolivar","iso":"DO"},"geometry":{"type":"Point","coordinates":[-69.89999999999999,18.5]}},{"type":"Feature","properties":{"country_en":"Dominican Republic","name":"Benemérita de San Cristóbal","name_adm0":"República Dominicana","name_adm1":"San Cristobal","name_en":"Benemerita de S. Cristobal","iso":"DO"},"geometry":{"type":"Point","coordinates":[-70.09999999999998,18.41667]}},{"type":"Feature","properties":{"country_en":"Dominican Republic","name":"Sabana de La Mar","name_adm0":"República Dominicana","name_adm1":"Hato Mayor","name_en":"Sabana de La Mar","iso":"DO"},"geometry":{"type":"Point","coordinates":[-69.38843,19.05934]}},{"type":"Feature","properties":{"country_en":"Dominican Republic","name":"Ensanche Ozama","name_adm0":"República Dominicana","name_adm1":"Santo Domingo","name_en":"Ensanche Ozama","iso":"DO"},"geometry":{"type":"Point","coordinates":[-69.86667,18.483329999999995]}},{"type":"Feature","properties":{"country_en":"Dominican Republic","name":"Maizal","name_adm0":"República Dominicana","name_adm1":"Valverde","name_en":"Maizal","iso":"DO"},"geometry":{"type":"Point","coordinates":[-71.02734,19.63655]}},{"type":"Feature","properties":{"country_en":"Dominican Republic","name":"Jimaní","name_adm0":"República Dominicana","name_adm1":"Independencia","name_en":"Jimaní","iso":"DO"},"geometry":{"type":"Point","coordinates":[-71.85022,18.491689999999995]}},{"type":"Feature","properties":{"country_en":"Dominican Republic","name":"La Romana","name_adm0":"República Dominicana","name_adm1":"Romana","name_en":"La Romana","iso":"DO"},"geometry":{"type":"Point","coordinates":[-68.97285,18.42734]}},{"type":"Feature","properties":{"country_en":"Dominican Republic","name":"Cabral","name_adm0":"República Dominicana","name_adm1":"Barahona","name_en":"Cabral","iso":"DO"},"geometry":{"type":"Point","coordinates":[-71.21667,18.25]}},{"type":"Feature","properties":{"country_en":"Dominican Republic","name":"Nagua","name_adm0":"República Dominicana","name_adm1":"Maria Trinidad Sanchéz","name_en":"Nagua","iso":"DO"},"geometry":{"type":"Point","coordinates":[-69.8474,19.3832]}},{"type":"Feature","properties":{"country_en":"Dominican Republic","name":"San José de Ocoa","name_adm0":"República Dominicana","name_adm1":"San Jose de Ocoa","name_en":"San José de Ocoa","iso":"DO"},"geometry":{"type":"Point","coordinates":[-70.50631,18.54661]}},{"type":"Feature","properties":{"country_en":"Dominican Republic","name":"Sabaneta de Yásica","name_adm0":"República Dominicana","name_adm1":"Puerto Plata","name_en":"Sabaneta de Yásica","iso":"DO"},"geometry":{"type":"Point","coordinates":[-70.37637,19.676409999999997]}},{"type":"Feature","properties":{"country_en":"Dominican Republic","name":"Juan Dolio","name_adm0":"República Dominicana","name_adm1":"San Pedro de Marcoris","name_en":"Juan Dolio","iso":"DO"},"geometry":{"type":"Point","coordinates":[-69.42115,18.43507]}},{"type":"Feature","properties":{"country_en":"Dominican Republic","name":"Duvergé","name_adm0":"República Dominicana","name_adm1":"Independencia","name_en":"Duvergé","iso":"DO"},"geometry":{"type":"Point","coordinates":[-71.52469,18.37839]}},{"type":"Feature","properties":{"country_en":"Dominican Republic","name":"Yayas de Viajama","name_adm0":"República Dominicana","name_adm1":"Azua","name_en":"Yayas de Viajama","iso":"DO"},"geometry":{"type":"Point","coordinates":[-70.92753,18.6071]}},{"type":"Feature","properties":{"country_en":"Dominican Republic","name":"Pedro García","name_adm0":"República Dominicana","name_adm1":"Santiago","name_en":"Pedro García","iso":"DO"},"geometry":{"type":"Point","coordinates":[-70.65256,19.59202]}},{"type":"Feature","properties":{"country_en":"Dominican Republic","name":"Padre Las Casas","name_adm0":"República Dominicana","name_adm1":"Azua","name_en":"Padre Las Casas","iso":"DO"},"geometry":{"type":"Point","coordinates":[-70.93916,18.73172]}},{"type":"Feature","properties":{"country_en":"Dominican Republic","name":"La Vacama","name_adm0":"República Dominicana","name_adm1":"La Altagracia","name_en":"La Vacama","iso":"DO"},"geometry":{"type":"Point","coordinates":[-68.68109,18.86582]}},{"type":"Feature","properties":{"country_en":"Dominican Republic","name":"Hato Mayor del Rey","name_adm0":"República Dominicana","name_adm1":"Hato Mayor","name_en":"Hato Mayor del Rey","iso":"DO"},"geometry":{"type":"Point","coordinates":[-69.25681,18.76278]}},{"type":"Feature","properties":{"country_en":"Dominican Republic","name":"El Peñón","name_adm0":"República Dominicana","name_adm1":"Barahona","name_en":"El Peñón","iso":"DO"},"geometry":{"type":"Point","coordinates":[-71.1841,18.29643]}},{"type":"Feature","properties":{"country_en":"Dominican Republic","name":"El Cuey","name_adm0":"República Dominicana","name_adm1":"El Seibo","name_en":"El Cuey","iso":"DO"},"geometry":{"type":"Point","coordinates":[-68.921,18.75672]}},{"type":"Feature","properties":{"country_en":"Dominican Republic","name":"El Copey","name_adm0":"República Dominicana","name_adm1":"Monte Cristri","name_en":"El Copey","iso":"DO"},"geometry":{"type":"Point","coordinates":[-71.2973,19.79848]}},{"type":"Feature","properties":{"country_en":"Dominican Republic","name":"Paraíso","name_adm0":"República Dominicana","name_adm1":"Barahona","name_en":"Paraíso","iso":"DO"},"geometry":{"type":"Point","coordinates":[-71.16526,17.99172]}},{"type":"Feature","properties":{"country_en":"Dominican Republic","name":"Santiago de los Caballeros","name_adm0":"República Dominicana","name_adm1":"Santiago","name_en":"Santiago de los Caballeros","iso":"DO"},"geometry":{"type":"Point","coordinates":[-70.69768599999999,19.4528035]}},{"type":"Feature","properties":{"country_en":"Dominican Republic","name":"Hato Mayor","name_adm0":"República Dominicana","name_adm1":"Hato Mayor","name_en":"Hato Mayor","iso":"DO"},"geometry":{"type":"Point","coordinates":[-69.33332999999999,18.83333]}},{"type":"Feature","properties":{"country_en":"Dominican Republic","name":"La Vega","name_adm0":"República Dominicana","name_adm1":"La Vega","name_en":"La Vega","iso":"DO"},"geometry":{"type":"Point","coordinates":[-70.65,19.05]}},{"type":"Feature","properties":{"country_en":"Dominican Republic","name":"Hondo Valle","name_adm0":"República Dominicana","name_adm1":"Elias Piña","name_en":"Hondo Valle","iso":"DO"},"geometry":{"type":"Point","coordinates":[-71.69511,18.71599]}},{"type":"Feature","properties":{"country_en":"Dominican Republic","name":"San Martín de Porres","name_adm0":"República Dominicana","name_adm1":"Distrito Nacional","name_en":"San Martín de Porres","iso":"DO"},"geometry":{"type":"Point","coordinates":[-69.88333,18.5]}},{"type":"Feature","properties":{"country_en":"Dominican Republic","name":"San José de Las Matas","name_adm0":"República Dominicana","name_adm1":"Santiago","name_en":"San José de Las Matas","iso":"DO"},"geometry":{"type":"Point","coordinates":[-70.93819,19.33915]}},{"type":"Feature","properties":{"country_en":"Dominican Republic","name":"Juan de Herrera","name_adm0":"República Dominicana","name_adm1":"San Juan","name_en":"Juan de Herrera","iso":"DO"},"geometry":{"type":"Point","coordinates":[-71.2383,18.87402]}},{"type":"Feature","properties":{"country_en":"Dominican Republic","name":"Jima Abajo","name_adm0":"República Dominicana","name_adm1":"La Vega","name_en":"Jima Abajo","iso":"DO"},"geometry":{"type":"Point","coordinates":[-70.37607,19.13292]}},{"type":"Feature","properties":{"country_en":"Dominican Republic","name":"Jaspar Hernandez","name_adm0":"República Dominicana","name_adm1":"Espaillat","name_en":"Jaspar Hernandez","iso":"DO"},"geometry":{"type":"Point","coordinates":[-70.28112,19.6289]}},{"type":"Feature","properties":{"country_en":"Dominican Republic","name":"Constanza","name_adm0":"República Dominicana","name_adm1":"La Vega","name_en":"Constanza","iso":"DO"},"geometry":{"type":"Point","coordinates":[-70.74499,18.90919]}},{"type":"Feature","properties":{"country_en":"Dominican Republic","name":"Boca Chica","name_adm0":"República Dominicana","name_adm1":"Santo Domingo","name_en":"Boca Chica","iso":"DO"},"geometry":{"type":"Point","coordinates":[-69.60914,18.45174]}},{"type":"Feature","properties":{"country_en":"Dominican Republic","name":"Monte Cristri","name_adm0":"República Dominicana","name_adm1":"Monte Cristri","name_en":"Monte Cristri","iso":"DO"},"geometry":{"type":"Point","coordinates":[-71.499023,19.857143]}},{"type":"Feature","properties":{"country_en":"Dominican Republic","name":"Villas Agrícolas Número Uno","name_adm0":"República Dominicana","name_adm1":"Distrito Nacional","name_en":"Villas Agrícolas Número Uno","iso":"DO"},"geometry":{"type":"Point","coordinates":[-69.91667,18.5]}},{"type":"Feature","properties":{"country_en":"Dominican Republic","name":"Ensanche Alma Rosa","name_adm0":"República Dominicana","name_adm1":"Santo Domingo","name_en":"Ensanche Alma Rosa","iso":"DO"},"geometry":{"type":"Point","coordinates":[-69.85771,18.49229]}},{"type":"Feature","properties":{"country_en":"Dominican Republic","name":"Puerto Plata","name_adm0":"República Dominicana","name_adm1":"Puerto Plata","name_en":"Puerto Plata","iso":"DO"},"geometry":{"type":"Point","coordinates":[-70.75,19.75]}},{"type":"Feature","properties":{"country_en":"Dominican Republic","name":"Samana","name_adm0":"República Dominicana","name_adm1":"Samana","name_en":"Samana","iso":"DO"},"geometry":{"type":"Point","coordinates":[-69.45,19.25]}},{"type":"Feature","properties":{"country_en":"Dominican Republic","name":"San Cristobal","name_adm0":"República Dominicana","name_adm1":"San Cristobal","name_en":"San Cristobal","iso":"DO"},"geometry":{"type":"Point","coordinates":[-70.2,18.55]}},{"type":"Feature","properties":{"country_en":"Dominican Republic","name":"Cabrera","name_adm0":"República Dominicana","name_adm1":"Maria Trinidad Sanchéz","name_en":"Cabrera","iso":"DO"},"geometry":{"type":"Point","coordinates":[-69.9049,19.6426]}},{"type":"Feature","properties":{"country_en":"Dominican Republic","name":"República Dominicana","name_adm0":"República Dominicana","name_en":"Dominican Republic","iso":"DO"},"geometry":{"type":"Point","coordinates":[-70.161743,18.674218]}},{"type":"Feature","properties":{"country_en":"Dominican Republic","name":"Agua Dulce","name_adm0":"República Dominicana","name_adm1":"Distrito Nacional","name_en":"Agua Dulce","iso":"DO"},"geometry":{"type":"Point","coordinates":[-69.88333,18.5]}},{"type":"Feature","properties":{"country_en":"Dominican Republic","name":"La Caridad","name_adm0":"República Dominicana","name_adm1":"Distrito Nacional","name_en":"La Caridad","iso":"DO"},"geometry":{"type":"Point","coordinates":[-69.89999999999999,18.5]}},{"type":"Feature","properties":{"country_en":"Dominican Republic","name":"Arroyo Salado","name_adm0":"República Dominicana","name_adm1":"Distrito Nacional","name_en":"Arroyo Salado","iso":"DO"},"geometry":{"type":"Point","coordinates":[-69.92814,18.50563]}},{"type":"Feature","properties":{"country_en":"Dominican Republic","name":"Ensanche Los Minas","name_adm0":"República Dominicana","name_adm1":"Santo Domingo","name_en":"Ensanche Los Minas","iso":"DO"},"geometry":{"type":"Point","coordinates":[-69.86667,18.5]}},{"type":"Feature","properties":{"country_en":"Dominican Republic","name":"Villa María","name_adm0":"República Dominicana","name_adm1":"Distrito Nacional","name_en":"Villa María","iso":"DO"},"geometry":{"type":"Point","coordinates":[-69.89999999999999,18.483329999999995]}},{"type":"Feature","properties":{"country_en":"Dominican Republic","name":"Santa Cruz","name_adm0":"República Dominicana","name_adm1":"Santo Domingo","name_en":"Santa Cruz","iso":"DO"},"geometry":{"type":"Point","coordinates":[-69.91159,18.52581]}},{"type":"Feature","properties":{"country_en":"Dominican Republic","name":"Simonico","name_adm0":"República Dominicana","name_adm1":"Santo Domingo","name_en":"Simonico","iso":"DO"},"geometry":{"type":"Point","coordinates":[-69.86667,18.483329999999995]}},{"type":"Feature","properties":{"country_en":"Dominican Republic","name":"Villa Consuelo","name_adm0":"República Dominicana","name_adm1":"Distrito Nacional","name_en":"Villa Consuelo","iso":"DO"},"geometry":{"type":"Point","coordinates":[-69.89999999999999,18.483329999999995]}},{"type":"Feature","properties":{"country_en":"Dominican Republic","name":"Villa Duarte","name_adm0":"República Dominicana","name_adm1":"Santo Domingo","name_en":"Villa Duarte","iso":"DO"},"geometry":{"type":"Point","coordinates":[-69.87535,18.48394]}},{"type":"Feature","properties":{"country_en":"Dominican Republic","name":"Las Cañitas","name_adm0":"República Dominicana","name_adm1":"Distrito Nacional","name_en":"Las Cañitas","iso":"DO"},"geometry":{"type":"Point","coordinates":[-69.88333,18.5]}},{"type":"Feature","properties":{"country_en":"Dominican Republic","name":"Pedro García","name_adm0":"República Dominicana","name_adm1":"Santiago","name_en":"Pedro García","iso":"DO"},"geometry":{"type":"Point","coordinates":[-70.65256,19.59202]}},{"type":"Feature","properties":{"country_en":"Dominican Republic","name":"La Altagracia","name_adm0":"República Dominicana","name_adm1":"La Altagracia","name_en":"La Altagracia","iso":"DO"},"geometry":{"type":"Point","coordinates":[-68.63333,18.58333]}},{"type":"Feature","properties":{"country_en":"Dominican Republic","name":"Cristo Rey","name_adm0":"República Dominicana","name_adm1":"Distrito Nacional","name_en":"Cristo Rey","iso":"DO"},"geometry":{"type":"Point","coordinates":[-69.93333,18.5]}},{"type":"Feature","properties":{"country_en":"Dominican Republic","name":"Blanco","name_adm0":"República Dominicana","name_adm1":"Monseñor Nouel","name_en":"Blanco","iso":"DO"},"geometry":{"type":"Point","coordinates":[-70.45286,19.02129]}},{"type":"Feature","properties":{"country_en":"Dominican Republic","name":"Azua de Compostela","name_adm0":"República Dominicana","name_adm1":"Azua","name_en":"Azua de Compostela","iso":"DO"},"geometry":{"type":"Point","coordinates":[-70.7341,18.4586045]}},{"type":"Feature","properties":{"country_en":"Dominican Republic","name":"San Pedro de Macorís","name_adm0":"República Dominicana","name_adm1":"San Pedro de Marcoris","name_en":"S. Pedro de Macoris","iso":"DO"},"geometry":{"type":"Point","coordinates":[-69.306049,18.459540999999998]}},{"type":"Feature","properties":{"country_en":"Dominican Republic","name":"Santa Cruz de Barahona","name_adm0":"República Dominicana","name_adm1":"Barahona","name_en":"Santa Cruz de Barahona","iso":"DO"},"geometry":{"type":"Point","coordinates":[-71.10403,18.211577999999996]}},{"type":"Feature","properties":{"country_en":"Dominican Republic","name":"Consuelo","name_adm0":"República Dominicana","name_adm1":"Hato Mayor","name_en":"Consuelo","iso":"DO"},"geometry":{"type":"Point","coordinates":[-69.26952,18.84322]}},{"type":"Feature","properties":{"country_en":"Dominican Republic","name":"Ensanche Bolívar","name_adm0":"República Dominicana","name_adm1":"Santiago","name_en":"Ensanche Bolívar","iso":"DO"},"geometry":{"type":"Point","coordinates":[-70.70676,19.473]}},{"type":"Feature","properties":{"country_en":"Dominican Republic","name":"Ensanche Lugo","name_adm0":"República Dominicana","name_adm1":"Distrito Nacional","name_en":"Ensanche Lugo","iso":"DO"},"geometry":{"type":"Point","coordinates":[-69.89999999999999,18.466669999999997]}},{"type":"Feature","properties":{"country_en":"Dominican Republic","name":"Villas Agrícolas Número Dos","name_adm0":"República Dominicana","name_adm1":"Distrito Nacional","name_en":"Villas Agrícolas Número Dos","iso":"DO"},"geometry":{"type":"Point","coordinates":[-69.94999999999999,18.483329999999995]}},{"type":"Feature","properties":{"country_en":"Dominican Republic","name":"Distrito Nacional","name_adm0":"República Dominicana","name_adm1":"Distrito Nacional","name_en":"Distrito Nacional","iso":"DO"},"geometry":{"type":"Point","coordinates":[-69.93333,18.483329999999995]}},{"type":"Feature","properties":{"country_en":"Dominican Republic","name":"Peravia","name_adm0":"República Dominicana","name_adm1":"Peravia","name_en":"Peravia","iso":"DO"},"geometry":{"type":"Point","coordinates":[-70.36667,18.33333]}},{"type":"Feature","properties":{"country_en":"Dominican Republic","name":"Calero","name_adm0":"República Dominicana","name_adm1":"Distrito Nacional","name_en":"Calero","iso":"DO"},"geometry":{"type":"Point","coordinates":[-69.88333,18.483329999999995]}},{"type":"Feature","properties":{"country_en":"Dominican Republic","name":"Mata Hambre","name_adm0":"República Dominicana","name_adm1":"Distrito Nacional","name_en":"Mata Hambre","iso":"DO"},"geometry":{"type":"Point","coordinates":[-69.93333,18.45]}},{"type":"Feature","properties":{"country_en":"Dominican Republic","name":"Juan Herrera","name_adm0":"República Dominicana","name_adm1":"San Juan","name_en":"Juan Herrera","iso":"DO"},"geometry":{"type":"Point","coordinates":[-71.2383,18.87402]}},{"type":"Feature","properties":{"country_en":"Dominican Republic","name":"Bahoruco","name_adm0":"República Dominicana","name_adm1":"Bahoruco","name_en":"Bahoruco","iso":"DO"},"geometry":{"type":"Point","coordinates":[-71.52236899999998,18.4626755]}},{"type":"Feature","properties":{"country_en":"Dominican Republic","name":"Galá","name_adm0":"República Dominicana","name_adm1":"Distrito Nacional","name_en":"Galá","iso":"DO"},"geometry":{"type":"Point","coordinates":[-69.961,18.48409]}},{"type":"Feature","properties":{"country_en":"Dominican Republic","name":"Timbeque","name_adm0":"República Dominicana","name_adm1":"Distrito Nacional","name_en":"Timbeque","iso":"DO"},"geometry":{"type":"Point","coordinates":[-69.88333,18.483329999999995]}},{"type":"Feature","properties":{"country_en":"Dominican Republic","name":"Elias Piña","name_adm0":"República Dominicana","name_adm1":"Elias Piña","name_en":"Elias Piña","iso":"DO"},"geometry":{"type":"Point","coordinates":[-71.477234,18.823116]}},{"type":"Feature","properties":{"country_en":"Dominican Republic","name":"Romana","name_adm0":"República Dominicana","name_adm1":"Romana","name_en":"Romana","iso":"DO"},"geometry":{"type":"Point","coordinates":[-68.991394,18.401367]}},{"type":"Feature","properties":{"country_en":"Dominican Republic","name":"Maria Trinidad Sanchéz","name_adm0":"República Dominicana","name_adm1":"Maria Trinidad Sanchéz","name_en":"Maria Trinidad Sanchéz","iso":"DO"},"geometry":{"type":"Point","coordinates":[-69.907379,19.465621]}},{"type":"Feature","properties":{"country_en":"Dominican Republic","name":"Arroyo Hondo","name_adm0":"República Dominicana","name_adm1":"Distrito Nacional","name_en":"Arroyo Hondo","iso":"DO"},"geometry":{"type":"Point","coordinates":[-69.93638,18.496129999999997]}},{"type":"Feature","properties":{"country_en":"Dominican Republic","name":"Barrio Mejoraminto Social","name_adm0":"República Dominicana","name_adm1":"Distrito Nacional","name_en":"Barrio Mejoraminto Social","iso":"DO"},"geometry":{"type":"Point","coordinates":[-69.89999999999999,18.483329999999995]}},{"type":"Feature","properties":{"country_en":"Dominican Republic","name":"Bella Vista","name_adm0":"República Dominicana","name_adm1":"Distrito Nacional","name_en":"Bella Vista","iso":"DO"},"geometry":{"type":"Point","coordinates":[-69.93333,18.45]}},{"type":"Feature","properties":{"country_en":"Dominican Republic","name":"La Agustina","name_adm0":"República Dominicana","name_adm1":"Distrito Nacional","name_en":"La Agustina","iso":"DO"},"geometry":{"type":"Point","coordinates":[-69.93333,18.5]}},{"type":"Feature","properties":{"country_en":"Dominican Republic","name":"La Ciénaga","name_adm0":"República Dominicana","name_adm1":"Barahona","name_en":"La Ciénaga","iso":"DO"},"geometry":{"type":"Point","coordinates":[-71.10651,18.06858]}},{"type":"Feature","properties":{"country_en":"Dominican Republic","name":"La Faría","name_adm0":"República Dominicana","name_adm1":"Distrito Nacional","name_en":"La Faría","iso":"DO"},"geometry":{"type":"Point","coordinates":[-69.89999999999999,18.483329999999995]}},{"type":"Feature","properties":{"country_en":"Dominican Republic","name":"La Fuente","name_adm0":"República Dominicana","name_adm1":"Distrito Nacional","name_en":"La Fuente","iso":"DO"},"geometry":{"type":"Point","coordinates":[-69.88333,18.483329999999995]}},{"type":"Feature","properties":{"country_en":"Dominican Republic","name":"La Primavera","name_adm0":"República Dominicana","name_adm1":"Distrito Nacional","name_en":"La Primavera","iso":"DO"},"geometry":{"type":"Point","coordinates":[-69.89999999999999,18.466669999999997]}},{"type":"Feature","properties":{"country_en":"Dominican Republic","name":"Cabo Engano","name_adm0":"República Dominicana","name_adm1":"La Altagracia","name_en":"Cabo Engano","iso":"DO"},"geometry":{"type":"Point","coordinates":[-68.33994,18.60932]}},{"type":"Feature","properties":{"country_en":"Dominican Republic","name":"Ciudad Nueva","name_adm0":"República Dominicana","name_adm1":"Distrito Nacional","name_en":"Ciudad Nueva","iso":"DO"},"geometry":{"type":"Point","coordinates":[-69.89999999999999,18.466669999999997]}},{"type":"Feature","properties":{"country_en":"Dominican Republic","name":"Los Mameyes","name_adm0":"República Dominicana","name_adm1":"Santo Domingo","name_en":"Los Mameyes","iso":"DO"},"geometry":{"type":"Point","coordinates":[-69.85,18.466669999999997]}},{"type":"Feature","properties":{"country_en":"Dominican Republic","name":"Ensanche Piantini","name_adm0":"República Dominicana","name_adm1":"Distrito Nacional","name_en":"Ensanche Piantini","iso":"DO"},"geometry":{"type":"Point","coordinates":[-69.94999999999999,18.466669999999997]}},{"type":"Feature","properties":{"country_en":"Dominican Republic","name":"Guibia","name_adm0":"República Dominicana","name_adm1":"Distrito Nacional","name_en":"Guibia","iso":"DO"},"geometry":{"type":"Point","coordinates":[-69.8997,18.4625]}},{"type":"Feature","properties":{"country_en":"Dominican Republic","name":"Los Tres Ojos de Agua","name_adm0":"República Dominicana","name_adm1":"Santo Domingo","name_en":"Los Tres Ojos de Agua","iso":"DO"},"geometry":{"type":"Point","coordinates":[-69.84168,18.4826]}},{"type":"Feature","properties":{"country_en":"Dominican Republic","name":"Nibaje","name_adm0":"República Dominicana","name_adm1":"Santiago","name_en":"Nibaje","iso":"DO"},"geometry":{"type":"Point","coordinates":[-70.69832,19.44172]}},{"type":"Feature","properties":{"country_en":"Dominican Republic","name":"San Carlos","name_adm0":"República Dominicana","name_adm1":"Distrito Nacional","name_en":"San Carlos","iso":"DO"},"geometry":{"type":"Point","coordinates":[-69.89999999999999,18.483329999999995]}},{"type":"Feature","properties":{"country_en":"Dominican Republic","name":"Sans Souci","name_adm0":"República Dominicana","name_adm1":"Distrito Nacional","name_en":"Sans Souci","iso":"DO"},"geometry":{"type":"Point","coordinates":[-69.87516,18.467209999999998]}},{"type":"Feature","properties":{"country_en":"Dominican Republic","name":"Santo Domingo","name_adm0":"República Dominicana","name_adm1":"Distrito Nacional","name_en":"Santo Domingo","iso":"DO"},"geometry":{"type":"Point","coordinates":[-69.99999999999999,18.5]}},{"type":"Feature","properties":{"country_en":"Dominican Republic","name":"Manganagua","name_adm0":"República Dominicana","name_adm1":"Distrito Nacional","name_en":"Manganagua","iso":"DO"},"geometry":{"type":"Point","coordinates":[-69.88333,18.5]}},{"type":"Feature","properties":{"country_en":"Dominican Republic","name":"Barrio Obrero","name_adm0":"República Dominicana","name_adm1":"Distrito Nacional","name_en":"Barrio Obrero","iso":"DO"},"geometry":{"type":"Point","coordinates":[-69.91667,18.5]}},{"type":"Feature","properties":{"country_en":"Dominican Republic","name":"Los Llanos","name_adm0":"República Dominicana","name_adm1":"San Pedro de Marcoris","name_en":"Los Llanos","iso":"DO"},"geometry":{"type":"Point","coordinates":[-69.49581,18.62035]}},{"type":"Feature","properties":{"country_en":"Dominican Republic","name":"Monte Plata","name_adm0":"República Dominicana","name_adm1":"Monte Plata","name_en":"Monte Plata","iso":"DO"},"geometry":{"type":"Point","coordinates":[-69.83333,18.83333]}},{"type":"Feature","properties":{"country_en":"Dominican Republic","name":"Honduras","name_adm0":"República Dominicana","name_adm1":"Distrito Nacional","name_en":"Honduras","iso":"DO"},"geometry":{"type":"Point","coordinates":[-69.95266,18.435519999999997]}},{"type":"Feature","properties":{"country_en":"Dominican Republic","name":"Villa Altagracia","name_adm0":"República Dominicana","name_adm1":"San Cristobal","name_en":"Villa Altagracia","iso":"DO"},"geometry":{"type":"Point","coordinates":[-70.17094999999999,18.67297]}},{"type":"Feature","properties":{"country_en":"Dominican Republic","name":"Salcedo","name_adm0":"República Dominicana","name_adm1":"Salcedo","name_en":"Salcedo","iso":"DO"},"geometry":{"type":"Point","coordinates":[-70.33332999999999,19.41667]}},{"type":"Feature","properties":{"country_en":"Dominican Republic","name":"Monseñor Nouel","name_adm0":"República Dominicana","name_adm1":"Monseñor Nouel","name_en":"Monseñor Nouel","iso":"DO"},"geometry":{"type":"Point","coordinates":[-70.41667,18.91667]}},{"type":"Feature","properties":{"country_en":"Dominican Republic","name":"La Descubierta","name_adm0":"República Dominicana","name_adm1":"Independencia","name_en":"La Descubierta","iso":"DO"},"geometry":{"type":"Point","coordinates":[-71.72966999999998,18.57053]}},{"type":"Feature","properties":{"country_en":"Dominican Republic","name":"Tamayo","name_adm0":"República Dominicana","name_adm1":"Bahoruco","name_en":"Tamayo","iso":"DO"},"geometry":{"type":"Point","coordinates":[-71.2029,18.3947]}},{"type":"Feature","properties":{"country_en":"Dominican Republic","name":"Manuel Golla","name_adm0":"República Dominicana","name_adm1":"Pedernales","name_en":"Manuel Golla","iso":"DO"},"geometry":{"type":"Point","coordinates":[-71.45005999999998,17.83713]}},{"type":"Feature","properties":{"country_en":"Dominican Republic","name":"La Cueva","name_adm0":"República Dominicana","name_adm1":"Barahona","name_en":"La Cueva","iso":"DO"},"geometry":{"type":"Point","coordinates":[-71.25012,18.15779]}},{"type":"Feature","properties":{"country_en":"Dominican Republic","name":"Los Negros","name_adm0":"República Dominicana","name_adm1":"Azua","name_en":"Los Negros","iso":"DO"},"geometry":{"type":"Point","coordinates":[-70.8397,18.35768]}},{"type":"Feature","properties":{"country_en":"Dominican Republic","name":"El Montazo","name_adm0":"República Dominicana","name_adm1":"Azua","name_en":"El Montazo","iso":"DO"},"geometry":{"type":"Point","coordinates":[-70.95,18.86667]}},{"type":"Feature","properties":{"country_en":"Dominican Republic","name":"La Rancha","name_adm0":"República Dominicana","name_adm1":"San Juan","name_en":"La Rancha","iso":"DO"},"geometry":{"type":"Point","coordinates":[-71.50487,18.78776]}},{"type":"Feature","properties":{"country_en":"Dominican Republic","name":"Andrés","name_adm0":"República Dominicana","name_adm1":"Santo Domingo","name_en":"Andrés","iso":"DO"},"geometry":{"type":"Point","coordinates":[-69.63661,18.44454]}},{"type":"Feature","properties":{"country_en":"Dominican Republic","name":"La Francia","name_adm0":"República Dominicana","name_adm1":"Santo Domingo","name_en":"La Francia","iso":"DO"},"geometry":{"type":"Point","coordinates":[-69.86667,18.466669999999997]}},{"type":"Feature","properties":{"country_en":"Dominican Republic","name":"Barrio María Auxiliadora","name_adm0":"República Dominicana","name_adm1":"Distrito Nacional","name_en":"Barrio María Auxiliadora","iso":"DO"},"geometry":{"type":"Point","coordinates":[-69.88333,18.5]}},{"type":"Feature","properties":{"country_en":"Dominican Republic","name":"San Fernando de Monte Cristi","name_adm0":"República Dominicana","name_adm1":"Monte Cristri","name_en":"San Fernando de Monte Cristi","iso":"DO"},"geometry":{"type":"Point","coordinates":[-71.649398,19.853671999999996]}},{"type":"Feature","properties":{"country_en":"Dominican Republic","name":"Azua","name_adm0":"República Dominicana","name_adm1":"Azua","name_en":"Azua","iso":"DO"},"geometry":{"type":"Point","coordinates":[-70.8,18.58333]}},{"type":"Feature","properties":{"country_en":"Dominican Republic","name":"Cotuí","name_adm0":"República Dominicana","name_adm1":"Sánchez Ramirez","name_en":"Cotuí","iso":"DO"},"geometry":{"type":"Point","coordinates":[-70.162811,19.011488]}},{"type":"Feature","properties":{"country_en":"Dominican Republic","name":"Vicente Noble","name_adm0":"República Dominicana","name_adm1":"Bahoruco","name_en":"Vicente Noble","iso":"DO"},"geometry":{"type":"Point","coordinates":[-71.1801,18.38443]}},{"type":"Feature","properties":{"country_en":"Dominican Republic","name":"Básima","name_adm0":"República Dominicana","name_adm1":"San Cristobal","name_en":"Básima","iso":"DO"},"geometry":{"type":"Point","coordinates":[-70.20537,18.70655]}},{"type":"Feature","properties":{"country_en":"Dominican Republic","name":"Quisqueya","name_adm0":"República Dominicana","name_adm1":"San Pedro de Marcoris","name_en":"Quisqueya","iso":"DO"},"geometry":{"type":"Point","coordinates":[-69.40814,18.55542]}}]}