{"type":"FeatureCollection","features":[{"type":"Feature","properties":{"country_en":"Eritrea","name":"Gonye","name_adm0":"Eritrea","name_adm1":"Gash-Barka","name_en":"Gonye","iso":"ER"},"geometry":{"type":"Point","coordinates":[37.33915,15.122350000000003]}},{"type":"Feature","properties":{"country_en":"Eritrea","name":"Gulch","name_adm0":"Eritrea","name_adm1":"Gash-Barka","name_en":"Gulch","iso":"ER"},"geometry":{"type":"Point","coordinates":[36.71917,14.74306]}},{"type":"Feature","properties":{"country_en":"Eritrea","name":"Hanainef","name_adm0":"Eritrea","name_adm1":"Debub-Keih-Bahri","name_en":"Hanainef","iso":"ER"},"geometry":{"type":"Point","coordinates":[42.07962,13.66736]}},{"type":"Feature","properties":{"country_en":"Eritrea","name":"Hargigo","name_adm0":"Eritrea","name_adm1":"Semien-Keih-Bahri","name_en":"Hargigo","iso":"ER"},"geometry":{"type":"Point","coordinates":[39.45294,15.537739999999998]}},{"type":"Feature","properties":{"country_en":"Eritrea","name":"Asmara","name_adm0":"Eritrea","name_adm1":"Maekel","name_en":"Asmara","iso":"ER"},"geometry":{"type":"Point","coordinates":[38.931839999999994,15.338050000000003]}},{"type":"Feature","properties":{"country_en":"Eritrea","name":"Idi","name_adm0":"Eritrea","name_adm1":"Debub-Keih-Bahri","name_en":"Idi","iso":"ER"},"geometry":{"type":"Point","coordinates":[41.6938,13.93088]}},{"type":"Feature","properties":{"country_en":"Eritrea","name":"Massawa","name_adm0":"Eritrea","name_adm1":"Semien-Keih-Bahri","name_en":"Massawa","iso":"ER"},"geometry":{"type":"Point","coordinates":[39.47455,15.60811]}},{"type":"Feature","properties":{"country_en":"Eritrea","name":"Debub","name_adm0":"Eritrea","name_adm1":"Debub","name_en":"Debub","iso":"ER"},"geometry":{"type":"Point","coordinates":[38.83333,14.833329999999998]}},{"type":"Feature","properties":{"country_en":"Eritrea","name":"Aicota","name_adm0":"Eritrea","name_adm1":"Gash-Barka","name_en":"Aicota","iso":"ER"},"geometry":{"type":"Point","coordinates":[37.08289,15.185959999999998]}},{"type":"Feature","properties":{"country_en":"Eritrea","name":"Eritrea","name_adm0":"Eritrea","name_en":"Eritrea","iso":"ER"},"geometry":{"type":"Point","coordinates":[39.950859,15.18132]}},{"type":"Feature","properties":{"country_en":"Eritrea","name":"Ak'ordat","name_adm0":"Eritrea","name_adm1":"Gash-Barka","name_en":"Ak'ordat","iso":"ER"},"geometry":{"type":"Point","coordinates":[37.88291,15.54798]}},{"type":"Feature","properties":{"country_en":"Eritrea","name":"Keren","name_adm0":"Eritrea","name_adm1":"Anseba","name_en":"Keren","iso":"ER"},"geometry":{"type":"Point","coordinates":[38.451069999999994,15.777919999999998]}},{"type":"Feature","properties":{"country_en":"Eritrea","name":"Adi Tekelezan","name_adm0":"Eritrea","name_adm1":"Anseba","name_en":"Adi Tekelezan","iso":"ER"},"geometry":{"type":"Point","coordinates":[38.77773,15.569559999999997]}},{"type":"Feature","properties":{"country_en":"Eritrea","name":"T'i'o","name_adm0":"Eritrea","name_adm1":"Debub-Keih-Bahri","name_en":"T'i'o","iso":"ER"},"geometry":{"type":"Point","coordinates":[40.95882,14.689650000000002]}},{"type":"Feature","properties":{"country_en":"Eritrea","name":"Dek'emhare","name_adm0":"Eritrea","name_adm1":"Debub","name_en":"Dek'emhare","iso":"ER"},"geometry":{"type":"Point","coordinates":[39.0475,15.07]}},{"type":"Feature","properties":{"country_en":"Eritrea","name":"Barentu","name_adm0":"Eritrea","name_adm1":"Gash-Barka","name_en":"Barentu","iso":"ER"},"geometry":{"type":"Point","coordinates":[37.59067,15.10582]}},{"type":"Feature","properties":{"country_en":"Eritrea","name":"Ādī Āba Ri'isom","name_adm0":"Eritrea","name_adm1":"Debub","name_en":"Ādī Āba Ri'isom","iso":"ER"},"geometry":{"type":"Point","coordinates":[38.72306,14.55]}},{"type":"Feature","properties":{"country_en":"Eritrea","name":"Tetafil","name_adm0":"Eritrea","name_adm1":"Anseba","name_en":"Tetafil","iso":"ER"},"geometry":{"type":"Point","coordinates":[38.34304,16.11104]}},{"type":"Feature","properties":{"country_en":"Eritrea","name":"Mī'īda","name_adm0":"Eritrea","name_adm1":"Debub-Keih-Bahri","name_en":"Mī'īda","iso":"ER"},"geometry":{"type":"Point","coordinates":[40.77759,14.728879999999998]}},{"type":"Feature","properties":{"country_en":"Eritrea","name":"Rehayto","name_adm0":"Eritrea","name_adm1":"Debub-Keih-Bahri","name_en":"Rehayto","iso":"ER"},"geometry":{"type":"Point","coordinates":[43.0834,12.72852]}},{"type":"Feature","properties":{"country_en":"Eritrea","name":"Imbatikala","name_adm0":"Eritrea","name_adm1":"Semien-Keih-Bahri","name_en":"Imbatikala","iso":"ER"},"geometry":{"type":"Point","coordinates":[39.07626,15.39864]}},{"type":"Feature","properties":{"country_en":"Eritrea","name":"Imbereme","name_adm0":"Eritrea","name_adm1":"Semien-Keih-Bahri","name_en":"Imbereme","iso":"ER"},"geometry":{"type":"Point","coordinates":[39.41968,15.71839]}},{"type":"Feature","properties":{"country_en":"Eritrea","name":"Sebderat","name_adm0":"Eritrea","name_adm1":"Gash-Barka","name_en":"Sebderat","iso":"ER"},"geometry":{"type":"Point","coordinates":[36.64999999999999,15.45]}},{"type":"Feature","properties":{"country_en":"Eritrea","name":"Maekel","name_adm0":"Eritrea","name_adm1":"Maekel","name_en":"Maekel","iso":"ER"},"geometry":{"type":"Point","coordinates":[38.91667,15.33333]}},{"type":"Feature","properties":{"country_en":"Eritrea","name":"Semien-Keih-Bahri","name_adm0":"Eritrea","name_adm1":"Semien-Keih-Bahri","name_en":"Semien-Keih-Bahri","iso":"ER"},"geometry":{"type":"Point","coordinates":[39,16]}},{"type":"Feature","properties":{"country_en":"Eritrea","name":"Karmu","name_adm0":"Eritrea","name_adm1":"Debub-Keih-Bahri","name_en":"Karmu","iso":"ER"},"geometry":{"type":"Point","coordinates":[41.62486,14.05406]}},{"type":"Feature","properties":{"country_en":"Eritrea","name":"Kelamet","name_adm0":"Eritrea","name_adm1":"Semien-Keih-Bahri","name_en":"Kelamet","iso":"ER"},"geometry":{"type":"Point","coordinates":[38.57926,16.07967]}},{"type":"Feature","properties":{"country_en":"Eritrea","name":"Mai Mefales","name_adm0":"Eritrea","name_adm1":"Gash-Barka","name_en":"Mai Mefales","iso":"ER"},"geometry":{"type":"Point","coordinates":[38.2675,14.98667]}},{"type":"Feature","properties":{"country_en":"Eritrea","name":"Gash-Barka","name_adm0":"Eritrea","name_adm1":"Gash-Barka","name_en":"Gash-Barka","iso":"ER"},"geometry":{"type":"Point","coordinates":[37.5,15.249999999999998]}},{"type":"Feature","properties":{"country_en":"Eritrea","name":"Buia","name_adm0":"Eritrea","name_adm1":"Semien-Keih-Bahri","name_en":"Buia","iso":"ER"},"geometry":{"type":"Point","coordinates":[39.83681,14.82317]}},{"type":"Feature","properties":{"country_en":"Eritrea","name":"Senafe","name_adm0":"Eritrea","name_adm1":"Debub","name_en":"Senafe","iso":"ER"},"geometry":{"type":"Point","coordinates":[39.42917,14.69833]}},{"type":"Feature","properties":{"country_en":"Eritrea","name":"Dule","name_adm0":"Eritrea","name_adm1":"Semien-Keih-Bahri","name_en":"Dule","iso":"ER"},"geometry":{"type":"Point","coordinates":[39.98422,15.39996]}},{"type":"Feature","properties":{"country_en":"Eritrea","name":"Ginda","name_adm0":"Eritrea","name_adm1":"Semien-Keih-Bahri","name_en":"Ginda","iso":"ER"},"geometry":{"type":"Point","coordinates":[39.08861,15.449169999999999]}},{"type":"Feature","properties":{"country_en":"Eritrea","name":"Aresa","name_adm0":"Eritrea","name_adm1":"Debub","name_en":"Aresa","iso":"ER"},"geometry":{"type":"Point","coordinates":[38.56583,14.926939999999998]}},{"type":"Feature","properties":{"country_en":"Eritrea","name":"Assa Ela","name_adm0":"Eritrea","name_adm1":"Debub-Keih-Bahri","name_en":"Assa Ela","iso":"ER"},"geometry":{"type":"Point","coordinates":[41.54904,14.12778]}},{"type":"Feature","properties":{"country_en":"Eritrea","name":"Bisha","name_adm0":"Eritrea","name_adm1":"Gash-Barka","name_en":"Bisha","iso":"ER"},"geometry":{"type":"Point","coordinates":[37.53342,15.48586]}},{"type":"Feature","properties":{"country_en":"Eritrea","name":"Dangal","name_adm0":"Eritrea","name_adm1":"Semien-Keih-Bahri","name_en":"Dangal","iso":"ER"},"geometry":{"type":"Point","coordinates":[40.340999999999994,14.63435]}},{"type":"Feature","properties":{"country_en":"Eritrea","name":"Debub-Keih-Bahri","name_adm0":"Eritrea","name_adm1":"Debub-Keih-Bahri","name_en":"Debub-Keih-Bahri","iso":"ER"},"geometry":{"type":"Point","coordinates":[41.5,13.75]}},{"type":"Feature","properties":{"country_en":"Eritrea","name":"Zula","name_adm0":"Eritrea","name_adm1":"Semien-Keih-Bahri","name_en":"Zula","iso":"ER"},"geometry":{"type":"Point","coordinates":[39.66901,15.245669999999999]}},{"type":"Feature","properties":{"country_en":"Eritrea","name":"Zela Åmbesa","name_adm0":"Eritrea","name_adm1":"Debub","name_en":"Zela Åmbesa","iso":"ER"},"geometry":{"type":"Point","coordinates":[39.385,14.521939999999999]}},{"type":"Feature","properties":{"country_en":"Eritrea","name":"Aseb","name_adm0":"Eritrea","name_adm1":"Debub-Keih-Bahri","name_en":"Aseb","iso":"ER"},"geometry":{"type":"Point","coordinates":[42.73944,13.00917]}},{"type":"Feature","properties":{"country_en":"Eritrea","name":"Adi Ugri","name_adm0":"Eritrea","name_adm1":"Debub","name_en":"Adi Ugri","iso":"ER"},"geometry":{"type":"Point","coordinates":[38.81528,14.88722]}},{"type":"Feature","properties":{"country_en":"Eritrea","name":"Dengolo","name_adm0":"Eritrea","name_adm1":"Semien-Keih-Bahri","name_en":"Dengolo","iso":"ER"},"geometry":{"type":"Point","coordinates":[39.12959,15.471529999999998]}},{"type":"Feature","properties":{"country_en":"Eritrea","name":"Ailet","name_adm0":"Eritrea","name_adm1":"Semien-Keih-Bahri","name_en":"Ailet","iso":"ER"},"geometry":{"type":"Point","coordinates":[39.13889,15.57643]}},{"type":"Feature","properties":{"country_en":"Eritrea","name":"Arafali","name_adm0":"Eritrea","name_adm1":"Semien-Keih-Bahri","name_en":"Arafali","iso":"ER"},"geometry":{"type":"Point","coordinates":[39.74216,15.078769999999999]}},{"type":"Feature","properties":{"country_en":"Eritrea","name":"Beylul","name_adm0":"Eritrea","name_adm1":"Debub-Keih-Bahri","name_en":"Beylul","iso":"ER"},"geometry":{"type":"Point","coordinates":[42.335,13.264299999999999]}},{"type":"Feature","properties":{"country_en":"Eritrea","name":"Mora","name_adm0":"Eritrea","name_adm1":"Debub-Keih-Bahri","name_en":"Mora","iso":"ER"},"geometry":{"type":"Point","coordinates":[40.68538,14.883459999999998]}},{"type":"Feature","properties":{"country_en":"Eritrea","name":"Keru","name_adm0":"Eritrea","name_adm1":"Gash-Barka","name_en":"Keru","iso":"ER"},"geometry":{"type":"Point","coordinates":[37.20579,15.62722]}},{"type":"Feature","properties":{"country_en":"Eritrea","name":"Mersa Fatma","name_adm0":"Eritrea","name_adm1":"Semien-Keih-Bahri","name_en":"Mersa Fatma","iso":"ER"},"geometry":{"type":"Point","coordinates":[40.31361,14.900829999999997]}},{"type":"Feature","properties":{"country_en":"Eritrea","name":"Dabu","name_adm0":"Eritrea","name_adm1":"Debub-Keih-Bahri","name_en":"Dabu","iso":"ER"},"geometry":{"type":"Point","coordinates":[42.05714,12.97294]}},{"type":"Feature","properties":{"country_en":"Eritrea","name":"Suwa","name_adm0":"Eritrea","name_adm1":"Debub-Keih-Bahri","name_en":"Suwa","iso":"ER"},"geometry":{"type":"Point","coordinates":[41.0963,14.27764]}},{"type":"Feature","properties":{"country_en":"Eritrea","name":"Sheburur","name_adm0":"Eritrea","name_adm1":"Debub-Keih-Bahri","name_en":"Sheburur","iso":"ER"},"geometry":{"type":"Point","coordinates":[41.46325,14.266659999999998]}},{"type":"Feature","properties":{"country_en":"Eritrea","name":"Jīmhīl","name_adm0":"Eritrea","name_adm1":"Semien-Keih-Bahri","name_en":"Jīmhīl","iso":"ER"},"geometry":{"type":"Point","coordinates":[39.95488,15.747359999999999]}},{"type":"Feature","properties":{"country_en":"Eritrea","name":"Debaysima","name_adm0":"Eritrea","name_adm1":"Debub-Keih-Bahri","name_en":"Debaysima","iso":"ER"},"geometry":{"type":"Point","coordinates":[42.34493,12.700099999999999]}},{"type":"Feature","properties":{"country_en":"Eritrea","name":"Tera Imnī","name_adm0":"Eritrea","name_adm1":"Debub","name_en":"Tera Imnī","iso":"ER"},"geometry":{"type":"Point","coordinates":[38.82664,15.009549999999999]}},{"type":"Feature","properties":{"country_en":"Eritrea","name":"Matara","name_adm0":"Eritrea","name_adm1":"Debub","name_en":"Matara","iso":"ER"},"geometry":{"type":"Point","coordinates":[39.27222,14.54028]}},{"type":"Feature","properties":{"country_en":"Eritrea","name":"Adi Kwala","name_adm0":"Eritrea","name_adm1":"Debub","name_en":"Adi Kwala","iso":"ER"},"geometry":{"type":"Point","coordinates":[38.83417,14.63528]}}]}