{"type":"FeatureCollection","features":[{"type":"Feature","properties":{"country_en":"Fiji","name":"Central","name_adm0":"Fiji","name_adm1":"Central","name_en":"Central","iso":"FJ"},"geometry":{"type":"Point","coordinates":[178.33333,-18]}},{"type":"Feature","properties":{"country_en":"Fiji","name":"Samambula","name_adm0":"Fiji","name_adm1":"Central","name_en":"Samambula","iso":"FJ"},"geometry":{"type":"Point","coordinates":[178.444404,-18.108084]}},{"type":"Feature","properties":{"country_en":"Fiji","name":"Fiji","name_adm0":"Fiji","name_en":"Fiji","iso":"FJ"},"geometry":{"type":"Point","coordinates":[177.369461,-17.861459]}},{"type":"Feature","properties":{"country_en":"Fiji","name":"Tamavua","name_adm0":"Fiji","name_adm1":"Central","name_en":"Tamavua","iso":"FJ"},"geometry":{"type":"Point","coordinates":[178.43333,-18.11667]}},{"type":"Feature","properties":{"country_en":"Fiji","name":"Northern","name_adm0":"Fiji","name_adm1":"Northern","name_en":"Northern","iso":"FJ"},"geometry":{"type":"Point","coordinates":[179.5,-16.5]}},{"type":"Feature","properties":{"country_en":"Fiji","name":"Nambouwalu","name_adm0":"Fiji","name_adm1":"Northern","name_en":"Nambouwalu","iso":"FJ"},"geometry":{"type":"Point","coordinates":[178.7,-17]}},{"type":"Feature","properties":{"country_en":"Fiji","name":"Tavua","name_adm0":"Fiji","name_adm1":"Western","name_en":"Tavua","iso":"FJ"},"geometry":{"type":"Point","coordinates":[177.86667,-17.45]}},{"type":"Feature","properties":{"country_en":"Fiji","name":"Levuka","name_adm0":"Fiji","name_adm1":"Eastern","name_en":"Levuka","iso":"FJ"},"geometry":{"type":"Point","coordinates":[178.36667,-18.93333]}},{"type":"Feature","properties":{"country_en":"Fiji","name":"Toorak","name_adm0":"Fiji","name_adm1":"Central","name_en":"Toorak","iso":"FJ"},"geometry":{"type":"Point","coordinates":[178.43333,-18.13333]}},{"type":"Feature","properties":{"country_en":"Fiji","name":"Singatoka","name_adm0":"Fiji","name_adm1":"Western","name_en":"Singatoka","iso":"FJ"},"geometry":{"type":"Point","coordinates":[177.49999999999997,-18.13333]}},{"type":"Feature","properties":{"country_en":"Fiji","name":"Korovou","name_adm0":"Fiji","name_adm1":"Central","name_en":"Korovou","iso":"FJ"},"geometry":{"type":"Point","coordinates":[178.43333,-18.11667]}},{"type":"Feature","properties":{"country_en":"Fiji","name":"Ba","name_adm0":"Fiji","name_adm1":"Western","name_en":"Ba","iso":"FJ"},"geometry":{"type":"Point","coordinates":[177.67406999999997,-17.5343]}},{"type":"Feature","properties":{"country_en":"Fiji","name":"Nandi","name_adm0":"Fiji","name_adm1":"Western","name_en":"Nandi","iso":"FJ"},"geometry":{"type":"Point","coordinates":[177.41667,-17.8]}},{"type":"Feature","properties":{"country_en":"Fiji","name":"Lambase","name_adm0":"Fiji","name_adm1":"Northern","name_en":"Lambase","iso":"FJ"},"geometry":{"type":"Point","coordinates":[179.38333,-16.41667]}},{"type":"Feature","properties":{"country_en":"Fiji","name":"Vunisea Station","name_adm0":"Fiji","name_adm1":"Eastern","name_en":"Vunisea Station","iso":"FJ"},"geometry":{"type":"Point","coordinates":[178.16667,-19.05]}},{"type":"Feature","properties":{"country_en":"Fiji","name":"Vunisea","name_adm0":"Fiji","name_adm1":"Eastern","name_en":"Vunisea","iso":"FJ"},"geometry":{"type":"Point","coordinates":[178.28333,-18.98333]}},{"type":"Feature","properties":{"country_en":"Fiji","name":"Waiyevo","name_adm0":"Fiji","name_adm1":"Northern","name_en":"Waiyevo","iso":"FJ"},"geometry":{"type":"Point","coordinates":[-179.98333,-16.8]}},{"type":"Feature","properties":{"country_en":"Fiji","name":"Lambasa","name_adm0":"Fiji","name_adm1":"Northern","name_en":"Lambasa","iso":"FJ"},"geometry":{"type":"Point","coordinates":[179.38333,-16.41667]}},{"type":"Feature","properties":{"country_en":"Fiji","name":"Navua","name_adm0":"Fiji","name_adm1":"Central","name_en":"Navua","iso":"FJ"},"geometry":{"type":"Point","coordinates":[178.16667,-18.21667]}},{"type":"Feature","properties":{"country_en":"Fiji","name":"Western","name_adm0":"Fiji","name_adm1":"Western","name_en":"Western","iso":"FJ"},"geometry":{"type":"Point","coordinates":[177.49999999999997,-18]}},{"type":"Feature","properties":{"country_en":"Fiji","name":"Nathovu","name_adm0":"Fiji","name_adm1":"Central","name_en":"Nathovu","iso":"FJ"},"geometry":{"type":"Point","coordinates":[178.43333,-18.13333]}},{"type":"Feature","properties":{"country_en":"Fiji","name":"Deuba","name_adm0":"Fiji","name_adm1":"Central","name_en":"Deuba","iso":"FJ"},"geometry":{"type":"Point","coordinates":[177.904357,-18.24003]}},{"type":"Feature","properties":{"country_en":"Fiji","name":"Lambassa","name_adm0":"Fiji","name_adm1":"Northern","name_en":"Lambassa","iso":"FJ"},"geometry":{"type":"Point","coordinates":[179.38333,-16.41667]}},{"type":"Feature","properties":{"country_en":"Fiji","name":"Suva","name_adm0":"Fiji","name_adm1":"Central","name_en":"Suva","iso":"FJ"},"geometry":{"type":"Point","coordinates":[178.431015,-18.1325565]}},{"type":"Feature","properties":{"country_en":"Fiji","name":"Mba","name_adm0":"Fiji","name_adm1":"Western","name_en":"Mba","iso":"FJ"},"geometry":{"type":"Point","coordinates":[177.69999999999996,-17.53333]}},{"type":"Feature","properties":{"country_en":"Fiji","name":"Rairaiwangga","name_adm0":"Fiji","name_adm1":"Central","name_en":"Rairaiwangga","iso":"FJ"},"geometry":{"type":"Point","coordinates":[178.45,-18.13333]}},{"type":"Feature","properties":{"country_en":"Fiji","name":"Raiwai","name_adm0":"Fiji","name_adm1":"Central","name_en":"Raiwai","iso":"FJ"},"geometry":{"type":"Point","coordinates":[178.45,-18.13333]}},{"type":"Feature","properties":{"country_en":"Fiji","name":"Samambula North","name_adm0":"Fiji","name_adm1":"Central","name_en":"Samambula North","iso":"FJ"},"geometry":{"type":"Point","coordinates":[178.45,-18.11667]}},{"type":"Feature","properties":{"country_en":"Fiji","name":"Nasinu","name_adm0":"Fiji","name_adm1":"Central","name_en":"Nasinu","iso":"FJ"},"geometry":{"type":"Point","coordinates":[178.48333,-17.56667]}},{"type":"Feature","properties":{"country_en":"Fiji","name":"Walu Bay","name_adm0":"Fiji","name_adm1":"Central","name_en":"Walu Bay","iso":"FJ"},"geometry":{"type":"Point","coordinates":[178.43333,-18.13333]}}]}