{"type":"FeatureCollection","features":[{"type":"Feature","properties":{"country_en":"Gabon","name":"Lékoni","name_adm0":"Gabon","name_adm1":"Haut-Ogooue","name_adm2":"Plateaux","name_en":"Lékoni","iso":"GA"},"geometry":{"type":"Point","coordinates":[14.25905,-1.58431]}},{"type":"Feature","properties":{"country_en":"Gabon","name":"Lalara","name_adm0":"Gabon","name_adm1":"Woleu-Ntem","name_adm2":"Okano","name_en":"Lalara","iso":"GA"},"geometry":{"type":"Point","coordinates":[11.45688,0.36219]}},{"type":"Feature","properties":{"country_en":"Gabon","name":"Kan-Kan","name_adm0":"Gabon","name_adm1":"Ogooue-Ivindo","name_adm2":"Lopé","name_en":"Kan-Kan","iso":"GA"},"geometry":{"type":"Point","coordinates":[12.15,-0.15]}},{"type":"Feature","properties":{"country_en":"Gabon","name":"Sahoué","name_adm0":"Gabon","name_adm1":"Estuaire","name_adm2":"Komo-Mondah","name_en":"Sahoué","iso":"GA"},"geometry":{"type":"Point","coordinates":[9.33333,0.61667]}},{"type":"Feature","properties":{"country_en":"Gabon","name":"Olina","name_adm0":"Gabon","name_adm1":"Haut-Ogooue","name_adm2":"Plateaux","name_en":"Olina","iso":"GA"},"geometry":{"type":"Point","coordinates":[14.29424,-1.6024]}},{"type":"Feature","properties":{"country_en":"Gabon","name":"Ogooue-Lolo","name_adm0":"Gabon","name_adm1":"Ogooue-Lolo","name_en":"Ogooue-Lolo","iso":"GA"},"geometry":{"type":"Point","coordinates":[13,-1]}},{"type":"Feature","properties":{"country_en":"Gabon","name":"Moyen-Ogooue","name_adm0":"Gabon","name_adm1":"Moyen-Ogooue","name_en":"Moyen-Ogooue","iso":"GA"},"geometry":{"type":"Point","coordinates":[10.5,-0.5]}},{"type":"Feature","properties":{"country_en":"Gabon","name":"Nyanga","name_adm0":"Gabon","name_adm1":"Nyanga","name_en":"Nyanga","iso":"GA"},"geometry":{"type":"Point","coordinates":[11,-3]}},{"type":"Feature","properties":{"country_en":"Gabon","name":"Nkan","name_adm0":"Gabon","name_adm1":"Estuaire","name_adm2":"Komo-Mondah","name_en":"Nkan","iso":"GA"},"geometry":{"type":"Point","coordinates":[9.63433,0.70343]}},{"type":"Feature","properties":{"country_en":"Gabon","name":"Haut-Ogooue","name_adm0":"Gabon","name_adm1":"Haut-Ogooue","name_en":"Haut-Ogooue","iso":"GA"},"geometry":{"type":"Point","coordinates":[13.9,-1.2999999999999998]}},{"type":"Feature","properties":{"country_en":"Gabon","name":"Atongo","name_adm0":"Gabon","name_adm1":"Haut-Ogooue","name_adm2":"Sébé-Brikolo","name_en":"Atongo","iso":"GA"},"geometry":{"type":"Point","coordinates":[14.544719999999998,-2.4375]}},{"type":"Feature","properties":{"country_en":"Gabon","name":"Engong","name_adm0":"Gabon","name_adm1":"Estuaire","name_adm2":"Komo","name_en":"Engong","iso":"GA"},"geometry":{"type":"Point","coordinates":[10.1,0.6]}},{"type":"Feature","properties":{"country_en":"Gabon","name":"Iboundji","name_adm0":"Gabon","name_adm1":"Ogooue-Lolo","name_adm2":"Lolo-Bouenguidi","name_en":"Iboundji","iso":"GA"},"geometry":{"type":"Point","coordinates":[11.95,-1.45]}},{"type":"Feature","properties":{"country_en":"Gabon","name":"Kayes Congo","name_adm0":"Gabon","name_adm1":"Nyanga","name_adm2":"Haute-Banio","name_en":"Kayes Congo","iso":"GA"},"geometry":{"type":"Point","coordinates":[11.03642,-3.73517]}},{"type":"Feature","properties":{"country_en":"Gabon","name":"Kendjé","name_adm0":"Gabon","name_adm1":"Ogooue-Martime","name_adm2":"Bendjé","name_en":"Kendjé","iso":"GA"},"geometry":{"type":"Point","coordinates":[9.15,-0.8166699999999999]}},{"type":"Feature","properties":{"country_en":"Gabon","name":"Moulongo I","name_adm0":"Gabon","name_adm1":"Haut-Ogooue","name_adm2":"Mpassa","name_en":"Moulongo I","iso":"GA"},"geometry":{"type":"Point","coordinates":[13.54064,-1.77568]}},{"type":"Feature","properties":{"country_en":"Gabon","name":"Noya","name_adm0":"Gabon","name_adm1":"Estuaire","name_adm2":"Noya","name_en":"Noya","iso":"GA"},"geometry":{"type":"Point","coordinates":[9.38507,0.45043399999999995]}},{"type":"Feature","properties":{"country_en":"Gabon","name":"Sébé-Brikolo","name_adm0":"Gabon","name_adm1":"Haut-Ogooue","name_adm2":"Sébé-Brikolo","name_en":"Sébé-Brikolo","iso":"GA"},"geometry":{"type":"Point","coordinates":[14.024047,-1.98641]}},{"type":"Feature","properties":{"country_en":"Gabon","name":"Léconi-Djoué","name_adm0":"Gabon","name_adm1":"Haut-Ogooue","name_adm2":"Léconi-Djoué","name_en":"Léconi-Djoué","iso":"GA"},"geometry":{"type":"Point","coordinates":[14.024047,-1.98641]}},{"type":"Feature","properties":{"country_en":"Gabon","name":"Owendo","name_adm0":"Gabon","name_adm1":"Estuaire","name_adm2":"Komo-Mondah","name_en":"Owendo","iso":"GA"},"geometry":{"type":"Point","coordinates":[9.5,0.28333]}},{"type":"Feature","properties":{"country_en":"Gabon","name":"Basse-Banio","name_adm0":"Gabon","name_adm1":"Nyanga","name_adm2":"Basse-Banio","name_en":"Basse-Banio","iso":"GA"},"geometry":{"type":"Point","coordinates":[10.652532,-3.4190079999999994]}},{"type":"Feature","properties":{"country_en":"Gabon","name":"Bifoum","name_adm0":"Gabon","name_adm1":"Moyen-Ogooue","name_adm2":"Abanga-Bigné","name_en":"Bifoum","iso":"GA"},"geometry":{"type":"Point","coordinates":[10.383329999999999,-0.33333]}},{"type":"Feature","properties":{"country_en":"Gabon","name":"Akok","name_adm0":"Gabon","name_adm1":"Estuaire","name_adm2":"Komo-Mondah","name_en":"Akok","iso":"GA"},"geometry":{"type":"Point","coordinates":[9.74272,0.51209]}},{"type":"Feature","properties":{"country_en":"Gabon","name":"Adoué","name_adm0":"Gabon","name_adm1":"Ogooue-Ivindo","name_adm2":"Ivindo","name_en":"Adoué","iso":"GA"},"geometry":{"type":"Point","coordinates":[12.56907,0.5341999999999999]}},{"type":"Feature","properties":{"country_en":"Gabon","name":"Yombi","name_adm0":"Gabon","name_adm1":"Ngounie","name_adm2":"Tsamba-Magotsi","name_en":"Yombi","iso":"GA"},"geometry":{"type":"Point","coordinates":[10.62848,-1.4090399999999998]}},{"type":"Feature","properties":{"country_en":"Gabon","name":"Bokolo","name_adm0":"Gabon","name_adm1":"Ogooue-Martime","name_adm2":"Ndougou","name_en":"Bokolo","iso":"GA"},"geometry":{"type":"Point","coordinates":[9.55151,-0.9170199999999998]}},{"type":"Feature","properties":{"country_en":"Gabon","name":"Douigni","name_adm0":"Gabon","name_adm1":"Nyanga","name_adm2":"Douigni","name_en":"Douigni","iso":"GA"},"geometry":{"type":"Point","coordinates":[10.716133,-3.4419699999999995]}},{"type":"Feature","properties":{"country_en":"Gabon","name":"Ndendé","name_adm0":"Gabon","name_adm1":"Ngounie","name_adm2":"Dola","name_en":"Ndendé","iso":"GA"},"geometry":{"type":"Point","coordinates":[11.56667,-2.2]}},{"type":"Feature","properties":{"country_en":"Gabon","name":"Ogoulou","name_adm0":"Gabon","name_adm1":"Ngounie","name_adm2":"Ogoulou","name_en":"Ogoulou","iso":"GA"},"geometry":{"type":"Point","coordinates":[11.107177,-1.8591089999999997]}},{"type":"Feature","properties":{"country_en":"Gabon","name":"Ndolou","name_adm0":"Gabon","name_adm1":"Ngounie","name_adm2":"Ndolou","name_en":"Ndolou","iso":"GA"},"geometry":{"type":"Point","coordinates":[11.107177,-1.8591089999999997]}},{"type":"Feature","properties":{"country_en":"Gabon","name":"Boumi-Louetsi","name_adm0":"Gabon","name_adm1":"Ngounie","name_adm2":"Boumi-Louetsi","name_en":"Boumi-Louetsi","iso":"GA"},"geometry":{"type":"Point","coordinates":[11.107177,-1.8591089999999997]}},{"type":"Feature","properties":{"country_en":"Gabon","name":"Haute-Banio","name_adm0":"Gabon","name_adm1":"Nyanga","name_adm2":"Haute-Banio","name_en":"Haute-Banio","iso":"GA"},"geometry":{"type":"Point","coordinates":[10.716133,-3.4419699999999995]}},{"type":"Feature","properties":{"country_en":"Gabon","name":"Fougamou","name_adm0":"Gabon","name_adm1":"Ngounie","name_adm2":"Tsamba-Magotsi","name_en":"Fougamou","iso":"GA"},"geometry":{"type":"Point","coordinates":[11.649999999999999,-1.63333]}},{"type":"Feature","properties":{"country_en":"Gabon","name":"Mouila","name_adm0":"Gabon","name_adm1":"Ngounie","name_adm2":"Douya-Onoy","name_en":"Mouila","iso":"GA"},"geometry":{"type":"Point","coordinates":[11.88333,-1.78333]}},{"type":"Feature","properties":{"country_en":"Gabon","name":"Ozouri","name_adm0":"Gabon","name_adm1":"Ogooue-Martime","name_adm2":"Bendjé","name_en":"Ozouri","iso":"GA"},"geometry":{"type":"Point","coordinates":[8.90104,-1.0182]}},{"type":"Feature","properties":{"country_en":"Gabon","name":"Donguila","name_adm0":"Gabon","name_adm1":"Estuaire","name_adm2":"Komo-Mondah","name_en":"Donguila","iso":"GA"},"geometry":{"type":"Point","coordinates":[9.75,0.21667]}},{"type":"Feature","properties":{"country_en":"Gabon","name":"Nzogmayong","name_adm0":"Gabon","name_adm1":"Woleu-Ntem","name_adm2":"Haut-Komo","name_en":"Nzogmayong","iso":"GA"},"geometry":{"type":"Point","coordinates":[10.36539,0.7173399999999999]}},{"type":"Feature","properties":{"country_en":"Gabon","name":"Popa","name_adm0":"Gabon","name_adm1":"Ogooue-Lolo","name_adm2":"Lolo-Bouenguidi","name_en":"Popa","iso":"GA"},"geometry":{"type":"Point","coordinates":[12.42413,-1.33875]}},{"type":"Feature","properties":{"country_en":"Gabon","name":"Assok","name_adm0":"Gabon","name_adm1":"Woleu-Ntem","name_adm2":"Ntem","name_en":"Assok","iso":"GA"},"geometry":{"type":"Point","coordinates":[11.36667,1.68333]}},{"type":"Feature","properties":{"country_en":"Gabon","name":"Dakar","name_adm0":"Gabon","name_adm1":"Moyen-Ogooue","name_adm2":"Ogooué Et Des Lacs","name_en":"Dakar","iso":"GA"},"geometry":{"type":"Point","coordinates":[10.21667,-0.7]}},{"type":"Feature","properties":{"country_en":"Gabon","name":"Lekori","name_adm0":"Gabon","name_adm1":"Haut-Ogooue","name_adm2":"Léconi-Djoué","name_en":"Lekori","iso":"GA"},"geometry":{"type":"Point","coordinates":[14.43316,-1.2536499999999997]}},{"type":"Feature","properties":{"country_en":"Gabon","name":"Mandji","name_adm0":"Gabon","name_adm1":"Ngounie","name_adm2":"Ndolou","name_en":"Mandji","iso":"GA"},"geometry":{"type":"Point","coordinates":[10.95,-1.73333]}},{"type":"Feature","properties":{"country_en":"Gabon","name":"Tsamba-Magotsi","name_adm0":"Gabon","name_adm1":"Ngounie","name_adm2":"Tsamba-Magotsi","name_en":"Tsamba-Magotsi","iso":"GA"},"geometry":{"type":"Point","coordinates":[10.71,-1.16]}},{"type":"Feature","properties":{"country_en":"Gabon","name":"Dola","name_adm0":"Gabon","name_adm1":"Ngounie","name_adm2":"Dola","name_en":"Dola","iso":"GA"},"geometry":{"type":"Point","coordinates":[11.362,-2.349]}},{"type":"Feature","properties":{"country_en":"Gabon","name":"Mouloundou","name_adm0":"Gabon","name_adm1":"Ogooue-Lolo","name_adm2":"Mouloundou","name_en":"Mouloundou","iso":"GA"},"geometry":{"type":"Point","coordinates":[13.009,-0.541]}},{"type":"Feature","properties":{"country_en":"Gabon","name":"Mougoutsi","name_adm0":"Gabon","name_adm1":"Nyanga","name_adm2":"Mougoutsi","name_en":"Mougoutsi","iso":"GA"},"geometry":{"type":"Point","coordinates":[10.716133,-3.4419699999999995]}},{"type":"Feature","properties":{"country_en":"Gabon","name":"Ongongo","name_adm0":"Gabon","name_adm1":"Woleu-Ntem","name_adm2":"Woleu","name_en":"Ongongo","iso":"GA"},"geometry":{"type":"Point","coordinates":[11.697319999999998,1.15716]}},{"type":"Feature","properties":{"country_en":"Gabon","name":"Léboumbi-Leyou","name_adm0":"Gabon","name_adm1":"Haut-Ogooue","name_adm2":"Léboumbi-Leyou","name_en":"Léboumbi-Leyou","iso":"GA"},"geometry":{"type":"Point","coordinates":[14.024047,-1.98641]}},{"type":"Feature","properties":{"country_en":"Gabon","name":"Booué","name_adm0":"Gabon","name_adm1":"Ogooue-Ivindo","name_adm2":"Lopé","name_en":"Booué","iso":"GA"},"geometry":{"type":"Point","coordinates":[11.93846,-0.09207]}},{"type":"Feature","properties":{"country_en":"Gabon","name":"Lolo-Bouenguidi","name_adm0":"Gabon","name_adm1":"Ogooue-Lolo","name_adm2":"Lolo-Bouenguidi","name_en":"Lolo-Bouenguidi","iso":"GA"},"geometry":{"type":"Point","coordinates":[11.598909999999998,-0.8280899999999999]}},{"type":"Feature","properties":{"country_en":"Gabon","name":"Komo-Mondah","name_adm0":"Gabon","name_adm1":"Estuaire","name_adm2":"Komo-Mondah","name_en":"Komo-Mondah","iso":"GA"},"geometry":{"type":"Point","coordinates":[9.634,0.124]}},{"type":"Feature","properties":{"country_en":"Gabon","name":"Aboumé","name_adm0":"Gabon","name_adm1":"Estuaire","name_adm2":"Noya","name_en":"Aboumé","iso":"GA"},"geometry":{"type":"Point","coordinates":[9.84163,0.85622]}},{"type":"Feature","properties":{"country_en":"Gabon","name":"Akou","name_adm0":"Gabon","name_adm1":"Haut-Ogooue","name_adm2":"Plateaux","name_en":"Akou","iso":"GA"},"geometry":{"type":"Point","coordinates":[14.615829999999999,-2.15694]}},{"type":"Feature","properties":{"country_en":"Gabon","name":"Ngoumbi","name_adm0":"Gabon","name_adm1":"Ogooue-Martime","name_adm2":"Étimboué","name_en":"Ngoumbi","iso":"GA"},"geometry":{"type":"Point","coordinates":[9.60124,-0.9427]}},{"type":"Feature","properties":{"country_en":"Gabon","name":"Oberting","name_adm0":"Gabon","name_adm1":"Moyen-Ogooue","name_adm2":"Ogooué Et Des Lacs","name_en":"Oberting","iso":"GA"},"geometry":{"type":"Point","coordinates":[9.73333,-0.63333]}},{"type":"Feature","properties":{"country_en":"Gabon","name":"Ndougou","name_adm0":"Gabon","name_adm1":"Ogooue-Martime","name_adm2":"Ndougou","name_en":"Ndougou","iso":"GA"},"geometry":{"type":"Point","coordinates":[8.721426999999998,-0.64775]}},{"type":"Feature","properties":{"country_en":"Gabon","name":"Ngounie","name_adm0":"Gabon","name_adm1":"Ngounie","name_en":"Ngounie","iso":"GA"},"geometry":{"type":"Point","coordinates":[11,-2]}},{"type":"Feature","properties":{"country_en":"Gabon","name":"Bendjé","name_adm0":"Gabon","name_adm1":"Ogooue-Martime","name_adm2":"Bendjé","name_en":"Bendjé","iso":"GA"},"geometry":{"type":"Point","coordinates":[8.732414,-0.6651725]}},{"type":"Feature","properties":{"country_en":"Gabon","name":"Makokou","name_adm0":"Gabon","name_adm1":"Ogooue-Ivindo","name_adm2":"Ivindo","name_en":"Makokou","iso":"GA"},"geometry":{"type":"Point","coordinates":[12.199999999999998,-0.18333]}},{"type":"Feature","properties":{"country_en":"Gabon","name":"Massala","name_adm0":"Gabon","name_adm1":"Nyanga","name_adm2":"Haute-Banio","name_en":"Massala","iso":"GA"},"geometry":{"type":"Point","coordinates":[11.22194,-3.9066699999999996]}},{"type":"Feature","properties":{"country_en":"Gabon","name":"Moukambo","name_adm0":"Gabon","name_adm1":"Nyanga","name_adm2":"Mougoutsi","name_en":"Moukambo","iso":"GA"},"geometry":{"type":"Point","coordinates":[11.63088,-3.07934]}},{"type":"Feature","properties":{"country_en":"Gabon","name":"Mouboungou","name_adm0":"Gabon","name_adm1":"Ngounie","name_adm2":"Douya-Onoy","name_en":"Mouboungou","iso":"GA"},"geometry":{"type":"Point","coordinates":[11.2,-1.55]}},{"type":"Feature","properties":{"country_en":"Gabon","name":"Tsogni","name_adm0":"Gabon","name_adm1":"Nyanga","name_adm2":"Basse-Banio","name_en":"Tsogni","iso":"GA"},"geometry":{"type":"Point","coordinates":[10.160579999999998,-2.80365]}},{"type":"Feature","properties":{"country_en":"Gabon","name":"Tono Sangana","name_adm0":"Gabon","name_adm1":"Nyanga","name_adm2":"Mougoutsi","name_en":"Tono Sangana","iso":"GA"},"geometry":{"type":"Point","coordinates":[11.38333,-2.6999999999999997]}},{"type":"Feature","properties":{"country_en":"Gabon","name":"Sougalam-Fekele","name_adm0":"Gabon","name_adm1":"Ogooue-Ivindo","name_adm2":"Mvoung","name_en":"Sougalam-Fekele","iso":"GA"},"geometry":{"type":"Point","coordinates":[11.99155,0.2987]}},{"type":"Feature","properties":{"country_en":"Gabon","name":"Ivindo","name_adm0":"Gabon","name_adm1":"Ogooue-Ivindo","name_adm2":"Ivindo","name_en":"Ivindo","iso":"GA"},"geometry":{"type":"Point","coordinates":[12.211303,-0.054931]}},{"type":"Feature","properties":{"country_en":"Gabon","name":"Mpassa","name_adm0":"Gabon","name_adm1":"Haut-Ogooue","name_adm2":"Mpassa","name_en":"Mpassa","iso":"GA"},"geometry":{"type":"Point","coordinates":[13.603649,-1.627645]}},{"type":"Feature","properties":{"country_en":"Gabon","name":"Lékoko","name_adm0":"Gabon","name_adm1":"Haut-Ogooue","name_adm2":"Lékoko","name_en":"Lékoko","iso":"GA"},"geometry":{"type":"Point","coordinates":[14.024047,-1.98641]}},{"type":"Feature","properties":{"country_en":"Gabon","name":"Ogooué Et Des Lacs","name_adm0":"Gabon","name_adm1":"Moyen-Ogooue","name_adm2":"Ogooué Et Des Lacs","name_en":"Ogooué Et Des Lacs","iso":"GA"},"geometry":{"type":"Point","coordinates":[10.21175,-0.69092]}},{"type":"Feature","properties":{"country_en":"Gabon","name":"Abanga-Bigné","name_adm0":"Gabon","name_adm1":"Moyen-Ogooue","name_adm2":"Abanga-Bigné","name_en":"Abanga-Bigné","iso":"GA"},"geometry":{"type":"Point","coordinates":[10.003051,-0.593251]}},{"type":"Feature","properties":{"country_en":"Gabon","name":"Douya-Onoy","name_adm0":"Gabon","name_adm1":"Ngounie","name_adm2":"Douya-Onoy","name_en":"Douya-Onoy","iso":"GA"},"geometry":{"type":"Point","coordinates":[11.107177,-1.8591089999999997]}},{"type":"Feature","properties":{"country_en":"Gabon","name":"Ndjolé","name_adm0":"Gabon","name_adm1":"Moyen-Ogooue","name_adm2":"Abanga-Bigné","name_en":"Ndjolé","iso":"GA"},"geometry":{"type":"Point","coordinates":[10.76488,-0.17826999999999998]}},{"type":"Feature","properties":{"country_en":"Gabon","name":"Étimboué","name_adm0":"Gabon","name_adm1":"Ogooue-Martime","name_adm2":"Étimboué","name_en":"Étimboué","iso":"GA"},"geometry":{"type":"Point","coordinates":[8.721426999999998,-0.64775]}},{"type":"Feature","properties":{"country_en":"Gabon","name":"Estuaire","name_adm0":"Gabon","name_adm1":"Estuaire","name_en":"Estuaire","iso":"GA"},"geometry":{"type":"Point","coordinates":[9.999999999999998,0.16667]}},{"type":"Feature","properties":{"country_en":"Gabon","name":"Plateaux","name_adm0":"Gabon","name_adm1":"Haut-Ogooue","name_adm2":"Plateaux","name_en":"Plateaux","iso":"GA"},"geometry":{"type":"Point","coordinates":[14.024047,-1.98641]}},{"type":"Feature","properties":{"country_en":"Gabon","name":"Ntem","name_adm0":"Gabon","name_adm1":"Woleu-Ntem","name_adm2":"Ntem","name_en":"Ntem","iso":"GA"},"geometry":{"type":"Point","coordinates":[10.958862,1.1095435]}},{"type":"Feature","properties":{"country_en":"Gabon","name":"Haut-Komo","name_adm0":"Gabon","name_adm1":"Woleu-Ntem","name_adm2":"Haut-Komo","name_en":"Haut-Komo","iso":"GA"},"geometry":{"type":"Point","coordinates":[10.958862,1.1095435]}},{"type":"Feature","properties":{"country_en":"Gabon","name":"Boumango","name_adm0":"Gabon","name_adm1":"Haut-Ogooue","name_adm2":"Lékoko","name_en":"Boumango","iso":"GA"},"geometry":{"type":"Point","coordinates":[13.61429,-2.22678]}},{"type":"Feature","properties":{"country_en":"Gabon","name":"Lopé","name_adm0":"Gabon","name_adm1":"Ogooue-Ivindo","name_adm2":"Lopé","name_en":"Lopé","iso":"GA"},"geometry":{"type":"Point","coordinates":[11.480712,-0.24169799999999997]}},{"type":"Feature","properties":{"country_en":"Gabon","name":"Okano","name_adm0":"Gabon","name_adm1":"Woleu-Ntem","name_adm2":"Okano","name_en":"Okano","iso":"GA"},"geometry":{"type":"Point","coordinates":[10.958862,1.1095435]}},{"type":"Feature","properties":{"country_en":"Gabon","name":"Franceville","name_adm0":"Gabon","name_adm1":"Haut-Ogooue","name_adm2":"Mpassa","name_en":"Franceville","iso":"GA"},"geometry":{"type":"Point","coordinates":[13.603649,-1.627645]}},{"type":"Feature","properties":{"country_en":"Gabon","name":"Lambaréné","name_adm0":"Gabon","name_adm1":"Moyen-Ogooue","name_adm2":"Ogooué Et Des Lacs","name_en":"Lambaréné","iso":"GA"},"geometry":{"type":"Point","coordinates":[10.21175,-0.69092]}},{"type":"Feature","properties":{"country_en":"Gabon","name":"Libreville","name_adm0":"Gabon","name_adm1":"Estuaire","name_adm2":"Komo-Mondah","name_en":"Libreville","iso":"GA"},"geometry":{"type":"Point","coordinates":[9.4493575,0.394217]}},{"type":"Feature","properties":{"country_en":"Gabon","name":"Mvengué","name_adm0":"Gabon","name_adm1":"Haut-Ogooue","name_adm2":"Mpassa","name_en":"Mvengué","iso":"GA"},"geometry":{"type":"Point","coordinates":[13.41933,-1.65686]}},{"type":"Feature","properties":{"country_en":"Gabon","name":"Ogooue-Martime","name_adm0":"Gabon","name_adm1":"Ogooue-Martime","name_en":"Ogooue-Martime","iso":"GA"},"geometry":{"type":"Point","coordinates":[8.721426999999998,-0.64775]}},{"type":"Feature","properties":{"country_en":"Gabon","name":"Woleu-Ntem","name_adm0":"Gabon","name_adm1":"Woleu-Ntem","name_en":"Woleu-Ntem","iso":"GA"},"geometry":{"type":"Point","coordinates":[10.958862,1.1095435]}},{"type":"Feature","properties":{"country_en":"Gabon","name":"Mbigou","name_adm0":"Gabon","name_adm1":"Ngounie","name_adm2":"Boumi-Louetsi","name_en":"Mbigou","iso":"GA"},"geometry":{"type":"Point","coordinates":[10.72141,-1.65001]}},{"type":"Feature","properties":{"country_en":"Gabon","name":"Moukabou","name_adm0":"Gabon","name_adm1":"Ngounie","name_adm2":"Ogoulou","name_en":"Moukabou","iso":"GA"},"geometry":{"type":"Point","coordinates":[10.62246,-1.5707799999999998]}},{"type":"Feature","properties":{"country_en":"Gabon","name":"Ndendé","name_adm0":"Gabon","name_adm1":"Nyanga","name_adm2":"Douigni","name_en":"Ndendé","iso":"GA"},"geometry":{"type":"Point","coordinates":[11.10883,-2.92782]}},{"type":"Feature","properties":{"country_en":"Gabon","name":"Mvoung","name_adm0":"Gabon","name_adm1":"Ogooue-Ivindo","name_adm2":"Mvoung","name_en":"Mvoung","iso":"GA"},"geometry":{"type":"Point","coordinates":[12.211303,-0.054931]}},{"type":"Feature","properties":{"country_en":"Gabon","name":"Mouanda","name_adm0":"Gabon","name_adm1":"Haut-Ogooue","name_adm2":"Léboumbi-Leyou","name_en":"Mouanda","iso":"GA"},"geometry":{"type":"Point","coordinates":[13.21775,-1.55746]}},{"type":"Feature","properties":{"country_en":"Gabon","name":"Woleu","name_adm0":"Gabon","name_adm1":"Woleu-Ntem","name_adm2":"Woleu","name_en":"Woleu","iso":"GA"},"geometry":{"type":"Point","coordinates":[11.585988999999998,1.597759]}},{"type":"Feature","properties":{"country_en":"Gabon","name":"Louetsi-Wano","name_adm0":"Gabon","name_adm1":"Ngounie","name_adm2":"Louetsi-Wano","name_en":"Louetsi-Wano","iso":"GA"},"geometry":{"type":"Point","coordinates":[11.516,-2.18]}},{"type":"Feature","properties":{"country_en":"Gabon","name":"Komo","name_adm0":"Gabon","name_adm1":"Estuaire","name_adm2":"Komo","name_en":"Komo","iso":"GA"},"geometry":{"type":"Point","coordinates":[10.350999999999999,0.246]}},{"type":"Feature","properties":{"country_en":"Gabon","name":"Sangala","name_adm0":"Gabon","name_adm1":"Ngounie","name_adm2":"Ndolou","name_en":"Sangala","iso":"GA"},"geometry":{"type":"Point","coordinates":[10.399999999999999,-1.7]}},{"type":"Feature","properties":{"country_en":"Gabon","name":"Mboula","name_adm0":"Gabon","name_adm1":"Nyanga","name_adm2":"Mougoutsi","name_en":"Mboula","iso":"GA"},"geometry":{"type":"Point","coordinates":[10.627409999999998,-2.69432]}},{"type":"Feature","properties":{"country_en":"Gabon","name":"Kombo","name_adm0":"Gabon","name_adm1":"Ogooue-Ivindo","name_adm2":"Lopé","name_en":"Kombo","iso":"GA"},"geometry":{"type":"Point","coordinates":[12.36667,-0.33333]}},{"type":"Feature","properties":{"country_en":"Gabon","name":"Ayem","name_adm0":"Gabon","name_adm1":"Ogooue-Ivindo","name_adm2":"Lopé","name_en":"Ayem","iso":"GA"},"geometry":{"type":"Point","coordinates":[11.36462,-0.11108]}},{"type":"Feature","properties":{"country_en":"Gabon","name":"Yéno","name_adm0":"Gabon","name_adm1":"Ogooue-Martime","name_adm2":"Étimboué","name_en":"Yéno","iso":"GA"},"geometry":{"type":"Point","coordinates":[9.34232,-1.34466]}},{"type":"Feature","properties":{"country_en":"Gabon","name":"Tsogui","name_adm0":"Gabon","name_adm1":"Nyanga","name_adm2":"Basse-Banio","name_en":"Tsogui","iso":"GA"},"geometry":{"type":"Point","coordinates":[10.46808,-3.04481]}},{"type":"Feature","properties":{"country_en":"Gabon","name":"Mélagni","name_adm0":"Gabon","name_adm1":"Ogooue-Ivindo","name_adm2":"Lopé","name_en":"Mélagni","iso":"GA"},"geometry":{"type":"Point","coordinates":[11.70924,-0.51892]}},{"type":"Feature","properties":{"country_en":"Gabon","name":"Mboungou","name_adm0":"Gabon","name_adm1":"Ngounie","name_adm2":"Dola","name_en":"Mboungou","iso":"GA"},"geometry":{"type":"Point","coordinates":[11.15,-2.08333]}},{"type":"Feature","properties":{"country_en":"Gabon","name":"Kanda","name_adm0":"Gabon","name_adm1":"Ngounie","name_adm2":"Ogoulou","name_en":"Kanda","iso":"GA"},"geometry":{"type":"Point","coordinates":[11.458689999999999,-1.8009500000000003]}},{"type":"Feature","properties":{"country_en":"Gabon","name":"Issibou","name_adm0":"Gabon","name_adm1":"Nyanga","name_adm2":"Mougoutsi","name_en":"Issibou","iso":"GA"},"geometry":{"type":"Point","coordinates":[11.16667,-2.6999999999999997]}},{"type":"Feature","properties":{"country_en":"Gabon","name":"Ibanga","name_adm0":"Gabon","name_adm1":"Nyanga","name_adm2":"Mougoutsi","name_en":"Ibanga","iso":"GA"},"geometry":{"type":"Point","coordinates":[10.74382,-2.74541]}},{"type":"Feature","properties":{"country_en":"Gabon","name":"Ekwy","name_adm0":"Gabon","name_adm1":"Haut-Ogooue","name_adm2":"Plateaux","name_en":"Ekwy","iso":"GA"},"geometry":{"type":"Point","coordinates":[14.05935,-1.79604]}},{"type":"Feature","properties":{"country_en":"Gabon","name":"Douli","name_adm0":"Gabon","name_adm1":"Nyanga","name_adm2":"Mougoutsi","name_en":"Douli","iso":"GA"},"geometry":{"type":"Point","coordinates":[11.64048,-3.29301]}},{"type":"Feature","properties":{"country_en":"Gabon","name":"Douaniang","name_adm0":"Gabon","name_adm1":"Estuaire","name_adm2":"Komo","name_en":"Douaniang","iso":"GA"},"geometry":{"type":"Point","coordinates":[10.03333,0.28333]}},{"type":"Feature","properties":{"country_en":"Gabon","name":"Achouka","name_adm0":"Gabon","name_adm1":"Ogooue-Ivindo","name_adm2":"Lopé","name_en":"Achouka","iso":"GA"},"geometry":{"type":"Point","coordinates":[11.77921,-0.09595]}},{"type":"Feature","properties":{"country_en":"Gabon","name":"Mayengué","name_adm0":"Gabon","name_adm1":"Ngounie","name_adm2":"Ogoulou","name_en":"Mayengué","iso":"GA"},"geometry":{"type":"Point","coordinates":[11.81667,-1.28333]}},{"type":"Feature","properties":{"country_en":"Gabon","name":"Pembi","name_adm0":"Gabon","name_adm1":"Nyanga","name_adm2":"Basse-Banio","name_en":"Pembi","iso":"GA"},"geometry":{"type":"Point","coordinates":[10.691429999999999,-3.28846]}},{"type":"Feature","properties":{"country_en":"Gabon","name":"Paguilou","name_adm0":"Gabon","name_adm1":"Ogooue-Martime","name_adm2":"Bendjé","name_en":"Paguilou","iso":"GA"},"geometry":{"type":"Point","coordinates":[9.53311,-1.17838]}},{"type":"Feature","properties":{"country_en":"Gabon","name":"Ongouendjo","name_adm0":"Gabon","name_adm1":"Ogooue-Martime","name_adm2":"Étimboué","name_en":"Ongouendjo","iso":"GA"},"geometry":{"type":"Point","coordinates":[9.08121,-1.37836]}},{"type":"Feature","properties":{"country_en":"Gabon","name":"Moutassou","name_adm0":"Gabon","name_adm1":"Ngounie","name_adm2":"Douya-Onoy","name_en":"Moutassou","iso":"GA"},"geometry":{"type":"Point","coordinates":[11.03877,-2.05824]}},{"type":"Feature","properties":{"country_en":"Gabon","name":"Macadium","name_adm0":"Gabon","name_adm1":"Ogooue-Lolo","name_adm2":"Mouloundou","name_en":"Macadium","iso":"GA"},"geometry":{"type":"Point","coordinates":[12.41667,-0.56667]}},{"type":"Feature","properties":{"country_en":"Gabon","name":"Léwou","name_adm0":"Gabon","name_adm1":"Haut-Ogooue","name_adm2":"Plateaux","name_en":"Léwou","iso":"GA"},"geometry":{"type":"Point","coordinates":[14.13234,-1.77849]}},{"type":"Feature","properties":{"country_en":"Gabon","name":"Lekeï II","name_adm0":"Gabon","name_adm1":"Haut-Ogooue","name_adm2":"Léconi-Djoué","name_en":"Lekeï II","iso":"GA"},"geometry":{"type":"Point","coordinates":[13.89576,-1.47722]}},{"type":"Feature","properties":{"country_en":"Gabon","name":"Ibamba","name_adm0":"Gabon","name_adm1":"Ngounie","name_adm2":"Dola","name_en":"Ibamba","iso":"GA"},"geometry":{"type":"Point","coordinates":[11.11667,-2.23333]}},{"type":"Feature","properties":{"country_en":"Gabon","name":"Gongoué","name_adm0":"Gabon","name_adm1":"Ogooue-Martime","name_adm2":"Bendjé","name_en":"Gongoué","iso":"GA"},"geometry":{"type":"Point","coordinates":[9.2,-0.53333]}},{"type":"Feature","properties":{"country_en":"Gabon","name":"Etouk","name_adm0":"Gabon","name_adm1":"Woleu-Ntem","name_adm2":"Okano","name_en":"Etouk","iso":"GA"},"geometry":{"type":"Point","coordinates":[11.40052,0.81783]}},{"type":"Feature","properties":{"country_en":"Gabon","name":"Batanga","name_adm0":"Gabon","name_adm1":"Ogooue-Martime","name_adm2":"Bendjé","name_en":"Batanga","iso":"GA"},"geometry":{"type":"Point","coordinates":[9.299999999999999,-0.35]}},{"type":"Feature","properties":{"country_en":"Gabon","name":"Avang","name_adm0":"Gabon","name_adm1":"Woleu-Ntem","name_adm2":"Haut-Komo","name_en":"Avang","iso":"GA"},"geometry":{"type":"Point","coordinates":[11.695359999999999,1.12917]}},{"type":"Feature","properties":{"country_en":"Gabon","name":"Ancien Matica","name_adm0":"Gabon","name_adm1":"Ngounie","name_adm2":"Ogoulou","name_en":"Ancien Matica","iso":"GA"},"geometry":{"type":"Point","coordinates":[11.45,-0.9333299999999999]}},{"type":"Feature","properties":{"country_en":"Gabon","name":"Idimba","name_adm0":"Gabon","name_adm1":"Ogooue-Lolo","name_adm2":"Lolo-Bouenguidi","name_en":"Idimba","iso":"GA"},"geometry":{"type":"Point","coordinates":[11.9,-1.08333]}},{"type":"Feature","properties":{"country_en":"Gabon","name":"Mful II","name_adm0":"Gabon","name_adm1":"Woleu-Ntem","name_adm2":"Okano","name_en":"Mful II","iso":"GA"},"geometry":{"type":"Point","coordinates":[11.51532,0.9540900000000001]}},{"type":"Feature","properties":{"country_en":"Gabon","name":"Mouamba","name_adm0":"Gabon","name_adm1":"Ngounie","name_adm2":"Dola","name_en":"Mouamba","iso":"GA"},"geometry":{"type":"Point","coordinates":[11.53333,-2.4666699999999997]}},{"type":"Feature","properties":{"country_en":"Gabon","name":"Pounga-Nganda","name_adm0":"Gabon","name_adm1":"Nyanga","name_adm2":"Mougoutsi","name_en":"Pounga-Nganda","iso":"GA"},"geometry":{"type":"Point","coordinates":[10.87964,-2.98079]}},{"type":"Feature","properties":{"country_en":"Gabon","name":"Obelo","name_adm0":"Gabon","name_adm1":"Estuaire","name_adm2":"Komo-Mondah","name_en":"Obelo","iso":"GA"},"geometry":{"type":"Point","coordinates":[9.41667,0.11666999999999998]}},{"type":"Feature","properties":{"country_en":"Gabon","name":"Nyanga Moubighou","name_adm0":"Gabon","name_adm1":"Ngounie","name_adm2":"Ogoulou","name_en":"Nyanga Moubighou","iso":"GA"},"geometry":{"type":"Point","coordinates":[11.38333,-1.9]}},{"type":"Feature","properties":{"country_en":"Gabon","name":"Lebengo","name_adm0":"Gabon","name_adm1":"Ngounie","name_adm2":"Boumi-Louetsi","name_en":"Lebengo","iso":"GA"},"geometry":{"type":"Point","coordinates":[11.85,-2.06667]}},{"type":"Feature","properties":{"country_en":"Gabon","name":"Lébamba","name_adm0":"Gabon","name_adm1":"Ngounie","name_adm2":"Louetsi-Wano","name_en":"Lébamba","iso":"GA"},"geometry":{"type":"Point","coordinates":[11.46978,-2.21213]}},{"type":"Feature","properties":{"country_en":"Gabon","name":"Dissala","name_adm0":"Gabon","name_adm1":"Ngounie","name_adm2":"Douya-Onoy","name_en":"Dissala","iso":"GA"},"geometry":{"type":"Point","coordinates":[10.633809999999999,-2.32302]}},{"type":"Feature","properties":{"country_en":"Gabon","name":"Dimbou","name_adm0":"Gabon","name_adm1":"Ngounie","name_adm2":"Ogoulou","name_en":"Dimbou","iso":"GA"},"geometry":{"type":"Point","coordinates":[11.86667,-1.48333]}},{"type":"Feature","properties":{"country_en":"Gabon","name":"Bigouenya","name_adm0":"Gabon","name_adm1":"Moyen-Ogooue","name_adm2":"Ogooué Et Des Lacs","name_en":"Bigouenya","iso":"GA"},"geometry":{"type":"Point","coordinates":[10.35,-0.85]}},{"type":"Feature","properties":{"country_en":"Gabon","name":"Imboko","name_adm0":"Gabon","name_adm1":"Nyanga","name_adm2":"Mougoutsi","name_en":"Imboko","iso":"GA"},"geometry":{"type":"Point","coordinates":[11.083329999999998,-2.96667]}},{"type":"Feature","properties":{"country_en":"Gabon","name":"Igouba","name_adm0":"Gabon","name_adm1":"Ngounie","name_adm2":"Ogoulou","name_en":"Igouba","iso":"GA"},"geometry":{"type":"Point","coordinates":[11.55,-1.66667]}},{"type":"Feature","properties":{"country_en":"Gabon","name":"Sindara","name_adm0":"Gabon","name_adm1":"Ngounie","name_adm2":"Tsamba-Magotsi","name_en":"Sindara","iso":"GA"},"geometry":{"type":"Point","coordinates":[10.6595,-1.03606]}},{"type":"Feature","properties":{"country_en":"Gabon","name":"Sam","name_adm0":"Gabon","name_adm1":"Woleu-Ntem","name_adm2":"Okano","name_en":"Sam","iso":"GA"},"geometry":{"type":"Point","coordinates":[11.25701,0.98752]}},{"type":"Feature","properties":{"country_en":"Gabon","name":"Massoukou","name_adm0":"Gabon","name_adm1":"Ogooue-Lolo","name_adm2":"Lolo-Bouenguidi","name_en":"Massoukou","iso":"GA"},"geometry":{"type":"Point","coordinates":[12.03237,-1.4161899999999998]}},{"type":"Feature","properties":{"country_en":"Gabon","name":"Gabon","name_adm0":"Gabon","name_en":"Gabon","iso":"GA"},"geometry":{"type":"Point","coordinates":[11.598909999999998,-0.8280899999999999]}},{"type":"Feature","properties":{"country_en":"Gabon","name":"Mabanda","name_adm0":"Gabon","name_adm1":"Nyanga","name_adm2":"Mougoutsi","name_en":"Mabanda","iso":"GA"},"geometry":{"type":"Point","coordinates":[11.10374,-3.8703599999999994]}},{"type":"Feature","properties":{"country_en":"Gabon","name":"Mitoungou","name_adm0":"Gabon","name_adm1":"Ogooue-Lolo","name_adm2":"Mouloundou","name_en":"Mitoungou","iso":"GA"},"geometry":{"type":"Point","coordinates":[12.08954,-1.4021]}},{"type":"Feature","properties":{"country_en":"Gabon","name":"Moukouanga","name_adm0":"Gabon","name_adm1":"Ngounie","name_adm2":"Boumi-Louetsi","name_en":"Moukouanga","iso":"GA"},"geometry":{"type":"Point","coordinates":[11.61667,-2.13333]}},{"type":"Feature","properties":{"country_en":"Gabon","name":"Akom","name_adm0":"Gabon","name_adm1":"Woleu-Ntem","name_adm2":"Ntem","name_en":"Akom","iso":"GA"},"geometry":{"type":"Point","coordinates":[11.47727,1.49824]}},{"type":"Feature","properties":{"country_en":"Gabon","name":"Yetsou II","name_adm0":"Gabon","name_adm1":"Ngounie","name_adm2":"Douya-Onoy","name_en":"Yetsou II","iso":"GA"},"geometry":{"type":"Point","coordinates":[10.688029999999998,-2.16008]}}]}