{"type":"FeatureCollection","features":[{"type":"Feature","properties":{"country_en":"Gambia","name":"Central River","name_adm0":"The Gambia","name_adm1":"Central River","name_en":"Central River","iso":"GM"},"geometry":{"type":"Point","coordinates":[-14.916670000000002,13.58333]}},{"type":"Feature","properties":{"country_en":"Gambia","name":"Soma","name_adm0":"The Gambia","name_adm1":"Lower River","name_en":"Soma","iso":"GM"},"geometry":{"type":"Point","coordinates":[-15.53333,13.433329999999998]}},{"type":"Feature","properties":{"country_en":"Gambia","name":"Piniai Fula Kunda","name_adm0":"The Gambia","name_adm1":"Central River","name_en":"Piniai Fula Kunda","iso":"GM"},"geometry":{"type":"Point","coordinates":[-15.28333,13.55]}},{"type":"Feature","properties":{"country_en":"Gambia","name":"Sika","name_adm0":"The Gambia","name_adm1":"North Bank","name_en":"Sika","iso":"GM"},"geometry":{"type":"Point","coordinates":[-16.34583,13.35472]}},{"type":"Feature","properties":{"country_en":"Gambia","name":"Western","name_adm0":"The Gambia","name_adm1":"Western","name_en":"Western","iso":"GM"},"geometry":{"type":"Point","coordinates":[-16.33333,13.25]}},{"type":"Feature","properties":{"country_en":"Gambia","name":"Kaiaf","name_adm0":"The Gambia","name_adm1":"Lower River","name_en":"Kaiaf","iso":"GM"},"geometry":{"type":"Point","coordinates":[-15.61667,13.4]}},{"type":"Feature","properties":{"country_en":"Gambia","name":"Madina Umfally","name_adm0":"The Gambia","name_adm1":"Central River","name_en":"Madina Umfally","iso":"GM"},"geometry":{"type":"Point","coordinates":[-14.949999999999998,13.53333]}},{"type":"Feature","properties":{"country_en":"Gambia","name":"Gambisara","name_adm0":"The Gambia","name_adm1":"Upper River","name_en":"Gambisara","iso":"GM"},"geometry":{"type":"Point","coordinates":[-14.31667,13.23333]}},{"type":"Feature","properties":{"country_en":"Gambia","name":"Sinchu Samba Jawo","name_adm0":"The Gambia","name_adm1":"Central River","name_en":"Sinchu Samba Jawo","iso":"GM"},"geometry":{"type":"Point","coordinates":[-14.18333,13.51667]}},{"type":"Feature","properties":{"country_en":"Gambia","name":"Bati Jaha","name_adm0":"The Gambia","name_adm1":"Central River","name_en":"Bati Jaha","iso":"GM"},"geometry":{"type":"Point","coordinates":[-15.116669999999997,13.75]}},{"type":"Feature","properties":{"country_en":"Gambia","name":"Yoro Beri Kunda","name_adm0":"The Gambia","name_adm1":"Central River","name_en":"Yoro Beri Kunda","iso":"GM"},"geometry":{"type":"Point","coordinates":[-14.749999999999998,13.5]}},{"type":"Feature","properties":{"country_en":"Gambia","name":"Faraba Banta","name_adm0":"The Gambia","name_adm1":"Western","name_en":"Faraba Banta","iso":"GM"},"geometry":{"type":"Point","coordinates":[-16.52639,13.247219999999999]}},{"type":"Feature","properties":{"country_en":"Gambia","name":"Kwinella","name_adm0":"The Gambia","name_adm1":"Lower River","name_en":"Kwinella","iso":"GM"},"geometry":{"type":"Point","coordinates":[-15.799999999999999,13.4]}},{"type":"Feature","properties":{"country_en":"Gambia","name":"Jamwelly","name_adm0":"The Gambia","name_adm1":"Upper River","name_en":"Jamwelly","iso":"GM"},"geometry":{"type":"Point","coordinates":[-14.449999999999998,13.46667]}},{"type":"Feature","properties":{"country_en":"Gambia","name":"Sutukoba","name_adm0":"The Gambia","name_adm1":"Upper River","name_en":"Sutukoba","iso":"GM"},"geometry":{"type":"Point","coordinates":[-14.01667,13.5]}},{"type":"Feature","properties":{"country_en":"Gambia","name":"Gunjur","name_adm0":"The Gambia","name_adm1":"Western","name_en":"Gunjur","iso":"GM"},"geometry":{"type":"Point","coordinates":[-16.73389,13.20194]}},{"type":"Feature","properties":{"country_en":"Gambia","name":"Banjul","name_adm0":"The Gambia","name_adm1":"Banjul","name_en":"Banjul","iso":"GM"},"geometry":{"type":"Point","coordinates":[-16.57803,13.45274]}},{"type":"Feature","properties":{"country_en":"Gambia","name":"Batelling","name_adm0":"The Gambia","name_adm1":"Lower River","name_en":"Batelling","iso":"GM"},"geometry":{"type":"Point","coordinates":[-15.85,13.4]}},{"type":"Feature","properties":{"country_en":"Gambia","name":"Baro Kunda","name_adm0":"The Gambia","name_adm1":"Lower River","name_en":"Baro Kunda","iso":"GM"},"geometry":{"type":"Point","coordinates":[-15.266669999999998,13.48333]}},{"type":"Feature","properties":{"country_en":"Gambia","name":"Abuko","name_adm0":"The Gambia","name_adm1":"Western","name_en":"Abuko","iso":"GM"},"geometry":{"type":"Point","coordinates":[-16.65583,13.40417]}},{"type":"Feature","properties":{"country_en":"Gambia","name":"Salikene","name_adm0":"The Gambia","name_adm1":"North Bank","name_en":"Salikene","iso":"GM"},"geometry":{"type":"Point","coordinates":[-15.966669999999999,13.48333]}},{"type":"Feature","properties":{"country_en":"Gambia","name":"Banjul","name_adm0":"The Gambia","name_adm1":"Banjul","name_en":"Banjul","iso":"GM"},"geometry":{"type":"Point","coordinates":[-16.58333,13.449999999999998]}},{"type":"Feature","properties":{"country_en":"Gambia","name":"Manna","name_adm0":"The Gambia","name_adm1":"Central River","name_en":"Manna","iso":"GM"},"geometry":{"type":"Point","coordinates":[-14.8,13.58333]}},{"type":"Feature","properties":{"country_en":"Gambia","name":"Beretto","name_adm0":"The Gambia","name_adm1":"North Bank","name_en":"Beretto","iso":"GM"},"geometry":{"type":"Point","coordinates":[-15.58333,13.55]}},{"type":"Feature","properties":{"country_en":"Gambia","name":"Diabugu Tenda","name_adm0":"The Gambia","name_adm1":"Upper River","name_en":"Diabugu Tenda","iso":"GM"},"geometry":{"type":"Point","coordinates":[-14.41667,13.38333]}},{"type":"Feature","properties":{"country_en":"Gambia","name":"Kau-ur","name_adm0":"The Gambia","name_adm1":"Central River","name_en":"Kau-ur","iso":"GM"},"geometry":{"type":"Point","coordinates":[-15.33333,13.7]}},{"type":"Feature","properties":{"country_en":"Gambia","name":"Bondali Jola","name_adm0":"The Gambia","name_adm1":"Western","name_en":"Bondali Jola","iso":"GM"},"geometry":{"type":"Point","coordinates":[-15.916669999999998,13.23333]}},{"type":"Feature","properties":{"country_en":"Gambia","name":"Yundum","name_adm0":"The Gambia","name_adm1":"Western","name_en":"Yundum","iso":"GM"},"geometry":{"type":"Point","coordinates":[-16.67278,13.34556]}},{"type":"Feature","properties":{"country_en":"Gambia","name":"Kudang","name_adm0":"The Gambia","name_adm1":"Central River","name_en":"Kudang","iso":"GM"},"geometry":{"type":"Point","coordinates":[-15.083329999999998,13.68333]}},{"type":"Feature","properties":{"country_en":"Gambia","name":"Galoya","name_adm0":"The Gambia","name_adm1":"North Bank","name_en":"Galoya","iso":"GM"},"geometry":{"type":"Point","coordinates":[-16.6175,13.33111]}},{"type":"Feature","properties":{"country_en":"Gambia","name":"Chisay","name_adm0":"The Gambia","name_adm1":"North Bank","name_en":"Chisay","iso":"GM"},"geometry":{"type":"Point","coordinates":[-16.3,13.5]}},{"type":"Feature","properties":{"country_en":"Gambia","name":"Dai Mandinka","name_adm0":"The Gambia","name_adm1":"North Bank","name_en":"Dai Mandinka","iso":"GM"},"geometry":{"type":"Point","coordinates":[-15.816669999999998,13.55]}},{"type":"Feature","properties":{"country_en":"Gambia","name":"Darsilami","name_adm0":"The Gambia","name_adm1":"Upper River","name_en":"Darsilami","iso":"GM"},"geometry":{"type":"Point","coordinates":[-14.266669999999998,13.4]}},{"type":"Feature","properties":{"country_en":"Gambia","name":"Demba Kali","name_adm0":"The Gambia","name_adm1":"Central River","name_en":"Demba Kali","iso":"GM"},"geometry":{"type":"Point","coordinates":[-14.65,13.58333]}},{"type":"Feature","properties":{"country_en":"Gambia","name":"Dipa Kunda","name_adm0":"The Gambia","name_adm1":"North Bank","name_en":"Dipa Kunda","iso":"GM"},"geometry":{"type":"Point","coordinates":[-15.46667,13.566669999999998]}},{"type":"Feature","properties":{"country_en":"Gambia","name":"Dobang Kunda","name_adm0":"The Gambia","name_adm1":"Central River","name_en":"Dobang Kunda","iso":"GM"},"geometry":{"type":"Point","coordinates":[-14.63333,13.41667]}},{"type":"Feature","properties":{"country_en":"Gambia","name":"Garawol","name_adm0":"The Gambia","name_adm1":"Upper River","name_en":"Garawol","iso":"GM"},"geometry":{"type":"Point","coordinates":[-13.95,13.41667]}},{"type":"Feature","properties":{"country_en":"Gambia","name":"Kulari","name_adm0":"The Gambia","name_adm1":"Upper River","name_en":"Kulari","iso":"GM"},"geometry":{"type":"Point","coordinates":[-14.08333,13.4]}},{"type":"Feature","properties":{"country_en":"Gambia","name":"Manneh Kunda","name_adm0":"The Gambia","name_adm1":"Upper River","name_en":"Manneh Kunda","iso":"GM"},"geometry":{"type":"Point","coordinates":[-14.21667,13.299999999999999]}},{"type":"Feature","properties":{"country_en":"Gambia","name":"Nyangan","name_adm0":"The Gambia","name_adm1":"Central River","name_en":"Nyangan","iso":"GM"},"geometry":{"type":"Point","coordinates":[-14.983329999999999,13.78333]}},{"type":"Feature","properties":{"country_en":"Gambia","name":"Sukuta","name_adm0":"The Gambia","name_adm1":"Western","name_en":"Sukuta","iso":"GM"},"geometry":{"type":"Point","coordinates":[-16.70815,13.41033]}},{"type":"Feature","properties":{"country_en":"Gambia","name":"Sere Kunda","name_adm0":"The Gambia","name_adm1":"Western","name_en":"Sere Kunda","iso":"GM"},"geometry":{"type":"Point","coordinates":[-16.681389999999997,13.4425]}},{"type":"Feature","properties":{"country_en":"Gambia","name":"Barra","name_adm0":"The Gambia","name_adm1":"North Bank","name_en":"Barra","iso":"GM"},"geometry":{"type":"Point","coordinates":[-16.54556,13.48278]}},{"type":"Feature","properties":{"country_en":"Gambia","name":"Jessadi","name_adm0":"The Gambia","name_adm1":"Central River","name_en":"Jessadi","iso":"GM"},"geometry":{"type":"Point","coordinates":[-15.299999999999999,13.63333]}},{"type":"Feature","properties":{"country_en":"Gambia","name":"Sinchu Alagi","name_adm0":"The Gambia","name_adm1":"Western","name_en":"Sinchu Alagi","iso":"GM"},"geometry":{"type":"Point","coordinates":[-16.652183,13.392755999999999]}},{"type":"Feature","properties":{"country_en":"Gambia","name":"Nja Kunda","name_adm0":"The Gambia","name_adm1":"North Bank","name_en":"Nja Kunda","iso":"GM"},"geometry":{"type":"Point","coordinates":[-15.916669999999998,13.55]}},{"type":"Feature","properties":{"country_en":"Gambia","name":"No Kunda","name_adm0":"The Gambia","name_adm1":"North Bank","name_en":"No Kunda","iso":"GM"},"geometry":{"type":"Point","coordinates":[-15.83333,13.566669999999998]}},{"type":"Feature","properties":{"country_en":"Gambia","name":"Lamin","name_adm0":"The Gambia","name_adm1":"North Bank","name_en":"Lamin","iso":"GM"},"geometry":{"type":"Point","coordinates":[-16.43389,13.35222]}},{"type":"Feature","properties":{"country_en":"Gambia","name":"Dankunku","name_adm0":"The Gambia","name_adm1":"Central River","name_en":"Dankunku","iso":"GM"},"geometry":{"type":"Point","coordinates":[-15.316670000000002,13.566669999999998]}},{"type":"Feature","properties":{"country_en":"Gambia","name":"Lower River","name_adm0":"The Gambia","name_adm1":"Lower River","name_en":"Lower River","iso":"GM"},"geometry":{"type":"Point","coordinates":[-15.659999999999998,13.4]}},{"type":"Feature","properties":{"country_en":"Gambia","name":"Janjanbureh","name_adm0":"The Gambia","name_adm1":"Central River","name_en":"Janjanbureh","iso":"GM"},"geometry":{"type":"Point","coordinates":[-14.766670000000001,13.53333]}},{"type":"Feature","properties":{"country_en":"Gambia","name":"Kerewan","name_adm0":"The Gambia","name_adm1":"North Bank","name_en":"Kerewan","iso":"GM"},"geometry":{"type":"Point","coordinates":[-16.08879,13.4898]}},{"type":"Feature","properties":{"country_en":"Gambia","name":"Basse Santa Su","name_adm0":"The Gambia","name_adm1":"Upper River","name_en":"Basse Santa Su","iso":"GM"},"geometry":{"type":"Point","coordinates":[-14.21373,13.30995]}},{"type":"Feature","properties":{"country_en":"Gambia","name":"Njau","name_adm0":"The Gambia","name_adm1":"Central River","name_en":"Njau","iso":"GM"},"geometry":{"type":"Point","coordinates":[-15.21667,13.75]}},{"type":"Feature","properties":{"country_en":"Gambia","name":"Sintet","name_adm0":"The Gambia","name_adm1":"Western","name_en":"Sintet","iso":"GM"},"geometry":{"type":"Point","coordinates":[-15.816669999999998,13.23333]}},{"type":"Feature","properties":{"country_en":"Gambia","name":"Upper River","name_adm0":"The Gambia","name_adm1":"Upper River","name_en":"Upper River","iso":"GM"},"geometry":{"type":"Point","coordinates":[-14.16667,13.33333]}},{"type":"Feature","properties":{"country_en":"Gambia","name":"Bakau","name_adm0":"The Gambia","name_en":"Bakau","iso":"GM"},"geometry":{"type":"Point","coordinates":[-16.68194,13.47806]}},{"type":"Feature","properties":{"country_en":"Gambia","name":"Essau","name_adm0":"The Gambia","name_adm1":"North Bank","name_en":"Essau","iso":"GM"},"geometry":{"type":"Point","coordinates":[-16.53472,13.48389]}},{"type":"Feature","properties":{"country_en":"Gambia","name":"The Gambia","name_adm0":"The Gambia","name_en":"The Gambia","iso":"GM"},"geometry":{"type":"Point","coordinates":[-15.424803999999998,13.480447]}},{"type":"Feature","properties":{"country_en":"Gambia","name":"Kartung","name_adm0":"The Gambia","name_adm1":"Western","name_en":"Kartung","iso":"GM"},"geometry":{"type":"Point","coordinates":[-16.76222,13.09472]}},{"type":"Feature","properties":{"country_en":"Gambia","name":"Bessi","name_adm0":"The Gambia","name_adm1":"Western","name_en":"Bessi","iso":"GM"},"geometry":{"type":"Point","coordinates":[-16.361939999999997,13.19528]}},{"type":"Feature","properties":{"country_en":"Gambia","name":"Illiassa","name_adm0":"The Gambia","name_adm1":"North Bank","name_en":"Illiassa","iso":"GM"},"geometry":{"type":"Point","coordinates":[-15.75,13.566669999999998]}},{"type":"Feature","properties":{"country_en":"Gambia","name":"Jurunku","name_adm0":"The Gambia","name_adm1":"North Bank","name_en":"Jurunku","iso":"GM"},"geometry":{"type":"Point","coordinates":[-16.25639,13.418329999999997]}},{"type":"Feature","properties":{"country_en":"Gambia","name":"Kuntaur Fula Kunda","name_adm0":"The Gambia","name_adm1":"Central River","name_en":"Kuntaur Fula Kunda","iso":"GM"},"geometry":{"type":"Point","coordinates":[-14.866669999999997,13.65]}},{"type":"Feature","properties":{"country_en":"Gambia","name":"N'Dungu Kebbe","name_adm0":"The Gambia","name_adm1":"North Bank","name_en":"N'Dungu Kebbe","iso":"GM"},"geometry":{"type":"Point","coordinates":[-16.32194,13.54028]}},{"type":"Feature","properties":{"country_en":"Gambia","name":"Denton","name_adm0":"The Gambia","name_adm1":"Central River","name_en":"Denton","iso":"GM"},"geometry":{"type":"Point","coordinates":[-14.933329999999998,13.5]}},{"type":"Feature","properties":{"country_en":"Gambia","name":"Brifu","name_adm0":"The Gambia","name_adm1":"Upper River","name_en":"Brifu","iso":"GM"},"geometry":{"type":"Point","coordinates":[-13.93333,13.5]}},{"type":"Feature","properties":{"country_en":"Gambia","name":"Gunjur Kuta","name_adm0":"The Gambia","name_adm1":"Upper River","name_en":"Gunjur Kuta","iso":"GM"},"geometry":{"type":"Point","coordinates":[-14.11667,13.53333]}},{"type":"Feature","properties":{"country_en":"Gambia","name":"Fatoto","name_adm0":"The Gambia","name_adm1":"Upper River","name_en":"Fatoto","iso":"GM"},"geometry":{"type":"Point","coordinates":[-13.9,13.4]}},{"type":"Feature","properties":{"country_en":"Gambia","name":"Mansa Konko","name_adm0":"The Gambia","name_adm1":"Lower River","name_en":"Mansa Konko","iso":"GM"},"geometry":{"type":"Point","coordinates":[-15.549999999999999,13.46667]}},{"type":"Feature","properties":{"country_en":"Gambia","name":"Kuntaur","name_adm0":"The Gambia","name_adm1":"Central River","name_en":"Kuntaur","iso":"GM"},"geometry":{"type":"Point","coordinates":[-14.883329999999999,13.66667]}},{"type":"Feature","properties":{"country_en":"Gambia","name":"Kololi","name_adm0":"The Gambia","name_adm1":"Western","name_en":"Kololi","iso":"GM"},"geometry":{"type":"Point","coordinates":[-16.71611,13.443889999999998]}},{"type":"Feature","properties":{"country_en":"Gambia","name":"Kotu","name_adm0":"The Gambia","name_adm1":"Western","name_en":"Kotu","iso":"GM"},"geometry":{"type":"Point","coordinates":[-16.70528,13.45944]}},{"type":"Feature","properties":{"country_en":"Gambia","name":"Bureng","name_adm0":"The Gambia","name_adm1":"Lower River","name_en":"Bureng","iso":"GM"},"geometry":{"type":"Point","coordinates":[-15.28333,13.41667]}},{"type":"Feature","properties":{"country_en":"Gambia","name":"Georgetown","name_adm0":"The Gambia","name_adm1":"Central River","name_en":"Georgetown","iso":"GM"},"geometry":{"type":"Point","coordinates":[-14.766167,13.534165999999999]}},{"type":"Feature","properties":{"country_en":"Gambia","name":"Sara Job Kunda","name_adm0":"The Gambia","name_adm1":"Western","name_en":"Sara Job Kunda","iso":"GM"},"geometry":{"type":"Point","coordinates":[-16.681709,13.430696]}},{"type":"Feature","properties":{"country_en":"Gambia","name":"Sibanor","name_adm0":"The Gambia","name_adm1":"Western","name_en":"Sibanor","iso":"GM"},"geometry":{"type":"Point","coordinates":[-16.19639,13.20806]}},{"type":"Feature","properties":{"country_en":"Gambia","name":"Bakalarr","name_adm0":"The Gambia","name_adm1":"North Bank","name_en":"Bakalarr","iso":"GM"},"geometry":{"type":"Point","coordinates":[-16.42667,13.42167]}},{"type":"Feature","properties":{"country_en":"Gambia","name":"N'Geyen Sanjal","name_adm0":"The Gambia","name_adm1":"North Bank","name_en":"N'Geyen Sanjal","iso":"GM"},"geometry":{"type":"Point","coordinates":[-15.43333,13.58333]}},{"type":"Feature","properties":{"country_en":"Gambia","name":"Farafenni","name_adm0":"The Gambia","name_adm1":"North Bank","name_en":"Farafenni","iso":"GM"},"geometry":{"type":"Point","coordinates":[-15.6,13.566669999999998]}},{"type":"Feature","properties":{"country_en":"Gambia","name":"Sabi","name_adm0":"The Gambia","name_adm1":"Upper River","name_en":"Sabi","iso":"GM"},"geometry":{"type":"Point","coordinates":[-14.2,13.23333]}},{"type":"Feature","properties":{"country_en":"Gambia","name":"Bansang","name_adm0":"The Gambia","name_adm1":"Central River","name_en":"Bansang","iso":"GM"},"geometry":{"type":"Point","coordinates":[-14.65,13.433329999999998]}},{"type":"Feature","properties":{"country_en":"Gambia","name":"North Bank","name_adm0":"The Gambia","name_adm1":"North Bank","name_en":"North Bank","iso":"GM"},"geometry":{"type":"Point","coordinates":[-16,13.5]}},{"type":"Feature","properties":{"country_en":"Gambia","name":"Alohungari","name_adm0":"The Gambia","name_adm1":"Upper River","name_en":"Alohungari","iso":"GM"},"geometry":{"type":"Point","coordinates":[-14.23333,13.31667]}},{"type":"Feature","properties":{"country_en":"Gambia","name":"Bwiam","name_adm0":"The Gambia","name_adm1":"Western","name_en":"Bwiam","iso":"GM"},"geometry":{"type":"Point","coordinates":[-16.08639,13.23528]}},{"type":"Feature","properties":{"country_en":"Gambia","name":"Tujering","name_adm0":"The Gambia","name_adm1":"Western","name_en":"Tujering","iso":"GM"},"geometry":{"type":"Point","coordinates":[-16.78548,13.318889999999998]}},{"type":"Feature","properties":{"country_en":"Gambia","name":"Brikama","name_adm0":"The Gambia","name_adm1":"Western","name_en":"Brikama","iso":"GM"},"geometry":{"type":"Point","coordinates":[-16.649439999999995,13.27136]}},{"type":"Feature","properties":{"country_en":"Gambia","name":"Kuntair","name_adm0":"The Gambia","name_adm1":"North Bank","name_en":"Kuntair","iso":"GM"},"geometry":{"type":"Point","coordinates":[-16.22444,13.53639]}},{"type":"Feature","properties":{"country_en":"Gambia","name":"Brefet","name_adm0":"The Gambia","name_adm1":"Western","name_en":"Brefet","iso":"GM"},"geometry":{"type":"Point","coordinates":[-16.38139,13.24333]}},{"type":"Feature","properties":{"country_en":"Gambia","name":"Pakali Nding","name_adm0":"The Gambia","name_adm1":"Lower River","name_en":"Pakali Nding","iso":"GM"},"geometry":{"type":"Point","coordinates":[-15.549999999999999,13.46667]}},{"type":"Feature","properties":{"country_en":"Gambia","name":"Bantango Koto","name_adm0":"The Gambia","name_adm1":"Central River","name_en":"Bantango Koto","iso":"GM"},"geometry":{"type":"Point","coordinates":[-14.55,13.55]}},{"type":"Feature","properties":{"country_en":"Gambia","name":"Dingarai","name_adm0":"The Gambia","name_adm1":"Central River","name_en":"Dingarai","iso":"GM"},"geometry":{"type":"Point","coordinates":[-14.916670000000002,13.76667]}}]}