{"type":"FeatureCollection","features":[{"type":"Feature","properties":{"country_en":"Equatorial Guinea","name":"Ebebiyín","name_adm0":"Guinea Ecuatorial","name_adm1":"Kie-Ntem","name_en":"Ebebiyín","iso":"GQ"},"geometry":{"type":"Point","coordinates":[11.33528,2.15106]}},{"type":"Feature","properties":{"country_en":"Equatorial Guinea","name":"Evinayong","name_adm0":"Guinea Ecuatorial","name_adm1":"Centro Sur","name_en":"Evinayong","iso":"GQ"},"geometry":{"type":"Point","coordinates":[10.55124,1.43677]}},{"type":"Feature","properties":{"country_en":"Equatorial Guinea","name":"Senye","name_adm0":"Guinea Ecuatorial","name_adm1":"Litoral","name_en":"Senye","iso":"GQ"},"geometry":{"type":"Point","coordinates":[9.81658,1.5548799999999998]}},{"type":"Feature","properties":{"country_en":"Equatorial Guinea","name":"Palé","name_adm0":"Guinea Ecuatorial","name_adm1":"Annobon","name_en":"Palé","iso":"GQ"},"geometry":{"type":"Point","coordinates":[5.6325,-1.40139]}},{"type":"Feature","properties":{"country_en":"Equatorial Guinea","name":"Mongomo","name_adm0":"Guinea Ecuatorial","name_adm1":"Wele-Nzas","name_en":"Mongomo","iso":"GQ"},"geometry":{"type":"Point","coordinates":[11.31346,1.62742]}},{"type":"Feature","properties":{"country_en":"Equatorial Guinea","name":"Bata","name_adm0":"Guinea Ecuatorial","name_adm1":"Litoral","name_en":"Bata","iso":"GQ"},"geometry":{"type":"Point","coordinates":[9.76582,1.8639099999999997]}},{"type":"Feature","properties":{"country_en":"Equatorial Guinea","name":"Bioko Norte","name_adm0":"Guinea Ecuatorial","name_adm1":"Bioko Norte","name_en":"Bioko Norte","iso":"GQ"},"geometry":{"type":"Point","coordinates":[8.749999999999998,3.66667]}},{"type":"Feature","properties":{"country_en":"Equatorial Guinea","name":"Anguma","name_adm0":"Guinea Ecuatorial","name_adm1":"Litoral","name_en":"Anguma","iso":"GQ"},"geometry":{"type":"Point","coordinates":[9.606539999999999,1.45205]}},{"type":"Feature","properties":{"country_en":"Equatorial Guinea","name":"Ngüelensoc","name_adm0":"Guinea Ecuatorial","name_adm1":"Centro Sur","name_en":"Ngüelensoc","iso":"GQ"},"geometry":{"type":"Point","coordinates":[9.8166,1.50441]}},{"type":"Feature","properties":{"country_en":"Equatorial Guinea","name":"Guinea Ecuatorial","name_adm0":"Guinea Ecuatorial","name_en":"Equatorial Guinea","iso":"GQ"},"geometry":{"type":"Point","coordinates":[8.349609,3.403072]}},{"type":"Feature","properties":{"country_en":"Equatorial Guinea","name":"Malabo","name_adm0":"Guinea Ecuatorial","name_adm1":"Bioko Norte","name_en":"Malabo","iso":"GQ"},"geometry":{"type":"Point","coordinates":[8.78333,3.7499999999999996]}},{"type":"Feature","properties":{"country_en":"Equatorial Guinea","name":"Dyeng","name_adm0":"Guinea Ecuatorial","name_adm1":"Litoral","name_en":"Dyeng","iso":"GQ"},"geometry":{"type":"Point","coordinates":[9.31814,0.93413]}},{"type":"Feature","properties":{"country_en":"Equatorial Guinea","name":"Acurenam","name_adm0":"Guinea Ecuatorial","name_adm1":"Centro Sur","name_en":"Acurenam","iso":"GQ"},"geometry":{"type":"Point","coordinates":[10.5142,1.46617]}},{"type":"Feature","properties":{"country_en":"Equatorial Guinea","name":"Litoral","name_adm0":"Guinea Ecuatorial","name_adm1":"Litoral","name_en":"Litoral","iso":"GQ"},"geometry":{"type":"Point","coordinates":[9.75,1.5]}},{"type":"Feature","properties":{"country_en":"Equatorial Guinea","name":"Kie-Ntem","name_adm0":"Guinea Ecuatorial","name_adm1":"Kie-Ntem","name_en":"Kie-Ntem","iso":"GQ"},"geometry":{"type":"Point","coordinates":[11,2]}},{"type":"Feature","properties":{"country_en":"Equatorial Guinea","name":"Bioko Sur","name_adm0":"Guinea Ecuatorial","name_adm1":"Bioko Sur","name_en":"Bioko Sur","iso":"GQ"},"geometry":{"type":"Point","coordinates":[8.66667,3.41667]}},{"type":"Feature","properties":{"country_en":"Equatorial Guinea","name":"Wele-Nzas","name_adm0":"Guinea Ecuatorial","name_adm1":"Wele-Nzas","name_en":"Wele-Nzas","iso":"GQ"},"geometry":{"type":"Point","coordinates":[11.16667,1.5]}},{"type":"Feature","properties":{"country_en":"Equatorial Guinea","name":"Annobon","name_adm0":"Guinea Ecuatorial","name_adm1":"Annobon","name_en":"Annobon","iso":"GQ"},"geometry":{"type":"Point","coordinates":[5.63333,-1.4333299999999998]}},{"type":"Feature","properties":{"country_en":"Equatorial Guinea","name":"Medouneau","name_adm0":"Guinea Ecuatorial","name_adm1":"Centro Sur","name_en":"Medouneau","iso":"GQ"},"geometry":{"type":"Point","coordinates":[10.78789,1.02022]}},{"type":"Feature","properties":{"country_en":"Equatorial Guinea","name":"Biboco","name_adm0":"Guinea Ecuatorial","name_adm1":"Litoral","name_en":"Biboco","iso":"GQ"},"geometry":{"type":"Point","coordinates":[9.47596,1.41279]}},{"type":"Feature","properties":{"country_en":"Equatorial Guinea","name":"San Antonio de Ureca","name_adm0":"Guinea Ecuatorial","name_adm1":"Bioko Sur","name_en":"San Antonio de Ureca","iso":"GQ"},"geometry":{"type":"Point","coordinates":[8.58507,3.25228]}},{"type":"Feature","properties":{"country_en":"Equatorial Guinea","name":"Sevilla de Niefang","name_adm0":"Guinea Ecuatorial","name_adm1":"Centro Sur","name_en":"Sevilla de Niefang","iso":"GQ"},"geometry":{"type":"Point","coordinates":[10.233179999999999,1.8433]}}]}