{"type":"FeatureCollection","features":[{"type":"Feature","properties":{"country_en":"Lebanon","name":"لبنان","name_adm0":"لبنان","name_en":"Lebanon","iso":"LB"},"geometry":{"type":"Point","coordinates":[35.859375,33.888061]}},{"type":"Feature","properties":{"country_en":"Lebanon","name":"Al Ghåbøn","name_adm0":"لبنان","name_adm1":"جبل لبنان","name_adm2":"عالية","name_en":"Al Ghåbøn","iso":"LB"},"geometry":{"type":"Point","coordinates":[35.59556,33.83]}},{"type":"Feature","properties":{"country_en":"Lebanon","name":"دلبتا","name_adm0":"لبنان","name_adm1":"جبل لبنان","name_adm2":"كسروان","name_en":"دلبتا","iso":"LB"},"geometry":{"type":"Point","coordinates":[35.68861,34.00722]}},{"type":"Feature","properties":{"country_en":"Lebanon","name":"كفرنبرخ","name_adm0":"لبنان","name_adm1":"جبل لبنان","name_adm2":"الشوف","name_en":"كفرنبرخ","iso":"LB"},"geometry":{"type":"Point","coordinates":[35.63194,33.69888999999999]}},{"type":"Feature","properties":{"country_en":"Lebanon","name":"Sinn Al Fīl","name_adm0":"لبنان","name_adm1":"جبل لبنان","name_adm2":"المتن","name_en":"Sinn Al Fīl","iso":"LB"},"geometry":{"type":"Point","coordinates":[35.535,33.88]}},{"type":"Feature","properties":{"country_en":"Lebanon","name":"ارنون","name_adm0":"لبنان","name_adm1":"النبطية","name_adm2":"النبطية","name_en":"ارنون","iso":"LB"},"geometry":{"type":"Point","coordinates":[35.52638999999999,33.331668]}},{"type":"Feature","properties":{"country_en":"Lebanon","name":"طحوم","name_adm0":"لبنان","name_adm1":"الشمال","name_adm2":"البترون","name_en":"طحوم","iso":"LB"},"geometry":{"type":"Point","coordinates":[35.648692,34.212333]}},{"type":"Feature","properties":{"country_en":"Lebanon","name":"ساتين المينا","name_adm0":"لبنان","name_adm1":"الشمال","name_adm2":"طرابلس","name_en":"ساتين المينا","iso":"LB"},"geometry":{"type":"Point","coordinates":[35.824870499999996,34.439122999999995]}},{"type":"Feature","properties":{"country_en":"Lebanon","name":"معاصر الشوف","name_adm0":"لبنان","name_adm1":"جبل لبنان","name_adm2":"الشوف","name_en":"معاصر الشوف","iso":"LB"},"geometry":{"type":"Point","coordinates":[35.686683,33.675833]}},{"type":"Feature","properties":{"country_en":"Lebanon","name":"كفركلا","name_adm0":"لبنان","name_adm1":"النبطية","name_adm2":"مرجعيون","name_en":"كفركلا","iso":"LB"},"geometry":{"type":"Point","coordinates":[35.570297,33.2748]}},{"type":"Feature","properties":{"country_en":"Lebanon","name":"المنية الضنية","name_adm0":"لبنان","name_adm1":"الشمال","name_adm2":"المنية الضنية","name_en":"المنية الضنية","iso":"LB"},"geometry":{"type":"Point","coordinates":[35.953702,34.242282]}},{"type":"Feature","properties":{"country_en":"Lebanon","name":"زغرتا","name_adm0":"لبنان","name_adm1":"الشمال","name_adm2":"زغرتا","name_en":"زغرتا","iso":"LB"},"geometry":{"type":"Point","coordinates":[35.914134,34.379145]}},{"type":"Feature","properties":{"country_en":"Lebanon","name":"الكورة","name_adm0":"لبنان","name_adm1":"الشمال","name_adm2":"الكورة","name_en":"الكورة","iso":"LB"},"geometry":{"type":"Point","coordinates":[35.737152,34.360442]}},{"type":"Feature","properties":{"country_en":"Lebanon","name":"النبطية","name_adm0":"لبنان","name_adm1":"النبطية","name_adm2":"النبطية","name_en":"النبطية","iso":"LB"},"geometry":{"type":"Point","coordinates":[35.5202505,33.331668]}},{"type":"Feature","properties":{"country_en":"Lebanon","name":"مار تقلا","name_adm0":"لبنان","name_adm1":"جبل لبنان","name_adm2":"الشوف","name_en":"مار تقلا","iso":"LB"},"geometry":{"type":"Point","coordinates":[35.5475,33.85556]}},{"type":"Feature","properties":{"country_en":"Lebanon","name":"حلبا","name_adm0":"لبنان","name_adm1":"عكار","name_adm2":"عكار","name_en":"حلبا","iso":"LB"},"geometry":{"type":"Point","coordinates":[36.07972,34.54278]}},{"type":"Feature","properties":{"country_en":"Lebanon","name":"القلمون","name_adm0":"لبنان","name_adm1":"الشمال","name_adm2":"طرابلس","name_en":"القلمون","iso":"LB"},"geometry":{"type":"Point","coordinates":[35.796575,34.395602]}},{"type":"Feature","properties":{"country_en":"Lebanon","name":"As Suhaylah","name_adm0":"لبنان","name_adm1":"جبل لبنان","name_adm2":"كسروان","name_en":"As Suhaylah","iso":"LB"},"geometry":{"type":"Point","coordinates":[35.6,33.85]}},{"type":"Feature","properties":{"country_en":"Lebanon","name":"طرابلس","name_adm0":"لبنان","name_adm1":"الشمال","name_adm2":"طرابلس","name_en":"طرابلس","iso":"LB"},"geometry":{"type":"Point","coordinates":[35.831908999999996,34.461277]}},{"type":"Feature","properties":{"country_en":"Lebanon","name":"صيدا","name_adm0":"لبنان","name_adm1":"الجنوب","name_adm2":"صيدا","name_en":"Sayda","iso":"LB"},"geometry":{"type":"Point","coordinates":[35.387735,33.570598]}},{"type":"Feature","properties":{"country_en":"Lebanon","name":"صور","name_adm0":"لبنان","name_adm1":"الجنوب","name_adm2":"صور","name_en":"Sur","iso":"LB"},"geometry":{"type":"Point","coordinates":[35.2091,33.272565]}},{"type":"Feature","properties":{"country_en":"Lebanon","name":"طرابلس","name_adm0":"لبنان","name_adm1":"الشمال","name_adm2":"طرابلس","name_en":"Tarabulus","iso":"LB"},"geometry":{"type":"Point","coordinates":[35.847702,34.440457]}},{"type":"Feature","properties":{"country_en":"Lebanon","name":"Jamaa","name_adm0":"لبنان","name_adm1":"بيروت","name_adm2":"بيروت","name_en":"Jamaa","iso":"LB"},"geometry":{"type":"Point","coordinates":[35.48631099999999,33.8997355]}},{"type":"Feature","properties":{"country_en":"Lebanon","name":"Mar Mikhael","name_adm0":"لبنان","name_adm1":"بيروت","name_adm2":"بيروت","name_en":"Mar Mikhael","iso":"LB"},"geometry":{"type":"Point","coordinates":[35.52369,33.90151]}},{"type":"Feature","properties":{"country_en":"Lebanon","name":"جبيل","name_adm0":"لبنان","name_adm1":"جبل لبنان","name_adm2":"جبيل","name_en":"Jubayl","iso":"LB"},"geometry":{"type":"Point","coordinates":[35.648091,34.120813]}},{"type":"Feature","properties":{"country_en":"Lebanon","name":"بسطا التحتا","name_adm0":"لبنان","name_adm1":"بيروت","name_adm2":"بيروت","name_en":"بسطا التحتا","iso":"LB"},"geometry":{"type":"Point","coordinates":[35.503005,33.887771]}},{"type":"Feature","properties":{"country_en":"Lebanon","name":"عكار","name_adm0":"لبنان","name_adm1":"عكار","name_adm2":"عكار","name_en":"عكار","iso":"LB"},"geometry":{"type":"Point","coordinates":[36.3208,34.792256]}},{"type":"Feature","properties":{"country_en":"Lebanon","name":"بعبدا","name_adm0":"لبنان","name_adm1":"جبل لبنان","name_adm2":"بعبدا","name_en":"بعبدا","iso":"LB"},"geometry":{"type":"Point","coordinates":[35.546264,33.865854]}},{"type":"Feature","properties":{"country_en":"Lebanon","name":"صيدا","name_adm0":"لبنان","name_adm1":"الجنوب","name_adm2":"صيدا","name_en":"صيدا","iso":"LB"},"geometry":{"type":"Point","coordinates":[35.378723,33.580302]}},{"type":"Feature","properties":{"country_en":"Lebanon","name":"حاصبيا","name_adm0":"لبنان","name_adm1":"النبطية","name_adm2":"حاصبيا","name_en":"حاصبيا","iso":"LB"},"geometry":{"type":"Point","coordinates":[35.735435,33.296099]}},{"type":"Feature","properties":{"country_en":"Lebanon","name":"مرجعيون","name_adm0":"لبنان","name_adm1":"النبطية","name_adm2":"مرجعيون","name_en":"مرجعيون","iso":"LB"},"geometry":{"type":"Point","coordinates":[35.45088,33.041411]}},{"type":"Feature","properties":{"country_en":"Lebanon","name":"صيدا الوسطاني","name_adm0":"لبنان","name_adm1":"الجنوب","name_adm2":"صيدا","name_en":"صيدا الوسطاني","iso":"LB"},"geometry":{"type":"Point","coordinates":[35.3717925,33.567144]}},{"type":"Feature","properties":{"country_en":"Lebanon","name":"Al Mughayrah","name_adm0":"لبنان","name_adm1":"جبل لبنان","name_adm2":"جبيل","name_en":"Al Mughayrah","iso":"LB"},"geometry":{"type":"Point","coordinates":[36.36184,34.65646]}},{"type":"Feature","properties":{"country_en":"Lebanon","name":"دير القمر","name_adm0":"لبنان","name_adm1":"جبل لبنان","name_adm2":"الشوف","name_en":"دير القمر","iso":"LB"},"geometry":{"type":"Point","coordinates":[35.56361,33.6987075]}},{"type":"Feature","properties":{"country_en":"Lebanon","name":"علما الشعب","name_adm0":"لبنان","name_adm1":"الجنوب","name_adm2":"صور","name_en":"علما الشعب","iso":"LB"},"geometry":{"type":"Point","coordinates":[35.105642,33.092692]}},{"type":"Feature","properties":{"country_en":"Lebanon","name":"حريصا","name_adm0":"لبنان","name_adm1":"جبل لبنان","name_adm2":"كسروان","name_en":"حريصا","iso":"LB"},"geometry":{"type":"Point","coordinates":[35.651590999999996,33.981694]}},{"type":"Feature","properties":{"country_en":"Lebanon","name":"حوش موسى-عنجر","name_adm0":"لبنان","name_adm1":"البقاع","name_adm2":"زحلة","name_en":"حوش موسى-عنجر","iso":"LB"},"geometry":{"type":"Point","coordinates":[35.933232,33.730139]}},{"type":"Feature","properties":{"country_en":"Lebanon","name":"الشياح","name_adm0":"لبنان","name_adm1":"جبل لبنان","name_adm2":"بعبدا","name_en":"الشياح","iso":"LB"},"geometry":{"type":"Point","coordinates":[35.49292,33.824614999999994]}},{"type":"Feature","properties":{"country_en":"Lebanon","name":"عمارة","name_adm0":"لبنان","name_adm1":"النبطية","name_adm2":"مرجعيون","name_en":"عمارة","iso":"LB"},"geometry":{"type":"Point","coordinates":[35.622736,33.248219]}},{"type":"Feature","properties":{"country_en":"Lebanon","name":"بعلبك","name_adm0":"لبنان","name_adm1":"بعلبك الهرمل","name_adm2":"بعلبك","name_en":"بعلبك","iso":"LB"},"geometry":{"type":"Point","coordinates":[36.205615,34.006637]}},{"type":"Feature","properties":{"country_en":"Lebanon","name":"Ras Beirut","name_adm0":"لبنان","name_adm1":"بيروت","name_adm2":"بيروت","name_en":"Ras Beirut","iso":"LB"},"geometry":{"type":"Point","coordinates":[35.47333,33.89861]}},{"type":"Feature","properties":{"country_en":"Lebanon","name":"Kantari","name_adm0":"لبنان","name_adm1":"بيروت","name_adm2":"بيروت","name_en":"Kantari","iso":"LB"},"geometry":{"type":"Point","coordinates":[35.49361,33.89583]}},{"type":"Feature","properties":{"country_en":"Lebanon","name":"الباروك","name_adm0":"لبنان","name_adm1":"جبل لبنان","name_adm2":"الشوف","name_en":"الباروك","iso":"LB"},"geometry":{"type":"Point","coordinates":[35.681388,33.692495]}},{"type":"Feature","properties":{"country_en":"Lebanon","name":"بنت جبيل","name_adm0":"لبنان","name_adm1":"النبطية","name_adm2":"بنت جبيل","name_en":"بنت جبيل","iso":"LB"},"geometry":{"type":"Point","coordinates":[35.350308,33.015708]}},{"type":"Feature","properties":{"country_en":"Lebanon","name":"جسر الباشا","name_adm0":"لبنان","name_adm1":"جبل لبنان","name_adm2":"المتن","name_en":"جسر الباشا","iso":"LB"},"geometry":{"type":"Point","coordinates":[35.529688,33.856045]}},{"type":"Feature","properties":{"country_en":"Lebanon","name":"البترون","name_adm0":"لبنان","name_adm1":"الشمال","name_adm2":"البترون","name_en":"البترون","iso":"LB"},"geometry":{"type":"Point","coordinates":[35.705566,34.234512]}},{"type":"Feature","properties":{"country_en":"Lebanon","name":"Aadloun","name_adm0":"لبنان","name_adm1":"الجنوب","name_adm2":"صيدا","name_en":"Aadloun","iso":"LB"},"geometry":{"type":"Point","coordinates":[35.27417,33.40471999999999]}},{"type":"Feature","properties":{"country_en":"Lebanon","name":"Enn Naqoura","name_adm0":"لبنان","name_adm1":"الجنوب","name_adm2":"صور","name_en":"Enn Naqoura","iso":"LB"},"geometry":{"type":"Point","coordinates":[35.185089,33.167157]}},{"type":"Feature","properties":{"country_en":"Lebanon","name":"قرطبا","name_adm0":"لبنان","name_adm1":"جبل لبنان","name_adm2":"جبيل","name_en":"Qartaba","iso":"LB"},"geometry":{"type":"Point","coordinates":[35.84778,34.095]}},{"type":"Feature","properties":{"country_en":"Lebanon","name":"بيت الدين","name_adm0":"لبنان","name_adm1":"جبل لبنان","name_adm2":"الشوف","name_en":"بيت الدين","iso":"LB"},"geometry":{"type":"Point","coordinates":[35.576963,33.694637]}},{"type":"Feature","properties":{"country_en":"Lebanon","name":"Al Mudawwar","name_adm0":"لبنان","name_adm1":"بيروت","name_adm2":"بيروت","name_en":"Al Mudawwar","iso":"LB"},"geometry":{"type":"Point","coordinates":[35.53333,33.89999999999999]}},{"type":"Feature","properties":{"country_en":"Lebanon","name":"Aarsal","name_adm0":"لبنان","name_adm1":"بعلبك الهرمل","name_adm2":"بعلبك","name_en":"Aarsal","iso":"LB"},"geometry":{"type":"Point","coordinates":[36.42083,34.17943999999999]}},{"type":"Feature","properties":{"country_en":"Lebanon","name":"Batroun","name_adm0":"لبنان","name_adm1":"الشمال","name_adm2":"البترون","name_en":"Batroun","iso":"LB"},"geometry":{"type":"Point","coordinates":[35.694,34.292209]}},{"type":"Feature","properties":{"country_en":"Lebanon","name":"Furn Ech Chebbak","name_adm0":"لبنان","name_adm1":"جبل لبنان","name_adm2":"بعبدا","name_en":"Furn Ech Chebbak","iso":"LB"},"geometry":{"type":"Point","coordinates":[35.52083,33.87278]}},{"type":"Feature","properties":{"country_en":"Lebanon","name":"بر الياس","name_adm0":"لبنان","name_adm1":"البقاع","name_adm2":"زحلة","name_en":"Barr Ilyas","iso":"LB"},"geometry":{"type":"Point","coordinates":[35.899543,33.77401]}},{"type":"Feature","properties":{"country_en":"Lebanon","name":"برج الناقورة","name_adm0":"لبنان","name_adm1":"الجنوب","name_adm2":"صور","name_en":"An Naqorah","iso":"LB"},"geometry":{"type":"Point","coordinates":[35.105266,33.092907]}},{"type":"Feature","properties":{"country_en":"Lebanon","name":"جعيتا","name_adm0":"لبنان","name_adm1":"جبل لبنان","name_adm2":"كسروان","name_en":"جعيتا","iso":"LB"},"geometry":{"type":"Point","coordinates":[35.641354,33.943644]}},{"type":"Feature","properties":{"country_en":"Lebanon","name":"بيت الدين","name_adm0":"لبنان","name_adm1":"جبل لبنان","name_adm2":"الشوف","name_en":"Bayt ad Din","iso":"LB"},"geometry":{"type":"Point","coordinates":[35.576963,33.694637]}},{"type":"Feature","properties":{"country_en":"Lebanon","name":"جبيل","name_adm0":"لبنان","name_adm1":"جبل لبنان","name_adm2":"جبيل","name_en":"جبيل","iso":"LB"},"geometry":{"type":"Point","coordinates":[35.6488,34.121165999999995]}},{"type":"Feature","properties":{"country_en":"Lebanon","name":"زوق مكايل","name_adm0":"لبنان","name_adm1":"جبل لبنان","name_adm2":"كسروان","name_en":"زوق مكايل","iso":"LB"},"geometry":{"type":"Point","coordinates":[35.616989,33.968268]}},{"type":"Feature","properties":{"country_en":"Lebanon","name":"صور","name_adm0":"لبنان","name_adm1":"الجنوب","name_adm2":"صور","name_en":"صور","iso":"LB"},"geometry":{"type":"Point","coordinates":[35.2091,33.272565]}},{"type":"Feature","properties":{"country_en":"Lebanon","name":"جنة","name_adm0":"لبنان","name_adm1":"جبل لبنان","name_adm2":"جبيل","name_en":"جنة","iso":"LB"},"geometry":{"type":"Point","coordinates":[35.833087,34.0950065]}},{"type":"Feature","properties":{"country_en":"Lebanon","name":"مرجعيون","name_adm0":"لبنان","name_adm1":"النبطية","name_adm2":"مرجعيون","name_en":"Marjiyun","iso":"LB"},"geometry":{"type":"Point","coordinates":[35.583,33.347164]}},{"type":"Feature","properties":{"country_en":"Lebanon","name":"حبوش","name_adm0":"لبنان","name_adm1":"النبطية","name_adm2":"النبطية","name_en":"Habbush","iso":"LB"},"geometry":{"type":"Point","coordinates":[35.482492,33.4171855]}},{"type":"Feature","properties":{"country_en":"Lebanon","name":"مزرعة السياد","name_adm0":"لبنان","name_adm1":"جبل لبنان","name_adm2":"جبيل","name_en":"مزرعة السياد","iso":"LB"},"geometry":{"type":"Point","coordinates":[35.8564355,34.113612]}},{"type":"Feature","properties":{"country_en":"Lebanon","name":"Al Qulayat","name_adm0":"لبنان","name_adm1":"عكار","name_adm2":"عكار","name_en":"Al Qulayat","iso":"LB"},"geometry":{"type":"Point","coordinates":[36.14624,35.42885]}},{"type":"Feature","properties":{"country_en":"Lebanon","name":"Aş Şawīrah","name_adm0":"لبنان","name_adm1":"البقاع","name_adm2":"البقاع الغربي","name_en":"Aş Şawīrah","iso":"LB"},"geometry":{"type":"Point","coordinates":[36.05271,34.67209]}},{"type":"Feature","properties":{"country_en":"Lebanon","name":"Ar Rawshah","name_adm0":"لبنان","name_adm1":"بيروت","name_adm2":"بيروت","name_en":"Ar Rawshah","iso":"LB"},"geometry":{"type":"Point","coordinates":[35.46667,33.88333]}},{"type":"Feature","properties":{"country_en":"Lebanon","name":"Majdal Anjar","name_adm0":"لبنان","name_adm1":"البقاع","name_adm2":"البقاع الغربي","name_en":"Majdal Anjar","iso":"LB"},"geometry":{"type":"Point","coordinates":[35.9025,33.70833]}},{"type":"Feature","properties":{"country_en":"Lebanon","name":"Nasra","name_adm0":"لبنان","name_adm1":"بيروت","name_adm2":"بيروت","name_en":"Nasra","iso":"LB"},"geometry":{"type":"Point","coordinates":[35.513,33.8855]}},{"type":"Feature","properties":{"country_en":"Lebanon","name":"المنارة","name_adm0":"لبنان","name_adm1":"بيروت","name_adm2":"بيروت","name_en":"المنارة","iso":"LB"},"geometry":{"type":"Point","coordinates":[35.4702825,33.894833]}},{"type":"Feature","properties":{"country_en":"Lebanon","name":"Patriarcat","name_adm0":"لبنان","name_adm1":"بيروت","name_adm2":"بيروت","name_en":"Patriarcat","iso":"LB"},"geometry":{"type":"Point","coordinates":[35.49549999999999,33.888666]}},{"type":"Feature","properties":{"country_en":"Lebanon","name":"Mossaitbe","name_adm0":"لبنان","name_adm1":"بيروت","name_adm2":"بيروت","name_en":"Mossaitbe","iso":"LB"},"geometry":{"type":"Point","coordinates":[35.491676,33.884382]}},{"type":"Feature","properties":{"country_en":"Lebanon","name":"Zarif","name_adm0":"لبنان","name_adm1":"بيروت","name_adm2":"بيروت","name_en":"Zarif","iso":"LB"},"geometry":{"type":"Point","coordinates":[35.497153,33.8933435]}},{"type":"Feature","properties":{"country_en":"Lebanon","name":"وطى","name_adm0":"لبنان","name_adm1":"بيروت","name_adm2":"بيروت","name_en":"وطى","iso":"LB"},"geometry":{"type":"Point","coordinates":[35.497255,33.878966]}},{"type":"Feature","properties":{"country_en":"Lebanon","name":"رملة البيضاء","name_adm0":"لبنان","name_adm1":"بيروت","name_adm2":"بيروت","name_en":"رملة البيضاء","iso":"LB"},"geometry":{"type":"Point","coordinates":[35.47916599999999,33.881149]}},{"type":"Feature","properties":{"country_en":"Lebanon","name":"بعلبك","name_adm0":"لبنان","name_adm1":"بعلبك الهرمل","name_adm2":"بعلبك","name_en":"بعلبك","iso":"LB"},"geometry":{"type":"Point","coordinates":[36.150512,34.0299]}},{"type":"Feature","properties":{"country_en":"Lebanon","name":"كسروان","name_adm0":"لبنان","name_adm1":"جبل لبنان","name_adm2":"كسروان","name_en":"كسروان","iso":"LB"},"geometry":{"type":"Point","coordinates":[35.80444299999999,34.007135]}},{"type":"Feature","properties":{"country_en":"Lebanon","name":"المتن","name_adm0":"لبنان","name_adm1":"جبل لبنان","name_adm2":"المتن","name_en":"المتن","iso":"LB"},"geometry":{"type":"Point","coordinates":[35.562744,33.934245]}},{"type":"Feature","properties":{"country_en":"Lebanon","name":"زحلة","name_adm0":"لبنان","name_adm1":"البقاع","name_adm2":"زحلة","name_en":"زحلة","iso":"LB"},"geometry":{"type":"Point","coordinates":[35.925018,33.736446]}},{"type":"Feature","properties":{"country_en":"Lebanon","name":"Yessoueiye","name_adm0":"لبنان","name_adm1":"بيروت","name_adm2":"بيروت","name_en":"Yessoueiye","iso":"LB"},"geometry":{"type":"Point","coordinates":[35.5112,33.887501]}},{"type":"Feature","properties":{"country_en":"Lebanon","name":"Aḑ Ḑahr","name_adm0":"لبنان","name_adm1":"الشمال","name_adm2":"البترون","name_en":"Aḑ Ḑahr","iso":"LB"},"geometry":{"type":"Point","coordinates":[35.75916999999999,34.19]}},{"type":"Feature","properties":{"country_en":"Lebanon","name":"Adh Dhunaybah","name_adm0":"لبنان","name_adm1":"النبطية","name_adm2":"حاصبيا","name_en":"Adh Dhunaybah","iso":"LB"},"geometry":{"type":"Point","coordinates":[35.90617,32.69055]}},{"type":"Feature","properties":{"country_en":"Lebanon","name":"Al ‘aramah","name_adm0":"لبنان","name_adm1":"عكار","name_adm2":"عكار","name_en":"Al ‘aramah","iso":"LB"},"geometry":{"type":"Point","coordinates":[36.06087,34.75254]}},{"type":"Feature","properties":{"country_en":"Lebanon","name":"Al Muzayri’ah","name_adm0":"لبنان","name_adm1":"جبل لبنان","name_adm2":"بعبدا","name_en":"Al Muzayri’ah","iso":"LB"},"geometry":{"type":"Point","coordinates":[35.89175,33.11594]}},{"type":"Feature","properties":{"country_en":"Lebanon","name":"Al Qurayn","name_adm0":"لبنان","name_adm1":"الشمال","name_adm2":"المنية الضنية","name_en":"Al Qurayn","iso":"LB"},"geometry":{"type":"Point","coordinates":[36.03139,34.40028]}},{"type":"Feature","properties":{"country_en":"Lebanon","name":"Ar Rayḩānīyah","name_adm0":"لبنان","name_adm1":"عكار","name_adm2":"عكار","name_en":"Ar Rayḩānīyah","iso":"LB"},"geometry":{"type":"Point","coordinates":[35.98333,34.33332999999999]}},{"type":"Feature","properties":{"country_en":"Lebanon","name":"بجدرفل","name_adm0":"لبنان","name_adm1":"الشمال","name_adm2":"البترون","name_en":"بجدرفل","iso":"LB"},"geometry":{"type":"Point","coordinates":[35.71471999999999,34.24333]}},{"type":"Feature","properties":{"country_en":"Lebanon","name":"جنجل","name_adm0":"لبنان","name_adm1":"جبل لبنان","name_adm2":"جبيل","name_en":"جنجل","iso":"LB"},"geometry":{"type":"Point","coordinates":[35.68917,34.124719999999996]}},{"type":"Feature","properties":{"country_en":"Lebanon","name":"Siblīn","name_adm0":"لبنان","name_adm1":"جبل لبنان","name_adm2":"الشوف","name_en":"Siblīn","iso":"LB"},"geometry":{"type":"Point","coordinates":[35.39251999999999,32.69464]}},{"type":"Feature","properties":{"country_en":"Lebanon","name":"Zabbød","name_adm0":"لبنان","name_adm1":"بعلبك الهرمل","name_adm2":"بعلبك","name_en":"Zabbød","iso":"LB"},"geometry":{"type":"Point","coordinates":[36.31889,34.240829999999995]}},{"type":"Feature","properties":{"country_en":"Lebanon","name":"El Qaa","name_adm0":"لبنان","name_adm1":"بعلبك الهرمل","name_adm2":"بعلبك","name_en":"El Qaa","iso":"LB"},"geometry":{"type":"Point","coordinates":[36.47444,34.34417]}},{"type":"Feature","properties":{"country_en":"Lebanon","name":"Ra's An Nab’an","name_adm0":"لبنان","name_adm1":"جبل لبنان","name_adm2":"بعبدا","name_en":"Ra's An Nab’an","iso":"LB"},"geometry":{"type":"Point","coordinates":[35.498939,33.864686999999996]}},{"type":"Feature","properties":{"country_en":"Lebanon","name":"بعلبك","name_adm0":"لبنان","name_adm1":"بعلبك الهرمل","name_adm2":"بعلبك","name_en":"Baalbek","iso":"LB"},"geometry":{"type":"Point","coordinates":[36.205615,34.006637]}},{"type":"Feature","properties":{"country_en":"Lebanon","name":"البقاع الغربي","name_adm0":"لبنان","name_adm1":"البقاع","name_adm2":"البقاع الغربي","name_en":"البقاع الغربي","iso":"LB"},"geometry":{"type":"Point","coordinates":[35.82972449999999,33.7082115]}},{"type":"Feature","properties":{"country_en":"Lebanon","name":"بيروت","name_adm0":"لبنان","name_adm1":"بيروت","name_adm2":"بيروت","name_en":"Beirut","iso":"LB"},"geometry":{"type":"Point","coordinates":[35.499465,33.892219]}},{"type":"Feature","properties":{"country_en":"Lebanon","name":"زوق مكايل","name_adm0":"لبنان","name_adm1":"جبل لبنان","name_adm2":"كسروان","name_en":"زوق مكايل","iso":"LB"},"geometry":{"type":"Point","coordinates":[35.616989,33.968268]}},{"type":"Feature","properties":{"country_en":"Lebanon","name":"وطى سلام","name_adm0":"لبنان","name_adm1":"جبل لبنان","name_adm2":"كسروان","name_en":"وطى سلام","iso":"LB"},"geometry":{"type":"Point","coordinates":[35.64525,34.005071]}},{"type":"Feature","properties":{"country_en":"Lebanon","name":"زحلة","name_adm0":"لبنان","name_adm1":"البقاع","name_adm2":"زحلة","name_en":"Zahlah","iso":"LB"},"geometry":{"type":"Point","coordinates":[35.918083,33.84211799999999]}},{"type":"Feature","properties":{"country_en":"Lebanon","name":"مزرعة كفر دبيان","name_adm0":"لبنان","name_adm1":"جبل لبنان","name_adm2":"كسروان","name_en":"مزرعة كفر دبيان","iso":"LB"},"geometry":{"type":"Point","coordinates":[35.788509,34.007709]}},{"type":"Feature","properties":{"country_en":"Lebanon","name":"عمشيت","name_adm0":"لبنان","name_adm1":"جبل لبنان","name_adm2":"جبيل","name_en":"عمشيت","iso":"LB"},"geometry":{"type":"Point","coordinates":[35.646389,34.140225]}},{"type":"Feature","properties":{"country_en":"Lebanon","name":"جبل لبنان","name_adm0":"لبنان","name_adm1":"جبل لبنان","name_en":"Mount Lebanon","iso":"LB"},"geometry":{"type":"Point","coordinates":[35.67260699999999,33.85858399999999]}},{"type":"Feature","properties":{"country_en":"Lebanon","name":"صربا","name_adm0":"لبنان","name_adm1":"جبل لبنان","name_adm2":"كسروان","name_en":"صربا","iso":"LB"},"geometry":{"type":"Point","coordinates":[35.625228,33.98123199999999]}},{"type":"Feature","properties":{"country_en":"Lebanon","name":"عمشيت","name_adm0":"لبنان","name_adm1":"جبل لبنان","name_adm2":"جبيل","name_en":"عمشيت","iso":"LB"},"geometry":{"type":"Point","coordinates":[35.646389,34.140225]}},{"type":"Feature","properties":{"country_en":"Lebanon","name":"عكار","name_adm0":"لبنان","name_adm1":"عكار","name_en":"عكار","iso":"LB"},"geometry":{"type":"Point","coordinates":[36.142959,34.710009]}},{"type":"Feature","properties":{"country_en":"Lebanon","name":"Al Bayyāḑ","name_adm0":"لبنان","name_adm1":"جبل لبنان","name_adm2":"كسروان","name_en":"Al Bayyāḑ","iso":"LB"},"geometry":{"type":"Point","coordinates":[35.641354,33.943644]}},{"type":"Feature","properties":{"country_en":"Lebanon","name":"الحدث","name_adm0":"لبنان","name_adm1":"جبل لبنان","name_adm2":"بعبدا","name_en":"الحدث","iso":"LB"},"geometry":{"type":"Point","coordinates":[35.527725,33.848177]}},{"type":"Feature","properties":{"country_en":"Lebanon","name":"Al Ḩulwah","name_adm0":"لبنان","name_adm1":"البقاع","name_adm2":"راشيا","name_en":"Al Ḩulwah","iso":"LB"},"geometry":{"type":"Point","coordinates":[36.035499,33.629342]}},{"type":"Feature","properties":{"country_en":"Lebanon","name":"المريجات","name_adm0":"لبنان","name_adm1":"البقاع","name_adm2":"زحلة","name_en":"المريجات","iso":"LB"},"geometry":{"type":"Point","coordinates":[35.806846,33.8033995]}},{"type":"Feature","properties":{"country_en":"Lebanon","name":"الصنوبرة","name_adm0":"لبنان","name_adm1":"بيروت","name_adm2":"بيروت","name_en":"الصنوبرة","iso":"LB"},"geometry":{"type":"Point","coordinates":[35.483791,33.892013]}},{"type":"Feature","properties":{"country_en":"Lebanon","name":"جنبلاط","name_adm0":"لبنان","name_adm1":"بيروت","name_adm2":"بيروت","name_en":"جنبلاط","iso":"LB"},"geometry":{"type":"Point","coordinates":[35.488951,33.894784]}},{"type":"Feature","properties":{"country_en":"Lebanon","name":"اونيسكو","name_adm0":"لبنان","name_adm1":"بيروت","name_adm2":"بيروت","name_en":"اونيسكو","iso":"LB"},"geometry":{"type":"Point","coordinates":[35.485035,33.879636]}},{"type":"Feature","properties":{"country_en":"Lebanon","name":"Al Fukhaytah","name_adm0":"لبنان","name_adm1":"جبل لبنان","name_adm2":"الشوف","name_en":"Al Fukhaytah","iso":"LB"},"geometry":{"type":"Point","coordinates":[35.68268,32.70338]}},{"type":"Feature","properties":{"country_en":"Lebanon","name":"Al Bårid","name_adm0":"لبنان","name_adm1":"الشمال","name_adm2":"البترون","name_en":"Al Bårid","iso":"LB"},"geometry":{"type":"Point","coordinates":[35.95722,35.10869]}},{"type":"Feature","properties":{"country_en":"Lebanon","name":"Al Jīyah","name_adm0":"لبنان","name_adm1":"جبل لبنان","name_adm2":"الشوف","name_en":"Al Jīyah","iso":"LB"},"geometry":{"type":"Point","coordinates":[36.0136,32.93856]}},{"type":"Feature","properties":{"country_en":"Lebanon","name":"حبوش النبطية","name_adm0":"لبنان","name_adm1":"النبطية","name_adm2":"النبطية","name_en":"حبوش النبطية","iso":"LB"},"geometry":{"type":"Point","coordinates":[35.482492,33.4171855]}},{"type":"Feature","properties":{"country_en":"Lebanon","name":"صويقة وجسرين","name_adm0":"لبنان","name_adm1":"الشمال","name_adm2":"طرابلس","name_en":"صويقة وجسرين","iso":"LB"},"geometry":{"type":"Point","coordinates":[35.847702,34.440457]}},{"type":"Feature","properties":{"country_en":"Lebanon","name":"حامات","name_adm0":"لبنان","name_adm1":"الشمال","name_adm2":"البترون","name_en":"حامات","iso":"LB"},"geometry":{"type":"Point","coordinates":[35.694,34.292209]}},{"type":"Feature","properties":{"country_en":"Lebanon","name":"Badaro","name_adm0":"لبنان","name_adm1":"بيروت","name_adm2":"بيروت","name_en":"Badaro","iso":"LB"},"geometry":{"type":"Point","coordinates":[35.516567,33.88046299999999]}},{"type":"Feature","properties":{"country_en":"Lebanon","name":"Hikme","name_adm0":"لبنان","name_adm1":"بيروت","name_adm2":"بيروت","name_en":"Hikme","iso":"LB"},"geometry":{"type":"Point","coordinates":[35.520139,33.893235]}},{"type":"Feature","properties":{"country_en":"Lebanon","name":"Marfa","name_adm0":"لبنان","name_adm1":"بيروت","name_adm2":"بيروت","name_en":"Marfa","iso":"LB"},"geometry":{"type":"Point","coordinates":[35.512189,33.8989]}},{"type":"Feature","properties":{"country_en":"Lebanon","name":"Ghobeiri","name_adm0":"لبنان","name_adm1":"جبل لبنان","name_adm2":"بعبدا","name_en":"Ghobeiri","iso":"LB"},"geometry":{"type":"Point","coordinates":[35.50409,33.85933]}},{"type":"Feature","properties":{"country_en":"Lebanon","name":"Bikfayya","name_adm0":"لبنان","name_adm1":"جبل لبنان","name_adm2":"المتن","name_en":"Bikfayya","iso":"LB"},"geometry":{"type":"Point","coordinates":[35.68306,33.92222]}},{"type":"Feature","properties":{"country_en":"Lebanon","name":"Marāşifah","name_adm0":"لبنان","name_adm1":"جبل لبنان","name_adm2":"المتن","name_en":"Marāşifah","iso":"LB"},"geometry":{"type":"Point","coordinates":[35.53333,33.88333]}},{"type":"Feature","properties":{"country_en":"Lebanon","name":"Ramlat al Bayḑā'","name_adm0":"لبنان","name_adm1":"جبل لبنان","name_adm2":"بعبدا","name_en":"Ramlat al Bayḑā'","iso":"LB"},"geometry":{"type":"Point","coordinates":[35.48333,33.86667]}},{"type":"Feature","properties":{"country_en":"Lebanon","name":"تلة الخياط","name_adm0":"لبنان","name_adm1":"بيروت","name_adm2":"بيروت","name_en":"تلة الخياط","iso":"LB"},"geometry":{"type":"Point","coordinates":[35.487213,33.8814515]}},{"type":"Feature","properties":{"country_en":"Lebanon","name":"مستشفى الروم الاورثوذكس","name_adm0":"لبنان","name_adm1":"بيروت","name_adm2":"بيروت","name_en":"مستشفى الروم الاورثوذكس","iso":"LB"},"geometry":{"type":"Point","coordinates":[35.5270515,33.8934725]}},{"type":"Feature","properties":{"country_en":"Lebanon","name":"مار نهرا","name_adm0":"لبنان","name_adm1":"بعلبك الهرمل","name_adm2":"بعلبك","name_en":"مار نهرا","iso":"LB"},"geometry":{"type":"Point","coordinates":[35.51667,33.86667]}},{"type":"Feature","properties":{"country_en":"Lebanon","name":"سبايل","name_adm0":"لبنان","name_adm1":"جبل لبنان","name_adm2":"جبيل","name_en":"سبايل","iso":"LB"},"geometry":{"type":"Point","coordinates":[35.74389,34.17667]}},{"type":"Feature","properties":{"country_en":"Lebanon","name":"زبدل","name_adm0":"لبنان","name_adm1":"البقاع","name_adm2":"زحلة","name_en":"زبدل","iso":"LB"},"geometry":{"type":"Point","coordinates":[35.84472,33.8175]}},{"type":"Feature","properties":{"country_en":"Lebanon","name":"بتخنيه","name_adm0":"لبنان","name_adm1":"جبل لبنان","name_adm2":"بعبدا","name_en":"بتخنيه","iso":"LB"},"geometry":{"type":"Point","coordinates":[35.71833,33.84111]}},{"type":"Feature","properties":{"country_en":"Lebanon","name":"كلخا","name_adm0":"لبنان","name_adm1":"عكار","name_adm2":"عكار","name_en":"كلخا","iso":"LB"},"geometry":{"type":"Point","coordinates":[36.39167,34.60972]}},{"type":"Feature","properties":{"country_en":"Lebanon","name":"رام","name_adm0":"لبنان","name_adm1":"بعلبك الهرمل","name_adm2":"بعلبك","name_en":"رام","iso":"LB"},"geometry":{"type":"Point","coordinates":[36.62219,34.78264]}},{"type":"Feature","properties":{"country_en":"Lebanon","name":"مزهر","name_adm0":"لبنان","name_adm1":"جبل لبنان","name_adm2":"المتن","name_en":"مزهر","iso":"LB"},"geometry":{"type":"Point","coordinates":[35.59139,33.91111]}},{"type":"Feature","properties":{"country_en":"Lebanon","name":"افقا","name_adm0":"لبنان","name_adm1":"جبل لبنان","name_adm2":"جبيل","name_en":"Afqa","iso":"LB"},"geometry":{"type":"Point","coordinates":[35.886109999999995,34.06917]}},{"type":"Feature","properties":{"country_en":"Lebanon","name":"Barjao","name_adm0":"لبنان","name_adm1":"جبل لبنان","name_adm2":"الشوف","name_en":"Barjao","iso":"LB"},"geometry":{"type":"Point","coordinates":[35.44278,33.64972]}},{"type":"Feature","properties":{"country_en":"Lebanon","name":"البترون","name_adm0":"لبنان","name_adm1":"الشمال","name_adm2":"البترون","name_en":"البترون","iso":"LB"},"geometry":{"type":"Point","coordinates":[35.6681435,34.249814]}},{"type":"Feature","properties":{"country_en":"Lebanon","name":"Bmaryam","name_adm0":"لبنان","name_adm1":"جبل لبنان","name_adm2":"عالية","name_en":"Bmaryam","iso":"LB"},"geometry":{"type":"Point","coordinates":[35.71806,33.83139]}},{"type":"Feature","properties":{"country_en":"Lebanon","name":"Tall Bīrah","name_adm0":"لبنان","name_adm1":"عكار","name_adm2":"عكار","name_en":"Tall Bīrah","iso":"LB"},"geometry":{"type":"Point","coordinates":[35.93146999999999,35.475829999999995]}},{"type":"Feature","properties":{"country_en":"Lebanon","name":"تربل","name_adm0":"لبنان","name_adm1":"البقاع","name_adm2":"زحلة","name_en":"تربل","iso":"LB"},"geometry":{"type":"Point","coordinates":[35.98306,33.81806]}},{"type":"Feature","properties":{"country_en":"Lebanon","name":"زغرتا","name_adm0":"لبنان","name_adm1":"الشمال","name_adm2":"زغرتا","name_en":"Zgharta","iso":"LB"},"geometry":{"type":"Point","coordinates":[35.914134,34.379145]}},{"type":"Feature","properties":{"country_en":"Lebanon","name":"Al Mu’ayşirah","name_adm0":"لبنان","name_adm1":"بعلبك الهرمل","name_adm2":"هرمل","name_en":"Al Mu’ayşirah","iso":"LB"},"geometry":{"type":"Point","coordinates":[36.35602,35.16152]}},{"type":"Feature","properties":{"country_en":"Lebanon","name":"بريسات","name_adm0":"لبنان","name_adm1":"الشمال","name_adm2":"بشري","name_en":"بريسات","iso":"LB"},"geometry":{"type":"Point","coordinates":[35.929621,34.2126]}},{"type":"Feature","properties":{"country_en":"Lebanon","name":"زحلة الميدان","name_adm0":"لبنان","name_adm1":"البقاع","name_adm2":"زحلة","name_en":"زحلة الميدان","iso":"LB"},"geometry":{"type":"Point","coordinates":[35.918083,33.84211799999999]}},{"type":"Feature","properties":{"country_en":"Lebanon","name":"مرجعيون","name_adm0":"لبنان","name_adm1":"النبطية","name_adm2":"مرجعيون","name_en":"مرجعيون","iso":"LB"},"geometry":{"type":"Point","coordinates":[35.583,33.347164]}},{"type":"Feature","properties":{"country_en":"Lebanon","name":"بيت الكوكو","name_adm0":"لبنان","name_adm1":"جبل لبنان","name_adm2":"المتن","name_en":"بيت الكوكو","iso":"LB"},"geometry":{"type":"Point","coordinates":[35.639219,33.914161]}},{"type":"Feature","properties":{"country_en":"Lebanon","name":"مريجات زحلة","name_adm0":"لبنان","name_adm1":"البقاع","name_adm2":"زحلة","name_en":"مريجات زحلة","iso":"LB"},"geometry":{"type":"Point","coordinates":[35.806846,33.8033995]}},{"type":"Feature","properties":{"country_en":"Lebanon","name":"زغرتا","name_adm0":"لبنان","name_adm1":"الشمال","name_adm2":"زغرتا","name_en":"زغرتا","iso":"LB"},"geometry":{"type":"Point","coordinates":[35.914134,34.379145]}},{"type":"Feature","properties":{"country_en":"Lebanon","name":"معاصر الشوف","name_adm0":"لبنان","name_adm1":"جبل لبنان","name_adm2":"الشوف","name_en":"معاصر الشوف","iso":"LB"},"geometry":{"type":"Point","coordinates":[35.686683,33.675833]}},{"type":"Feature","properties":{"country_en":"Lebanon","name":"جديدة","name_adm0":"لبنان","name_adm1":"جبل لبنان","name_adm2":"المتن","name_en":"جديدة","iso":"LB"},"geometry":{"type":"Point","coordinates":[35.555019,33.89056]}},{"type":"Feature","properties":{"country_en":"Lebanon","name":"حلوة راشيا","name_adm0":"لبنان","name_adm1":"البقاع","name_adm2":"راشيا","name_en":"حلوة راشيا","iso":"LB"},"geometry":{"type":"Point","coordinates":[36.035499,33.629342]}},{"type":"Feature","properties":{"country_en":"Lebanon","name":"بيت مري","name_adm0":"لبنان","name_adm1":"جبل لبنان","name_adm2":"المتن","name_en":"بيت مري","iso":"LB"},"geometry":{"type":"Point","coordinates":[35.630035,33.896637]}},{"type":"Feature","properties":{"country_en":"Lebanon","name":"قرطبا","name_adm0":"لبنان","name_adm1":"جبل لبنان","name_adm2":"جبيل","name_en":"قرطبا","iso":"LB"},"geometry":{"type":"Point","coordinates":[35.789518,34.13511]}},{"type":"Feature","properties":{"country_en":"Lebanon","name":"صفرا","name_adm0":"لبنان","name_adm1":"جبل لبنان","name_adm2":"كسروان","name_en":"صفرا","iso":"LB"},"geometry":{"type":"Point","coordinates":[35.63768,34.0425495]}},{"type":"Feature","properties":{"country_en":"Lebanon","name":"Tall Az Za’tar","name_adm0":"لبنان","name_adm1":"جبل لبنان","name_adm2":"المتن","name_en":"Tall Az Za’tar","iso":"LB"},"geometry":{"type":"Point","coordinates":[35.54917,33.86861]}},{"type":"Feature","properties":{"country_en":"Lebanon","name":"An Nāşirīyah","name_adm0":"لبنان","name_adm1":"البقاع","name_adm2":"زحلة","name_en":"An Nāşirīyah","iso":"LB"},"geometry":{"type":"Point","coordinates":[36.81408,33.87103]}},{"type":"Feature","properties":{"country_en":"Lebanon","name":"مار متر","name_adm0":"لبنان","name_adm1":"بيروت","name_adm2":"بيروت","name_en":"مار متر","iso":"LB"},"geometry":{"type":"Point","coordinates":[35.5225,33.89111]}},{"type":"Feature","properties":{"country_en":"Lebanon","name":"الصفرا","name_adm0":"لبنان","name_adm1":"جبل لبنان","name_adm2":"كسروان","name_en":"الصفرا","iso":"LB"},"geometry":{"type":"Point","coordinates":[35.63768,34.0425495]}},{"type":"Feature","properties":{"country_en":"Lebanon","name":"بسطة الفوقا","name_adm0":"لبنان","name_adm1":"بيروت","name_adm2":"بيروت","name_en":"بسطة الفوقا","iso":"LB"},"geometry":{"type":"Point","coordinates":[35.506095,33.88366899999999]}},{"type":"Feature","properties":{"country_en":"Lebanon","name":"Sanayeh","name_adm0":"لبنان","name_adm1":"بيروت","name_adm2":"بيروت","name_en":"Sanayeh","iso":"LB"},"geometry":{"type":"Point","coordinates":[35.492448,33.891008]}},{"type":"Feature","properties":{"country_en":"Lebanon","name":"تلة الدروز","name_adm0":"لبنان","name_adm1":"بيروت","name_adm2":"بيروت","name_en":"تلة الدروز","iso":"LB"},"geometry":{"type":"Point","coordinates":[35.485271,33.892749]}},{"type":"Feature","properties":{"country_en":"Lebanon","name":"مار الياس","name_adm0":"لبنان","name_adm1":"بيروت","name_adm2":"بيروت","name_en":"مار الياس","iso":"LB"},"geometry":{"type":"Point","coordinates":[35.490131,33.87462]}},{"type":"Feature","properties":{"country_en":"Lebanon","name":"قصر العدل","name_adm0":"لبنان","name_adm1":"بيروت","name_adm2":"بيروت","name_en":"قصر العدل","iso":"LB"},"geometry":{"type":"Point","coordinates":[35.52946299999999,33.879145]}},{"type":"Feature","properties":{"country_en":"Lebanon","name":"راس النبع","name_adm0":"لبنان","name_adm1":"بيروت","name_adm2":"بيروت","name_en":"راس النبع","iso":"LB"},"geometry":{"type":"Point","coordinates":[35.510988,33.8785745]}},{"type":"Feature","properties":{"country_en":"Lebanon","name":"فرن الحايك","name_adm0":"لبنان","name_adm1":"بيروت","name_adm2":"بيروت","name_en":"فرن الحايك","iso":"LB"},"geometry":{"type":"Point","coordinates":[35.51386999999999,33.890153]}},{"type":"Feature","properties":{"country_en":"Lebanon","name":"النبطية","name_adm0":"لبنان","name_adm1":"النبطية","name_en":"النبطية","iso":"LB"},"geometry":{"type":"Point","coordinates":[35.430933,32.979316]}},{"type":"Feature","properties":{"country_en":"Lebanon","name":"Al Marfa'","name_adm0":"لبنان","name_adm1":"بيروت","name_adm2":"بيروت","name_en":"Al Marfa'","iso":"LB"},"geometry":{"type":"Point","coordinates":[35.5,33.89999999999999]}},{"type":"Feature","properties":{"country_en":"Lebanon","name":"بكفيا","name_adm0":"لبنان","name_adm1":"جبل لبنان","name_adm2":"المتن","name_en":"بكفيا","iso":"LB"},"geometry":{"type":"Point","coordinates":[35.684009,33.914699]}},{"type":"Feature","properties":{"country_en":"Lebanon","name":"اده","name_adm0":"لبنان","name_adm1":"جبل لبنان","name_adm2":"جبيل","name_en":"اده","iso":"LB"},"geometry":{"type":"Point","coordinates":[35.656127,34.130437]}},{"type":"Feature","properties":{"country_en":"Lebanon","name":"كفركلا","name_adm0":"لبنان","name_adm1":"النبطية","name_adm2":"مرجعيون","name_en":"كفركلا","iso":"LB"},"geometry":{"type":"Point","coordinates":[35.570297,33.2748]}},{"type":"Feature","properties":{"country_en":"Lebanon","name":"انفه","name_adm0":"لبنان","name_adm1":"الشمال","name_adm2":"الكورة","name_en":"انفه","iso":"LB"},"geometry":{"type":"Point","coordinates":[35.737152,34.360442]}},{"type":"Feature","properties":{"country_en":"Lebanon","name":"برامية","name_adm0":"لبنان","name_adm1":"الجنوب","name_adm2":"صيدا","name_en":"برامية","iso":"LB"},"geometry":{"type":"Point","coordinates":[35.388035,33.575297]}},{"type":"Feature","properties":{"country_en":"Lebanon","name":"بلحوص","name_adm0":"لبنان","name_adm1":"جبل لبنان","name_adm2":"جبيل","name_en":"بلحوص","iso":"LB"},"geometry":{"type":"Point","coordinates":[35.808786,34.098497]}},{"type":"Feature","properties":{"country_en":"Lebanon","name":"Ar Rumayl","name_adm0":"لبنان","name_adm1":"بيروت","name_adm2":"بيروت","name_en":"Ar Rumayl","iso":"LB"},"geometry":{"type":"Point","coordinates":[35.518111,33.9033335]}},{"type":"Feature","properties":{"country_en":"Lebanon","name":"ارنون","name_adm0":"لبنان","name_adm1":"النبطية","name_adm2":"النبطية","name_en":"ارنون","iso":"LB"},"geometry":{"type":"Point","coordinates":[35.52638999999999,33.331668]}},{"type":"Feature","properties":{"country_en":"Lebanon","name":"بعبدا","name_adm0":"لبنان","name_adm1":"جبل لبنان","name_adm2":"بعبدا","name_en":"Babda","iso":"LB"},"geometry":{"type":"Point","coordinates":[35.533298,33.8531335]}},{"type":"Feature","properties":{"country_en":"Lebanon","name":"عنجر","name_adm0":"لبنان","name_adm1":"البقاع","name_adm2":"زحلة","name_en":"Anjar","iso":"LB"},"geometry":{"type":"Point","coordinates":[35.933232,33.730139]}},{"type":"Feature","properties":{"country_en":"Lebanon","name":"بشري","name_adm0":"لبنان","name_adm1":"الشمال","name_adm2":"بشري","name_en":"Bsharri","iso":"LB"},"geometry":{"type":"Point","coordinates":[36.0167,34.250476]}},{"type":"Feature","properties":{"country_en":"Lebanon","name":"دير القمر","name_adm0":"لبنان","name_adm1":"جبل لبنان","name_adm2":"الشوف","name_en":"دير القمر","iso":"LB"},"geometry":{"type":"Point","coordinates":[35.56361,33.6987075]}},{"type":"Feature","properties":{"country_en":"Lebanon","name":"حريصا","name_adm0":"لبنان","name_adm1":"جبل لبنان","name_adm2":"كسروان","name_en":"حريصا","iso":"LB"},"geometry":{"type":"Point","coordinates":[35.651590999999996,33.981694]}},{"type":"Feature","properties":{"country_en":"Lebanon","name":"غدير","name_adm0":"لبنان","name_adm1":"جبل لبنان","name_adm2":"كسروان","name_en":"غدير","iso":"LB"},"geometry":{"type":"Point","coordinates":[35.635757,33.978328]}},{"type":"Feature","properties":{"country_en":"Lebanon","name":"الميسات","name_adm0":"لبنان","name_adm1":"النبطية","name_adm2":"مرجعيون","name_en":"الميسات","iso":"LB"},"geometry":{"type":"Point","coordinates":[35.636385999999995,33.242013]}},{"type":"Feature","properties":{"country_en":"Lebanon","name":"السيوفي","name_adm0":"لبنان","name_adm1":"بيروت","name_adm2":"بيروت","name_en":"السيوفي","iso":"LB"},"geometry":{"type":"Point","coordinates":[35.525064,33.884738]}},{"type":"Feature","properties":{"country_en":"Lebanon","name":"Jisr","name_adm0":"لبنان","name_adm1":"بيروت","name_adm2":"بيروت","name_en":"Jisr","iso":"LB"},"geometry":{"type":"Point","coordinates":[35.539398,33.904188]}},{"type":"Feature","properties":{"country_en":"Lebanon","name":"هرمل","name_adm0":"لبنان","name_adm1":"بعلبك الهرمل","name_adm2":"هرمل","name_en":"هرمل","iso":"LB"},"geometry":{"type":"Point","coordinates":[36.34551999999999,34.397844]}},{"type":"Feature","properties":{"country_en":"Lebanon","name":"بعلبك الهرمل","name_adm0":"لبنان","name_adm1":"بعلبك الهرمل","name_en":"بعلبك الهرمل","iso":"LB"},"geometry":{"type":"Point","coordinates":[36.215658,34.01055]}},{"type":"Feature","properties":{"country_en":"Lebanon","name":"الشوف","name_adm0":"لبنان","name_adm1":"جبل لبنان","name_adm2":"الشوف","name_en":"الشوف","iso":"LB"},"geometry":{"type":"Point","coordinates":[35.606689,33.614619]}},{"type":"Feature","properties":{"country_en":"Lebanon","name":"بشري","name_adm0":"لبنان","name_adm1":"الشمال","name_adm2":"بشري","name_en":"بشري","iso":"LB"},"geometry":{"type":"Point","coordinates":[36.065368,34.269852]}},{"type":"Feature","properties":{"country_en":"Lebanon","name":"باب ادريس","name_adm0":"لبنان","name_adm1":"بيروت","name_adm2":"بيروت","name_en":"باب ادريس","iso":"LB"},"geometry":{"type":"Point","coordinates":[35.49030299999999,33.898774]}},{"type":"Feature","properties":{"country_en":"Lebanon","name":"Horj","name_adm0":"لبنان","name_adm1":"بيروت","name_adm2":"بيروت","name_en":"Horj","iso":"LB"},"geometry":{"type":"Point","coordinates":[35.506095,33.867707]}},{"type":"Feature","properties":{"country_en":"Lebanon","name":"صور","name_adm0":"لبنان","name_adm1":"الجنوب","name_adm2":"صور","name_en":"صور","iso":"LB"},"geometry":{"type":"Point","coordinates":[35.087585,32.955173]}},{"type":"Feature","properties":{"country_en":"Lebanon","name":"نهر ابراهيم","name_adm0":"لبنان","name_adm1":"جبل لبنان","name_adm2":"جبيل","name_en":"Nahr Ibrahim","iso":"LB"},"geometry":{"type":"Point","coordinates":[35.64972,34.06389]}},{"type":"Feature","properties":{"country_en":"Lebanon","name":"راشيا","name_adm0":"لبنان","name_adm1":"البقاع","name_adm2":"راشيا","name_en":"راشيا","iso":"LB"},"geometry":{"type":"Point","coordinates":[36.200637,33.587167]}},{"type":"Feature","properties":{"country_en":"Lebanon","name":"عالية","name_adm0":"لبنان","name_adm1":"جبل لبنان","name_adm2":"عالية","name_en":"عالية","iso":"LB"},"geometry":{"type":"Point","coordinates":[35.652008,33.738044]}},{"type":"Feature","properties":{"country_en":"Lebanon","name":"زبدل","name_adm0":"لبنان","name_adm1":"البقاع","name_adm2":"زحلة","name_en":"زبدل","iso":"LB"},"geometry":{"type":"Point","coordinates":[35.84472,33.8175]}},{"type":"Feature","properties":{"country_en":"Lebanon","name":"جميجمه","name_adm0":"لبنان","name_adm1":"الجنوب","name_adm2":"صور","name_en":"جميجمه","iso":"LB"},"geometry":{"type":"Point","coordinates":[35.43417,33.21528]}},{"type":"Feature","properties":{"country_en":"Lebanon","name":"عين التينة","name_adm0":"لبنان","name_adm1":"بيروت","name_adm2":"بيروت","name_en":"عين التينة","iso":"LB"},"geometry":{"type":"Point","coordinates":[35.479255,33.886596]}},{"type":"Feature","properties":{"country_en":"Lebanon","name":"مار نقولا","name_adm0":"لبنان","name_adm1":"بيروت","name_adm2":"بيروت","name_en":"مار نقولا","iso":"LB"},"geometry":{"type":"Point","coordinates":[35.51628,33.89293]}},{"type":"Feature","properties":{"country_en":"Lebanon","name":"Al Muşayţbah","name_adm0":"لبنان","name_adm1":"بيروت","name_adm2":"بيروت","name_en":"Al Muşayţbah","iso":"LB"},"geometry":{"type":"Point","coordinates":[35.5,33.88333]}},{"type":"Feature","properties":{"country_en":"Lebanon","name":"بر الياس","name_adm0":"لبنان","name_adm1":"البقاع","name_adm2":"زحلة","name_en":"بر الياس","iso":"LB"},"geometry":{"type":"Point","coordinates":[35.899543,33.77401]}},{"type":"Feature","properties":{"country_en":"Lebanon","name":"صويري","name_adm0":"لبنان","name_adm1":"البقاع","name_adm2":"البقاع الغربي","name_en":"صويري","iso":"LB"},"geometry":{"type":"Point","coordinates":[35.895422999999994,33.71563]}},{"type":"Feature","properties":{"country_en":"Lebanon","name":"روميه","name_adm0":"لبنان","name_adm1":"جبل لبنان","name_adm2":"المتن","name_en":"روميه","iso":"LB"},"geometry":{"type":"Point","coordinates":[35.621109,33.884667]}},{"type":"Feature","properties":{"country_en":"Lebanon","name":"القلمون","name_adm0":"لبنان","name_adm1":"الشمال","name_adm2":"طرابلس","name_en":"القلمون","iso":"LB"},"geometry":{"type":"Point","coordinates":[35.796575,34.395602]}},{"type":"Feature","properties":{"country_en":"Lebanon","name":"النبطية التحتا","name_adm0":"لبنان","name_adm1":"النبطية","name_adm2":"النبطية","name_en":"النبطية التحتا","iso":"LB"},"geometry":{"type":"Point","coordinates":[35.477084999999995,33.376842]}},{"type":"Feature","properties":{"country_en":"Lebanon","name":"جاني","name_adm0":"لبنان","name_adm1":"جبل لبنان","name_adm2":"جبيل","name_en":"جاني","iso":"LB"},"geometry":{"type":"Point","coordinates":[35.833087,34.0950065]}},{"type":"Feature","properties":{"country_en":"Lebanon","name":"وطى سلام","name_adm0":"لبنان","name_adm1":"جبل لبنان","name_adm2":"كسروان","name_en":"وطى سلام","iso":"LB"},"geometry":{"type":"Point","coordinates":[35.64525,34.005071]}},{"type":"Feature","properties":{"country_en":"Lebanon","name":"حدث","name_adm0":"لبنان","name_adm1":"جبل لبنان","name_adm2":"بعبدا","name_en":"حدث","iso":"LB"},"geometry":{"type":"Point","coordinates":[35.527725,33.848177]}},{"type":"Feature","properties":{"country_en":"Lebanon","name":"بعبدا","name_adm0":"لبنان","name_adm1":"جبل لبنان","name_adm2":"بعبدا","name_en":"بعبدا","iso":"LB"},"geometry":{"type":"Point","coordinates":[35.520172,33.881437]}},{"type":"Feature","properties":{"country_en":"Lebanon","name":"مزرعة السياد","name_adm0":"لبنان","name_adm1":"جبل لبنان","name_adm2":"جبيل","name_en":"مزرعة السياد","iso":"LB"},"geometry":{"type":"Point","coordinates":[35.8564355,34.113612]}},{"type":"Feature","properties":{"country_en":"Lebanon","name":"برج ابي حيدر","name_adm0":"لبنان","name_adm1":"بيروت","name_adm2":"بيروت","name_en":"برج ابي حيدر","iso":"LB"},"geometry":{"type":"Point","coordinates":[35.497856,33.881859]}},{"type":"Feature","properties":{"country_en":"Lebanon","name":"الارز","name_adm0":"لبنان","name_adm1":"الشمال","name_adm2":"بشري","name_en":"الارز","iso":"LB"},"geometry":{"type":"Point","coordinates":[36.047859,34.24472]}},{"type":"Feature","properties":{"country_en":"Lebanon","name":"ضبية","name_adm0":"لبنان","name_adm1":"جبل لبنان","name_adm2":"المتن","name_en":"ضبية","iso":"LB"},"geometry":{"type":"Point","coordinates":[35.597518,33.9475]}},{"type":"Feature","properties":{"country_en":"Lebanon","name":"عمارة","name_adm0":"لبنان","name_adm1":"النبطية","name_adm2":"مرجعيون","name_en":"عمارة","iso":"LB"},"geometry":{"type":"Point","coordinates":[35.58145499999999,33.276833]}},{"type":"Feature","properties":{"country_en":"Lebanon","name":"الاشرفية","name_adm0":"لبنان","name_adm1":"بيروت","name_adm2":"بيروت","name_en":"الاشرفية","iso":"LB"},"geometry":{"type":"Point","coordinates":[35.516979,33.886001]}},{"type":"Feature","properties":{"country_en":"Lebanon","name":"الحازمية","name_adm0":"لبنان","name_adm1":"جبل لبنان","name_adm2":"بعبدا","name_en":"الحازمية","iso":"LB"},"geometry":{"type":"Point","coordinates":[35.520172,33.881437]}},{"type":"Feature","properties":{"country_en":"Lebanon","name":"الباشورة","name_adm0":"لبنان","name_adm1":"بيروت","name_adm2":"بيروت","name_en":"الباشورة","iso":"LB"},"geometry":{"type":"Point","coordinates":[35.50528,33.894891]}},{"type":"Feature","properties":{"country_en":"Lebanon","name":"الحمرا","name_adm0":"لبنان","name_adm1":"بيروت","name_adm2":"بيروت","name_en":"الحمرا","iso":"LB"},"geometry":{"type":"Point","coordinates":[35.48394,33.895532]}},{"type":"Feature","properties":{"country_en":"Lebanon","name":"الميناء","name_adm0":"لبنان","name_adm1":"الشمال","name_adm2":"طرابلس","name_en":"Al Mina'","iso":"LB"},"geometry":{"type":"Point","coordinates":[35.824870499999996,34.439122999999995]}},{"type":"Feature","properties":{"country_en":"Lebanon","name":"الباروك","name_adm0":"لبنان","name_adm1":"جبل لبنان","name_adm2":"الشوف","name_en":"الباروك","iso":"LB"},"geometry":{"type":"Point","coordinates":[35.681388,33.692495]}},{"type":"Feature","properties":{"country_en":"Lebanon","name":"جديدة","name_adm0":"لبنان","name_adm1":"جبل لبنان","name_adm2":"المتن","name_en":"جديدة","iso":"LB"},"geometry":{"type":"Point","coordinates":[35.555019,33.89056]}},{"type":"Feature","properties":{"country_en":"Lebanon","name":"البترون","name_adm0":"لبنان","name_adm1":"الشمال","name_adm2":"البترون","name_en":"Al Batron","iso":"LB"},"geometry":{"type":"Point","coordinates":[35.6681435,34.249814]}},{"type":"Feature","properties":{"country_en":"Lebanon","name":"علما الشعب","name_adm0":"لبنان","name_adm1":"الجنوب","name_adm2":"صور","name_en":"علما الشعب","iso":"LB"},"geometry":{"type":"Point","coordinates":[35.1948645,33.07892]}},{"type":"Feature","properties":{"country_en":"Lebanon","name":"النبطية","name_adm0":"لبنان","name_adm1":"النبطية","name_adm2":"النبطية","name_en":"النبطية","iso":"LB"},"geometry":{"type":"Point","coordinates":[35.477084999999995,33.376842]}},{"type":"Feature","properties":{"country_en":"Lebanon","name":"An Nabatiyah at Tahta","name_adm0":"لبنان","name_adm1":"النبطية","name_adm2":"النبطية","name_en":"An Nabatiyah at Tahta","iso":"LB"},"geometry":{"type":"Point","coordinates":[35.484466,33.403357]}},{"type":"Feature","properties":{"country_en":"Lebanon","name":"Al Quray’ah","name_adm0":"لبنان","name_adm1":"جبل لبنان","name_adm2":"الشوف","name_en":"Al Quray’ah","iso":"LB"},"geometry":{"type":"Point","coordinates":[36.06045,33.28628]}},{"type":"Feature","properties":{"country_en":"Lebanon","name":"بيت مري","name_adm0":"لبنان","name_adm1":"جبل لبنان","name_adm2":"المتن","name_en":"Bayt Miri","iso":"LB"},"geometry":{"type":"Point","coordinates":[35.630035,33.896637]}},{"type":"Feature","properties":{"country_en":"Lebanon","name":"بيت الكوكو","name_adm0":"لبنان","name_adm1":"جبل لبنان","name_adm2":"المتن","name_en":"بيت الكوكو","iso":"LB"},"geometry":{"type":"Point","coordinates":[35.639219,33.914161]}},{"type":"Feature","properties":{"country_en":"Lebanon","name":"بريسات","name_adm0":"لبنان","name_adm1":"الشمال","name_adm2":"بشري","name_en":"بريسات","iso":"LB"},"geometry":{"type":"Point","coordinates":[35.929621,34.2126]}},{"type":"Feature","properties":{"country_en":"Lebanon","name":"برامية التحتا","name_adm0":"لبنان","name_adm1":"الجنوب","name_adm2":"صيدا","name_en":"برامية التحتا","iso":"LB"},"geometry":{"type":"Point","coordinates":[35.388035,33.575297]}},{"type":"Feature","properties":{"country_en":"Lebanon","name":"Rømyah","name_adm0":"لبنان","name_adm1":"جبل لبنان","name_adm2":"المتن","name_en":"Rømyah","iso":"LB"},"geometry":{"type":"Point","coordinates":[35.621109,33.884667]}},{"type":"Feature","properties":{"country_en":"Lebanon","name":"تربل","name_adm0":"لبنان","name_adm1":"الشمال","name_adm2":"المنية الضنية","name_en":"تربل","iso":"LB"},"geometry":{"type":"Point","coordinates":[35.98306,33.81806]}},{"type":"Feature","properties":{"country_en":"Lebanon","name":"حلبا","name_adm0":"لبنان","name_adm1":"عكار","name_adm2":"عكار","name_en":"Halba","iso":"LB"},"geometry":{"type":"Point","coordinates":[36.07972,34.54278]}},{"type":"Feature","properties":{"country_en":"Lebanon","name":"Kalaat","name_adm0":"لبنان","name_adm1":"جبل لبنان","name_adm2":"كسروان","name_en":"Kalaat","iso":"LB"},"geometry":{"type":"Point","coordinates":[35.788509,34.007709]}},{"type":"Feature","properties":{"country_en":"Lebanon","name":"Jbail","name_adm0":"لبنان","name_adm1":"جبل لبنان","name_adm2":"جبيل","name_en":"Jbail","iso":"LB"},"geometry":{"type":"Point","coordinates":[35.657157,34.125873]}},{"type":"Feature","properties":{"country_en":"Lebanon","name":"جونية","name_adm0":"لبنان","name_adm1":"جبل لبنان","name_adm2":"كسروان","name_en":"Joniyah","iso":"LB"},"geometry":{"type":"Point","coordinates":[35.632511,33.9735445]}},{"type":"Feature","properties":{"country_en":"Lebanon","name":"Jall Ed Did","name_adm0":"لبنان","name_adm1":"جبل لبنان","name_adm2":"المتن","name_en":"Jall Ed Did","iso":"LB"},"geometry":{"type":"Point","coordinates":[35.590442,33.909955]}},{"type":"Feature","properties":{"country_en":"Lebanon","name":"البقاع","name_adm0":"لبنان","name_adm1":"البقاع","name_en":"البقاع","iso":"LB"},"geometry":{"type":"Point","coordinates":[36.090087,33.905755]}},{"type":"Feature","properties":{"country_en":"Lebanon","name":"الجنوب","name_adm0":"لبنان","name_adm1":"الجنوب","name_en":"South Lebanon","iso":"LB"},"geometry":{"type":"Point","coordinates":[35.321044,33.207363]}},{"type":"Feature","properties":{"country_en":"Lebanon","name":"الشمال","name_adm0":"لبنان","name_adm1":"الشمال","name_en":"North Lebanon","iso":"LB"},"geometry":{"type":"Point","coordinates":[35.953702,34.242282]}},{"type":"Feature","properties":{"country_en":"Lebanon","name":"بيروت","name_adm0":"لبنان","name_adm1":"بيروت","name_en":"Beirut","iso":"LB"},"geometry":{"type":"Point","coordinates":[35.491333,33.889797]}},{"type":"Feature","properties":{"country_en":"Lebanon","name":"بشري","name_adm0":"لبنان","name_adm1":"الشمال","name_adm2":"بشري","name_en":"بشري","iso":"LB"},"geometry":{"type":"Point","coordinates":[36.035499,34.248986]}},{"type":"Feature","properties":{"country_en":"Lebanon","name":"صيدا القديمة","name_adm0":"لبنان","name_adm1":"الجنوب","name_adm2":"صيدا","name_en":"صيدا القديمة","iso":"LB"},"geometry":{"type":"Point","coordinates":[35.387735,33.570598]}},{"type":"Feature","properties":{"country_en":"Lebanon","name":"جديتا","name_adm0":"لبنان","name_adm1":"البقاع","name_adm2":"زحلة","name_en":"جديتا","iso":"LB"},"geometry":{"type":"Point","coordinates":[35.862293,33.812314]}},{"type":"Feature","properties":{"country_en":"Lebanon","name":"غدير","name_adm0":"لبنان","name_adm1":"جبل لبنان","name_adm2":"كسروان","name_en":"غدير","iso":"LB"},"geometry":{"type":"Point","coordinates":[35.632511,33.977531]}},{"type":"Feature","properties":{"country_en":"Lebanon","name":"ضبية","name_adm0":"لبنان","name_adm1":"جبل لبنان","name_adm2":"المتن","name_en":"ضبية","iso":"LB"},"geometry":{"type":"Point","coordinates":[35.597518,33.9475]}},{"type":"Feature","properties":{"country_en":"Lebanon","name":"كفررمان","name_adm0":"لبنان","name_adm1":"النبطية","name_adm2":"النبطية","name_en":"كفررمان","iso":"LB"},"geometry":{"type":"Point","coordinates":[35.484466,33.403357]}},{"type":"Feature","properties":{"country_en":"Lebanon","name":"النجمة","name_adm0":"لبنان","name_adm1":"بيروت","name_adm2":"بيروت","name_en":"النجمة","iso":"LB"},"geometry":{"type":"Point","coordinates":[35.499057,33.8933375]}},{"type":"Feature","properties":{"country_en":"Lebanon","name":"صيدا الوسطاني","name_adm0":"لبنان","name_adm1":"الجنوب","name_adm2":"صيدا","name_en":"صيدا الوسطاني","iso":"LB"},"geometry":{"type":"Point","coordinates":[35.3717925,33.567144]}},{"type":"Feature","properties":{"country_en":"Lebanon","name":"بيروت","name_adm0":"لبنان","name_adm1":"بيروت","name_adm2":"بيروت","name_en":"بيروت","iso":"LB"},"geometry":{"type":"Point","coordinates":[35.499057,33.8933375]}},{"type":"Feature","properties":{"country_en":"Lebanon","name":"جزين","name_adm0":"لبنان","name_adm1":"الجنوب","name_adm2":"جزين","name_en":"جزين","iso":"LB"},"geometry":{"type":"Point","coordinates":[35.321044,33.207363]}},{"type":"Feature","properties":{"country_en":"Lebanon","name":"Al ‘abbūdīyah","name_adm0":"لبنان","name_adm1":"عكار","name_adm2":"عكار","name_en":"Al ‘abbūdīyah","iso":"LB"},"geometry":{"type":"Point","coordinates":[36.60442,34.44621]}},{"type":"Feature","properties":{"country_en":"Lebanon","name":"Remeil","name_adm0":"لبنان","name_adm1":"بيروت","name_adm2":"بيروت","name_en":"Remeil","iso":"LB"},"geometry":{"type":"Point","coordinates":[35.513434,33.89510599999999]}},{"type":"Feature","properties":{"country_en":"Lebanon","name":"Qobaiyat","name_adm0":"لبنان","name_adm1":"بيروت","name_adm2":"بيروت","name_en":"Qobaiyat","iso":"LB"},"geometry":{"type":"Point","coordinates":[35.53914,33.891756]}},{"type":"Feature","properties":{"country_en":"Lebanon","name":"الجعيتاوي","name_adm0":"لبنان","name_adm1":"بيروت","name_adm2":"بيروت","name_en":"الجعيتاوي","iso":"LB"},"geometry":{"type":"Point","coordinates":[35.530769,33.891530499999995]}},{"type":"Feature","properties":{"country_en":"Lebanon","name":"انفه","name_adm0":"لبنان","name_adm1":"الشمال","name_adm2":"الكورة","name_en":"Anfah","iso":"LB"},"geometry":{"type":"Point","coordinates":[35.737152,34.360442]}},{"type":"Feature","properties":{"country_en":"Lebanon","name":"Al Majdal","name_adm0":"لبنان","name_adm1":"الشمال","name_adm2":"الكورة","name_en":"Al Majdal","iso":"LB"},"geometry":{"type":"Point","coordinates":[36.24277,35.06242]}},{"type":"Feature","properties":{"country_en":"Lebanon","name":"Al Mīyāsah","name_adm0":"لبنان","name_adm1":"جبل لبنان","name_adm2":"المتن","name_en":"Al Mīyāsah","iso":"LB"},"geometry":{"type":"Point","coordinates":[35.54999999999999,33.86667]}},{"type":"Feature","properties":{"country_en":"Lebanon","name":"منصوري صور","name_adm0":"لبنان","name_adm1":"الجنوب","name_adm2":"صور","name_en":"منصوري صور","iso":"LB"},"geometry":{"type":"Point","coordinates":[35.185089,33.167157]}},{"type":"Feature","properties":{"country_en":"Lebanon","name":"عين الرمانة","name_adm0":"لبنان","name_adm1":"جبل لبنان","name_adm2":"بعبدا","name_en":"عين الرمانة","iso":"LB"},"geometry":{"type":"Point","coordinates":[35.528411,33.863431]}},{"type":"Feature","properties":{"country_en":"Lebanon","name":"الروشة","name_adm0":"لبنان","name_adm1":"بيروت","name_adm2":"بيروت","name_en":"الروشة","iso":"LB"},"geometry":{"type":"Point","coordinates":[35.4718705,33.888704]}},{"type":"Feature","properties":{"country_en":"Lebanon","name":"Mazraa","name_adm0":"لبنان","name_adm1":"بيروت","name_adm2":"بيروت","name_en":"Mazraa","iso":"LB"},"geometry":{"type":"Point","coordinates":[35.84889,34.06417]}},{"type":"Feature","properties":{"country_en":"Lebanon","name":"قريطم","name_adm0":"لبنان","name_adm1":"بيروت","name_adm2":"بيروت","name_en":"قريطم","iso":"LB"},"geometry":{"type":"Point","coordinates":[35.478007,33.892846999999996]}},{"type":"Feature","properties":{"country_en":"Lebanon","name":"عاليه","name_adm0":"لبنان","name_adm1":"جبل لبنان","name_adm2":"عالية","name_en":"Alayh","iso":"LB"},"geometry":{"type":"Point","coordinates":[35.596864,33.806976]}},{"type":"Feature","properties":{"country_en":"Lebanon","name":"عاليه","name_adm0":"لبنان","name_adm1":"جبل لبنان","name_adm2":"عالية","name_en":"عاليه","iso":"LB"},"geometry":{"type":"Point","coordinates":[35.596864,33.806976]}},{"type":"Feature","properties":{"country_en":"Lebanon","name":"اده","name_adm0":"لبنان","name_adm1":"جبل لبنان","name_adm2":"جبيل","name_en":"اده","iso":"LB"},"geometry":{"type":"Point","coordinates":[35.656127,34.130437]}},{"type":"Feature","properties":{"country_en":"Lebanon","name":"Al Qanţārī","name_adm0":"لبنان","name_adm1":"بيروت","name_adm2":"بيروت","name_en":"Al Qanţārī","iso":"LB"},"geometry":{"type":"Point","coordinates":[35.48333,33.89999999999999]}},{"type":"Feature","properties":{"country_en":"Lebanon","name":"Aş Şayfī","name_adm0":"لبنان","name_adm1":"بيروت","name_adm2":"بيروت","name_en":"Aş Şayfī","iso":"LB"},"geometry":{"type":"Point","coordinates":[35.5,33.89999999999999]}},{"type":"Feature","properties":{"country_en":"Lebanon","name":"جبيل","name_adm0":"لبنان","name_adm1":"جبل لبنان","name_adm2":"جبيل","name_en":"جبيل","iso":"LB"},"geometry":{"type":"Point","coordinates":[35.664367,34.135223]}},{"type":"Feature","properties":{"country_en":"Lebanon","name":"بلحص","name_adm0":"لبنان","name_adm1":"جبل لبنان","name_adm2":"جبيل","name_en":"بلحص","iso":"LB"},"geometry":{"type":"Point","coordinates":[35.808786,34.098497]}},{"type":"Feature","properties":{"country_en":"Lebanon","name":"شتورة","name_adm0":"لبنان","name_adm1":"البقاع","name_adm2":"زحلة","name_en":"شتورة","iso":"LB"},"geometry":{"type":"Point","coordinates":[35.862293,33.812314]}},{"type":"Feature","properties":{"country_en":"Lebanon","name":"جميجمه","name_adm0":"لبنان","name_adm1":"النبطية","name_adm2":"بنت جبيل","name_en":"جميجمه","iso":"LB"},"geometry":{"type":"Point","coordinates":[35.43417,33.21528]}},{"type":"Feature","properties":{"country_en":"Lebanon","name":"Az Zalqå'","name_adm0":"لبنان","name_adm1":"جبل لبنان","name_adm2":"المتن","name_en":"Az Zalqå'","iso":"LB"},"geometry":{"type":"Point","coordinates":[35.57639,33.89611]}},{"type":"Feature","properties":{"country_en":"Lebanon","name":"Barghøn","name_adm0":"لبنان","name_adm1":"الشمال","name_adm2":"الكورة","name_en":"Barghøn","iso":"LB"},"geometry":{"type":"Point","coordinates":[35.7575,34.34278]}},{"type":"Feature","properties":{"country_en":"Lebanon","name":"صربا","name_adm0":"لبنان","name_adm1":"جبل لبنان","name_adm2":"كسروان","name_en":"صربا","iso":"LB"},"geometry":{"type":"Point","coordinates":[35.625228,33.98123199999999]}},{"type":"Feature","properties":{"country_en":"Lebanon","name":"Tḩūm","name_adm0":"لبنان","name_adm1":"الشمال","name_adm2":"البترون","name_en":"Tḩūm","iso":"LB"},"geometry":{"type":"Point","coordinates":[35.648692,34.212333]}},{"type":"Feature","properties":{"country_en":"Lebanon","name":"خضر","name_adm0":"لبنان","name_adm1":"بيروت","name_adm2":"بيروت","name_en":"خضر","iso":"LB"},"geometry":{"type":"Point","coordinates":[35.52886199999999,33.89865799999999]}},{"type":"Feature","properties":{"country_en":"Lebanon","name":"Beirut Central District","name_adm0":"لبنان","name_adm1":"بيروت","name_adm2":"بيروت","name_en":"Beirut Central District","iso":"LB"},"geometry":{"type":"Point","coordinates":[35.50424999999999,33.8989295]}},{"type":"Feature","properties":{"country_en":"Lebanon","name":"كرم المهر","name_adm0":"لبنان","name_adm1":"الشمال","name_adm2":"المنية الضنية","name_en":"كرم المهر","iso":"LB"},"geometry":{"type":"Point","coordinates":[35.98583,34.365559999999995]}}]}