{"type":"FeatureCollection","features":[{"type":"Feature","properties":{"country_en":"Mauritius","name":"Plaine des Papayes","name_adm0":"Mauritius","name_adm1":"Pamplemousses","name_en":"Plaine des Papayes","iso":"MU"},"geometry":{"type":"Point","coordinates":[57.57249999999999,-20.065]}},{"type":"Feature","properties":{"country_en":"Mauritius","name":"Pamplemousses","name_adm0":"Mauritius","name_adm1":"Pamplemousses","name_en":"Pamplemousses","iso":"MU"},"geometry":{"type":"Point","coordinates":[57.57027999999999,-20.103889999999996]}},{"type":"Feature","properties":{"country_en":"Mauritius","name":"Souillac","name_adm0":"Mauritius","name_adm1":"Savanne","name_en":"Souillac","iso":"MU"},"geometry":{"type":"Point","coordinates":[57.51667,-20.51667]}},{"type":"Feature","properties":{"country_en":"Mauritius","name":"Port Louis","name_adm0":"Mauritius","name_adm1":"Port Louis","name_en":"Port Louis","iso":"MU"},"geometry":{"type":"Point","coordinates":[57.498889999999996,-20.16194]}},{"type":"Feature","properties":{"country_en":"Mauritius","name":"Riviere Noire","name_adm0":"Mauritius","name_adm1":"Black River","name_en":"Riviere Noire","iso":"MU"},"geometry":{"type":"Point","coordinates":[57.36610999999999,-20.36028]}},{"type":"Feature","properties":{"country_en":"Mauritius","name":"Pailles","name_adm0":"Mauritius","name_adm1":"Port Louis","name_en":"Pailles","iso":"MU"},"geometry":{"type":"Point","coordinates":[57.48826,-20.19271]}},{"type":"Feature","properties":{"country_en":"Mauritius","name":"Beau Bassin","name_adm0":"Mauritius","name_adm1":"Plaines Wilhems","name_en":"Beau Bassin","iso":"MU"},"geometry":{"type":"Point","coordinates":[57.45833,-20.21944]}},{"type":"Feature","properties":{"country_en":"Mauritius","name":"Plaines Wilhems","name_adm0":"Mauritius","name_adm1":"Plaines Wilhems","name_en":"Plaines Wilhems","iso":"MU"},"geometry":{"type":"Point","coordinates":[57.483329999999995,-20.3]}},{"type":"Feature","properties":{"country_en":"Mauritius","name":"Rose Hill","name_adm0":"Mauritius","name_adm1":"Plaines Wilhems","name_en":"Rose Hill","iso":"MU"},"geometry":{"type":"Point","coordinates":[57.47,-20.24194]}},{"type":"Feature","properties":{"country_en":"Mauritius","name":"Grande Baie","name_adm0":"Mauritius","name_adm1":"Riviere du Rempart","name_en":"Grande Baie","iso":"MU"},"geometry":{"type":"Point","coordinates":[57.580149999999996,-20.01816]}},{"type":"Feature","properties":{"country_en":"Mauritius","name":"Chemin Grenier","name_adm0":"Mauritius","name_adm1":"Savanne","name_en":"Chemin Grenier","iso":"MU"},"geometry":{"type":"Point","coordinates":[57.465559999999996,-20.487219999999997]}},{"type":"Feature","properties":{"country_en":"Mauritius","name":"Rodrigues","name_adm0":"Mauritius","name_adm1":"Rodrigues","name_en":"Rodrigues","iso":"MU"},"geometry":{"type":"Point","coordinates":[63.416669999999996,-19.699999999999996]}},{"type":"Feature","properties":{"country_en":"Mauritius","name":"Port Sainte Rita","name_adm0":"Mauritius","name_adm1":"Agalega Islands","name_en":"Port Sainte Rita","iso":"MU"},"geometry":{"type":"Point","coordinates":[56.7,-10.48333]}},{"type":"Feature","properties":{"country_en":"Mauritius","name":"Agalega Islands","name_adm0":"Mauritius","name_adm1":"Agalega Islands","name_en":"Agalega Islands","iso":"MU"},"geometry":{"type":"Point","coordinates":[56.61666999999999,-10.399999999999999]}},{"type":"Feature","properties":{"country_en":"Mauritius","name":"Cargados Carajos","name_adm0":"Mauritius","name_adm1":"Cargados Carajos","name_en":"Cargados Carajos","iso":"MU"},"geometry":{"type":"Point","coordinates":[59.63333,-16.63333]}},{"type":"Feature","properties":{"country_en":"Mauritius","name":"Vacoas","name_adm0":"Mauritius","name_adm1":"Plaines Wilhems","name_en":"Vacoas","iso":"MU"},"geometry":{"type":"Point","coordinates":[57.47833,-20.29806]}},{"type":"Feature","properties":{"country_en":"Mauritius","name":"Poste de Flacq","name_adm0":"Mauritius","name_adm1":"Flacq","name_en":"Poste de Flacq","iso":"MU"},"geometry":{"type":"Point","coordinates":[57.73056,-20.16306]}},{"type":"Feature","properties":{"country_en":"Mauritius","name":"Flacq","name_adm0":"Mauritius","name_adm1":"Flacq","name_en":"Flacq","iso":"MU"},"geometry":{"type":"Point","coordinates":[57.71666999999999,-20.23333]}},{"type":"Feature","properties":{"country_en":"Mauritius","name":"Pamplemousses","name_adm0":"Mauritius","name_adm1":"Pamplemousses","name_en":"Pamplemousses","iso":"MU"},"geometry":{"type":"Point","coordinates":[57.55971999999999,-20.09583]}},{"type":"Feature","properties":{"country_en":"Mauritius","name":"Quatre Bornes","name_adm0":"Mauritius","name_adm1":"Plaines Wilhems","name_en":"Quatre Bornes","iso":"MU"},"geometry":{"type":"Point","coordinates":[57.4791,-20.26381]}},{"type":"Feature","properties":{"country_en":"Mauritius","name":"Rose Belle","name_adm0":"Mauritius","name_adm1":"Grand Port","name_en":"Rose Belle","iso":"MU"},"geometry":{"type":"Point","coordinates":[57.59667,-20.40028]}},{"type":"Feature","properties":{"country_en":"Mauritius","name":"Tamarin","name_adm0":"Mauritius","name_adm1":"Black River","name_en":"Tamarin","iso":"MU"},"geometry":{"type":"Point","coordinates":[57.37055999999999,-20.32556]}},{"type":"Feature","properties":{"country_en":"Mauritius","name":"Moka","name_adm0":"Mauritius","name_adm1":"Moka","name_en":"Moka","iso":"MU"},"geometry":{"type":"Point","coordinates":[57.49583,-20.21889]}},{"type":"Feature","properties":{"country_en":"Mauritius","name":"Long Mountain","name_adm0":"Mauritius","name_adm1":"Pamplemousses","name_en":"Long Mountain","iso":"MU"},"geometry":{"type":"Point","coordinates":[57.56222,-20.14306]}},{"type":"Feature","properties":{"country_en":"Mauritius","name":"Centre de Flacq","name_adm0":"Mauritius","name_adm1":"Flacq","name_en":"Centre de Flacq","iso":"MU"},"geometry":{"type":"Point","coordinates":[57.714439999999996,-20.18972]}},{"type":"Feature","properties":{"country_en":"Mauritius","name":"Grand Port","name_adm0":"Mauritius","name_adm1":"Grand Port","name_en":"Grand Port","iso":"MU"},"geometry":{"type":"Point","coordinates":[57.63333,-20.416669999999996]}},{"type":"Feature","properties":{"country_en":"Mauritius","name":"Moka","name_adm0":"Mauritius","name_adm1":"Moka","name_en":"Moka","iso":"MU"},"geometry":{"type":"Point","coordinates":[57.56667000000001,-20.249999999999996]}},{"type":"Feature","properties":{"country_en":"Mauritius","name":"Triolet","name_adm0":"Mauritius","name_adm1":"Pamplemousses","name_en":"Triolet","iso":"MU"},"geometry":{"type":"Point","coordinates":[57.54527999999999,-20.05472]}},{"type":"Feature","properties":{"country_en":"Mauritius","name":"Saint-Antoine","name_adm0":"Mauritius","name_adm1":"Riviere du Rempart","name_en":"Saint-Antoine","iso":"MU"},"geometry":{"type":"Point","coordinates":[57.65361,-20.04167]}},{"type":"Feature","properties":{"country_en":"Mauritius","name":"Saint Gabriel","name_adm0":"Mauritius","name_adm1":"Rodrigues","name_en":"Saint Gabriel","iso":"MU"},"geometry":{"type":"Point","coordinates":[63.43333,-19.699999999999996]}},{"type":"Feature","properties":{"country_en":"Mauritius","name":"Savanne","name_adm0":"Mauritius","name_adm1":"Savanne","name_en":"Savanne","iso":"MU"},"geometry":{"type":"Point","coordinates":[57.5,-20.46667]}},{"type":"Feature","properties":{"country_en":"Mauritius","name":"Mahebourg","name_adm0":"Mauritius","name_adm1":"Grand Port","name_en":"Mahebourg","iso":"MU"},"geometry":{"type":"Point","coordinates":[57.699999999999996,-20.40806]}},{"type":"Feature","properties":{"country_en":"Mauritius","name":"Mauritius","name_adm0":"Mauritius","name_en":"Mauritius","iso":"MU"},"geometry":{"type":"Point","coordinates":[57.55173799999999,-20.255409]}},{"type":"Feature","properties":{"country_en":"Mauritius","name":"Trou aux Biches","name_adm0":"Mauritius","name_adm1":"Pamplemousses","name_en":"Trou aux Biches","iso":"MU"},"geometry":{"type":"Point","coordinates":[57.54610999999999,-20.045]}},{"type":"Feature","properties":{"country_en":"Mauritius","name":"Black River","name_adm0":"Mauritius","name_adm1":"Black River","name_en":"Black River","iso":"MU"},"geometry":{"type":"Point","coordinates":[57.41667,-20.33333]}},{"type":"Feature","properties":{"country_en":"Mauritius","name":"Port Louis","name_adm0":"Mauritius","name_adm1":"Port Louis","name_en":"Port Louis","iso":"MU"},"geometry":{"type":"Point","coordinates":[57.525,-20.16667]}},{"type":"Feature","properties":{"country_en":"Mauritius","name":"Riviere du Rempart","name_adm0":"Mauritius","name_adm1":"Riviere du Rempart","name_en":"Riviere du Rempart","iso":"MU"},"geometry":{"type":"Point","coordinates":[57.64167,-20.05833]}},{"type":"Feature","properties":{"country_en":"Mauritius","name":"Riviere du Rempart","name_adm0":"Mauritius","name_adm1":"Riviere du Rempart","name_en":"Riviere du Rempart","iso":"MU"},"geometry":{"type":"Point","coordinates":[57.68472,-20.10306]}}]}