{"type":"FeatureCollection","features":[{"type":"Feature","properties":{"country_en":"New Caledonia","name":"Tiéti","name_adm0":"Nouvelle-Calédonie","name_adm1":"Nord","name_adm2":"Poindimie","name_en":"Tiéti","iso":"NC"},"geometry":{"type":"Point","coordinates":[165.3,-20.933329999999998]}},{"type":"Feature","properties":{"country_en":"New Caledonia","name":"Tiébaghi","name_adm0":"Nouvelle-Calédonie","name_adm1":"Nord","name_adm2":"Koumac","name_en":"Tiébaghi","iso":"NC"},"geometry":{"type":"Point","coordinates":[164.21667,-20.45]}},{"type":"Feature","properties":{"country_en":"New Caledonia","name":"Ouégoa","name_adm0":"Nouvelle-Calédonie","name_adm1":"Nord","name_adm2":"Ouegoa","name_en":"Ouégoa","iso":"NC"},"geometry":{"type":"Point","coordinates":[164.43332999999998,-20.35]}},{"type":"Feature","properties":{"country_en":"New Caledonia","name":"Kone","name_adm0":"Nouvelle-Calédonie","name_adm1":"Nord","name_adm2":"Kone","name_en":"Kone","iso":"NC"},"geometry":{"type":"Point","coordinates":[164.71527,-21.0358]}},{"type":"Feature","properties":{"country_en":"New Caledonia","name":"Mare","name_adm0":"Nouvelle-Calédonie","name_adm1":"Loyaute","name_adm2":"Mare","name_en":"Mare","iso":"NC"},"geometry":{"type":"Point","coordinates":[167.97203,-21.591681]}},{"type":"Feature","properties":{"country_en":"New Caledonia","name":"Noumea","name_adm0":"Nouvelle-Calédonie","name_adm1":"Sud","name_adm2":"Noumea","name_en":"Noumea","iso":"NC"},"geometry":{"type":"Point","coordinates":[166.451454,-22.235001999999998]}},{"type":"Feature","properties":{"country_en":"New Caledonia","name":"Tiendanite","name_adm0":"Nouvelle-Calédonie","name_adm1":"Nord","name_adm2":"Hienghene","name_en":"Tiendanite","iso":"NC"},"geometry":{"type":"Point","coordinates":[164.9,-20.76667]}},{"type":"Feature","properties":{"country_en":"New Caledonia","name":"Néoua","name_adm0":"Nouvelle-Calédonie","name_adm1":"Nord","name_adm2":"Houaïlou","name_en":"Néoua","iso":"NC"},"geometry":{"type":"Point","coordinates":[165.63333,-21.43333]}},{"type":"Feature","properties":{"country_en":"New Caledonia","name":"Eacho","name_adm0":"Nouvelle-Calédonie","name_adm1":"Loyaute","name_adm2":"Lifou","name_en":"Eacho","iso":"NC"},"geometry":{"type":"Point","coordinates":[167.13333,-20.78333]}},{"type":"Feature","properties":{"country_en":"New Caledonia","name":"Loyaute","name_adm0":"Nouvelle-Calédonie","name_adm1":"Loyaute","name_en":"Loyaute","iso":"NC"},"geometry":{"type":"Point","coordinates":[166.980441,-20.928639]}},{"type":"Feature","properties":{"country_en":"New Caledonia","name":"Thio","name_adm0":"Nouvelle-Calédonie","name_adm1":"Sud","name_adm2":"Thio","name_en":"Thio","iso":"NC"},"geometry":{"type":"Point","coordinates":[166.21667,-21.61667]}},{"type":"Feature","properties":{"country_en":"New Caledonia","name":"Île des Pins","name_adm0":"Nouvelle-Calédonie","name_adm1":"Sud","name_adm2":"Île des Pins","name_en":"Île des Pins","iso":"NC"},"geometry":{"type":"Point","coordinates":[167.509746,-22.58485]}},{"type":"Feature","properties":{"country_en":"New Caledonia","name":"Yate","name_adm0":"Nouvelle-Calédonie","name_adm1":"Sud","name_adm2":"Yate","name_en":"Yate","iso":"NC"},"geometry":{"type":"Point","coordinates":[166.702251,-22.139075]}},{"type":"Feature","properties":{"country_en":"New Caledonia","name":"Thio","name_adm0":"Nouvelle-Calédonie","name_adm1":"Sud","name_adm2":"Thio","name_en":"Thio","iso":"NC"},"geometry":{"type":"Point","coordinates":[166.39557799999997,-21.708791]}},{"type":"Feature","properties":{"country_en":"New Caledonia","name":"La Foa","name_adm0":"Nouvelle-Calédonie","name_adm1":"Sud","name_adm2":"La Foa","name_en":"La Foa","iso":"NC"},"geometry":{"type":"Point","coordinates":[165.811157,-21.804133]}},{"type":"Feature","properties":{"country_en":"New Caledonia","name":"Houaïlou","name_adm0":"Nouvelle-Calédonie","name_adm1":"Nord","name_adm2":"Houaïlou","name_en":"Houaïlou","iso":"NC"},"geometry":{"type":"Point","coordinates":[165.461826,-21.605726]}},{"type":"Feature","properties":{"country_en":"New Caledonia","name":"Luengoni","name_adm0":"Nouvelle-Calédonie","name_adm1":"Loyaute","name_adm2":"Lifou","name_en":"Luengoni","iso":"NC"},"geometry":{"type":"Point","coordinates":[167.41667,-21.03333]}},{"type":"Feature","properties":{"country_en":"New Caledonia","name":"Koindé","name_adm0":"Nouvelle-Calédonie","name_adm1":"Sud","name_adm2":"La Foa","name_en":"Koindé","iso":"NC"},"geometry":{"type":"Point","coordinates":[165.95,-21.61667]}},{"type":"Feature","properties":{"country_en":"New Caledonia","name":"Bouirou","name_adm0":"Nouvelle-Calédonie","name_adm1":"Nord","name_adm2":"Houaïlou","name_en":"Bouirou","iso":"NC"},"geometry":{"type":"Point","coordinates":[165.53333,-21.45]}},{"type":"Feature","properties":{"country_en":"New Caledonia","name":"Goipin","name_adm0":"Nouvelle-Calédonie","name_adm1":"Nord","name_adm2":"Ponerihouen","name_en":"Goipin","iso":"NC"},"geometry":{"type":"Point","coordinates":[165.26667,-21.216669999999997]}},{"type":"Feature","properties":{"country_en":"New Caledonia","name":"Tiabet","name_adm0":"Nouvelle-Calédonie","name_adm1":"Nord","name_adm2":"Poum","name_en":"Tiabet","iso":"NC"},"geometry":{"type":"Point","coordinates":[164.01667,-20.13333]}},{"type":"Feature","properties":{"country_en":"New Caledonia","name":"Waho","name_adm0":"Nouvelle-Calédonie","name_adm1":"Sud","name_adm2":"Yate","name_en":"Waho","iso":"NC"},"geometry":{"type":"Point","coordinates":[166.881165,-22.167374999999996]}},{"type":"Feature","properties":{"country_en":"New Caledonia","name":"La Foa","name_adm0":"Nouvelle-Calédonie","name_adm1":"Sud","name_adm2":"La Foa","name_en":"La Foa","iso":"NC"},"geometry":{"type":"Point","coordinates":[165.804376,-21.715808999999997]}},{"type":"Feature","properties":{"country_en":"New Caledonia","name":"Muli","name_adm0":"Nouvelle-Calédonie","name_adm1":"Loyaute","name_adm2":"Ouvea","name_en":"Muli","iso":"NC"},"geometry":{"type":"Point","coordinates":[166.46870599999997,-20.706344]}},{"type":"Feature","properties":{"country_en":"New Caledonia","name":"Koné","name_adm0":"Nouvelle-Calédonie","name_adm1":"Nord","name_adm2":"Kone","name_en":"Koné","iso":"NC"},"geometry":{"type":"Point","coordinates":[164.850711,-21.060232]}},{"type":"Feature","properties":{"country_en":"New Caledonia","name":"Nouméa","name_adm0":"Nouvelle-Calédonie","name_adm1":"Sud","name_adm2":"Noumea","name_en":"Noumea","iso":"NC"},"geometry":{"type":"Point","coordinates":[166.440296,-22.281075]}},{"type":"Feature","properties":{"country_en":"New Caledonia","name":"Kirinata","name_adm0":"Nouvelle-Calédonie","name_adm1":"Loyaute","name_adm2":"Lifou","name_en":"Kirinata","iso":"NC"},"geometry":{"type":"Point","coordinates":[167.25,-20.81667]}},{"type":"Feature","properties":{"country_en":"New Caledonia","name":"Koumo","name_adm0":"Nouvelle-Calédonie","name_adm1":"Loyaute","name_adm2":"Lifou","name_en":"Koumo","iso":"NC"},"geometry":{"type":"Point","coordinates":[167.23333,-20.78333]}},{"type":"Feature","properties":{"country_en":"New Caledonia","name":"Chépénéhé","name_adm0":"Nouvelle-Calédonie","name_adm1":"Loyaute","name_adm2":"Lifou","name_en":"Chépénéhé","iso":"NC"},"geometry":{"type":"Point","coordinates":[167.15,-20.78333]}},{"type":"Feature","properties":{"country_en":"New Caledonia","name":"Nord","name_adm0":"Nouvelle-Calédonie","name_adm1":"Nord","name_en":"Nord","iso":"NC"},"geometry":{"type":"Point","coordinates":[165.14923,-20.790782]}},{"type":"Feature","properties":{"country_en":"New Caledonia","name":"Bobeitio","name_adm0":"Nouvelle-Calédonie","name_adm1":"Nord","name_adm2":"Kone","name_en":"Bobeitio","iso":"NC"},"geometry":{"type":"Point","coordinates":[165,-20.96667]}},{"type":"Feature","properties":{"country_en":"New Caledonia","name":"Saint-Joseph","name_adm0":"Nouvelle-Calédonie","name_adm1":"Loyaute","name_adm2":"Ouvea","name_en":"Saint-Joseph","iso":"NC"},"geometry":{"type":"Point","coordinates":[166.59999999999997,-20.45]}},{"type":"Feature","properties":{"country_en":"New Caledonia","name":"Pouembout","name_adm0":"Nouvelle-Calédonie","name_adm1":"Nord","name_adm2":"Pouembout","name_en":"Pouembout","iso":"NC"},"geometry":{"type":"Point","coordinates":[164.88727499999996,-21.10484]}},{"type":"Feature","properties":{"country_en":"New Caledonia","name":"Poindimie","name_adm0":"Nouvelle-Calédonie","name_adm1":"Nord","name_adm2":"Poindimie","name_en":"Poindimie","iso":"NC"},"geometry":{"type":"Point","coordinates":[165.388526,-20.892815]}},{"type":"Feature","properties":{"country_en":"New Caledonia","name":"Bourail","name_adm0":"Nouvelle-Calédonie","name_adm1":"Sud","name_adm2":"Bourail","name_en":"Bourail","iso":"NC"},"geometry":{"type":"Point","coordinates":[165.456848,-21.607482]}},{"type":"Feature","properties":{"country_en":"New Caledonia","name":"Ouéholle","name_adm0":"Nouvelle-Calédonie","name_adm1":"Nord","name_adm2":"Kaala-Gomen","name_en":"Ouéholle","iso":"NC"},"geometry":{"type":"Point","coordinates":[164.53332999999998,-20.6]}},{"type":"Feature","properties":{"country_en":"New Caledonia","name":"Boulouparis","name_adm0":"Nouvelle-Calédonie","name_adm1":"Sud","name_adm2":"Boulouparis","name_en":"Boulouparis","iso":"NC"},"geometry":{"type":"Point","coordinates":[166.046333,-21.960928]}},{"type":"Feature","properties":{"country_en":"New Caledonia","name":"Enefeji","name_adm0":"Nouvelle-Calédonie","name_adm1":"Loyaute","name_adm2":"Lifou","name_en":"Enefeji","iso":"NC"},"geometry":{"type":"Point","coordinates":[167.404861,-21.149674]}},{"type":"Feature","properties":{"country_en":"New Caledonia","name":"Poum","name_adm0":"Nouvelle-Calédonie","name_adm1":"Nord","name_adm2":"Poum","name_en":"Poum","iso":"NC"},"geometry":{"type":"Point","coordinates":[164.094457,-20.241582]}},{"type":"Feature","properties":{"country_en":"New Caledonia","name":"Hienghene","name_adm0":"Nouvelle-Calédonie","name_adm1":"Nord","name_adm2":"Hienghene","name_en":"Hienghene","iso":"NC"},"geometry":{"type":"Point","coordinates":[164.94392299999998,-20.687074]}},{"type":"Feature","properties":{"country_en":"New Caledonia","name":"Ouvea","name_adm0":"Nouvelle-Calédonie","name_adm1":"Loyaute","name_adm2":"Ouvea","name_en":"Ouvea","iso":"NC"},"geometry":{"type":"Point","coordinates":[166.56063,-20.575903]}},{"type":"Feature","properties":{"country_en":"New Caledonia","name":"Voh","name_adm0":"Nouvelle-Calédonie","name_adm1":"Nord","name_adm2":"Voh","name_en":"Voh","iso":"NC"},"geometry":{"type":"Point","coordinates":[165.068206,-20.727688]}},{"type":"Feature","properties":{"country_en":"New Caledonia","name":"Rô","name_adm0":"Nouvelle-Calédonie","name_adm1":"Loyaute","name_adm2":"Mare","name_en":"Rô","iso":"NC"},"geometry":{"type":"Point","coordinates":[167.86667,-21.38333]}},{"type":"Feature","properties":{"country_en":"New Caledonia","name":"Tchamba","name_adm0":"Nouvelle-Calédonie","name_adm1":"Nord","name_adm2":"Ponerihouen","name_en":"Tchamba","iso":"NC"},"geometry":{"type":"Point","coordinates":[165.28333,-21.03333]}},{"type":"Feature","properties":{"country_en":"New Caledonia","name":"Nang","name_adm0":"Nouvelle-Calédonie","name_adm1":"Loyaute","name_adm2":"Lifou","name_en":"Nang","iso":"NC"},"geometry":{"type":"Point","coordinates":[167.23333,-20.81667]}},{"type":"Feature","properties":{"country_en":"New Caledonia","name":"Atéou","name_adm0":"Nouvelle-Calédonie","name_adm1":"Nord","name_adm2":"Voh","name_en":"Atéou","iso":"NC"},"geometry":{"type":"Point","coordinates":[164.9,-20.95]}},{"type":"Feature","properties":{"country_en":"New Caledonia","name":"Tingeting","name_adm0":"Nouvelle-Calédonie","name_adm1":"Loyaute","name_adm2":"Lifou","name_en":"Tingeting","iso":"NC"},"geometry":{"type":"Point","coordinates":[167.26667,-20.73333]}},{"type":"Feature","properties":{"country_en":"New Caledonia","name":"Vao","name_adm0":"Nouvelle-Calédonie","name_adm1":"Sud","name_adm2":"Île des Pins","name_en":"Vao","iso":"NC"},"geometry":{"type":"Point","coordinates":[167.48333,-22.66667]}},{"type":"Feature","properties":{"country_en":"New Caledonia","name":"Doking","name_adm0":"Nouvelle-Calédonie","name_adm1":"Loyaute","name_adm2":"Lifou","name_en":"Doking","iso":"NC"},"geometry":{"type":"Point","coordinates":[167.16667,-20.7]}},{"type":"Feature","properties":{"country_en":"New Caledonia","name":"Tiéta","name_adm0":"Nouvelle-Calédonie","name_adm1":"Nord","name_adm2":"Voh","name_en":"Tiéta","iso":"NC"},"geometry":{"type":"Point","coordinates":[164.73332999999997,-20.933329999999998]}},{"type":"Feature","properties":{"country_en":"New Caledonia","name":"Nouvelle-Calédonie","name_adm0":"Nouvelle-Calédonie","name_en":"New Caledonia","iso":"NC"},"geometry":{"type":"Point","coordinates":[165.22676,-20.965369999999997]}},{"type":"Feature","properties":{"country_en":"New Caledonia","name":"Lifou","name_adm0":"Nouvelle-Calédonie","name_adm1":"Loyaute","name_adm2":"Lifou","name_en":"Lifou","iso":"NC"},"geometry":{"type":"Point","coordinates":[167.239379,-20.894739]}},{"type":"Feature","properties":{"country_en":"New Caledonia","name":"Fayaoué","name_adm0":"Nouvelle-Calédonie","name_adm1":"Loyaute","name_adm2":"Ouvea","name_en":"Fayaoué","iso":"NC"},"geometry":{"type":"Point","coordinates":[166.53333,-20.65]}},{"type":"Feature","properties":{"country_en":"New Caledonia","name":"Patho","name_adm0":"Nouvelle-Calédonie","name_adm1":"Loyaute","name_adm2":"Mare","name_en":"Patho","iso":"NC"},"geometry":{"type":"Point","coordinates":[168.1,-21.58333]}},{"type":"Feature","properties":{"country_en":"New Caledonia","name":"Wakuarori","name_adm0":"Nouvelle-Calédonie","name_adm1":"Loyaute","name_adm2":"Mare","name_en":"Wakuarori","iso":"NC"},"geometry":{"type":"Point","coordinates":[167.9,-21.43333]}},{"type":"Feature","properties":{"country_en":"New Caledonia","name":"Hnacaom","name_adm0":"Nouvelle-Calédonie","name_adm1":"Loyaute","name_adm2":"Lifou","name_en":"Hnacaom","iso":"NC"},"geometry":{"type":"Point","coordinates":[167.21666999999997,-20.71667]}},{"type":"Feature","properties":{"country_en":"New Caledonia","name":"Hnanemuhaetra","name_adm0":"Nouvelle-Calédonie","name_adm1":"Loyaute","name_adm2":"Lifou","name_en":"Hnanemuhaetra","iso":"NC"},"geometry":{"type":"Point","coordinates":[167.21666999999997,-20.7]}},{"type":"Feature","properties":{"country_en":"New Caledonia","name":"Népoui","name_adm0":"Nouvelle-Calédonie","name_adm1":"Nord","name_adm2":"Pouembout","name_en":"Népoui","iso":"NC"},"geometry":{"type":"Point","coordinates":[165,-21.349999999999998]}},{"type":"Feature","properties":{"country_en":"New Caledonia","name":"Poum","name_adm0":"Nouvelle-Calédonie","name_adm1":"Nord","name_adm2":"Poum","name_en":"Poum","iso":"NC"},"geometry":{"type":"Point","coordinates":[164.01667,-20.23333]}},{"type":"Feature","properties":{"country_en":"New Caledonia","name":"Luécilla","name_adm0":"Nouvelle-Calédonie","name_adm1":"Loyaute","name_adm2":"Lifou","name_en":"Luécilla","iso":"NC"},"geometry":{"type":"Point","coordinates":[167.26667,-20.9]}},{"type":"Feature","properties":{"country_en":"New Caledonia","name":"Nathalo","name_adm0":"Nouvelle-Calédonie","name_adm1":"Loyaute","name_adm2":"Lifou","name_en":"Nathalo","iso":"NC"},"geometry":{"type":"Point","coordinates":[167.26667,-20.78333]}},{"type":"Feature","properties":{"country_en":"New Caledonia","name":"Ognat","name_adm0":"Nouvelle-Calédonie","name_adm1":"Loyaute","name_adm2":"Ouvea","name_en":"Ognat","iso":"NC"},"geometry":{"type":"Point","coordinates":[166.65,-20.46667]}},{"type":"Feature","properties":{"country_en":"New Caledonia","name":"Wiwatoul","name_adm0":"Nouvelle-Calédonie","name_adm1":"Loyaute","name_adm2":"Lifou","name_en":"Wiwatoul","iso":"NC"},"geometry":{"type":"Point","coordinates":[167.35,-21.08333]}},{"type":"Feature","properties":{"country_en":"New Caledonia","name":"Ouara","name_adm0":"Nouvelle-Calédonie","name_adm1":"Sud","name_adm2":"Noumea","name_en":"Ouara","iso":"NC"},"geometry":{"type":"Point","coordinates":[166.83667,-22.443329999999996]}},{"type":"Feature","properties":{"country_en":"New Caledonia","name":"Mamié","name_adm0":"Nouvelle-Calédonie","name_adm1":"Sud","name_adm2":"Yate","name_en":"Mamié","iso":"NC"},"geometry":{"type":"Point","coordinates":[166.9,-22.066669999999995]}},{"type":"Feature","properties":{"country_en":"New Caledonia","name":"Gamaï","name_adm0":"Nouvelle-Calédonie","name_adm1":"Nord","name_adm2":"Kaala-Gomen","name_en":"Gamaï","iso":"NC"},"geometry":{"type":"Point","coordinates":[164.48333,-20.7]}},{"type":"Feature","properties":{"country_en":"New Caledonia","name":"Kédeigne","name_adm0":"Nouvelle-Calédonie","name_adm1":"Loyaute","name_adm2":"Lifou","name_en":"Kédeigne","iso":"NC"},"geometry":{"type":"Point","coordinates":[167.21666999999997,-21.03333]}},{"type":"Feature","properties":{"country_en":"New Caledonia","name":"Oua Tom","name_adm0":"Nouvelle-Calédonie","name_adm1":"Sud","name_adm2":"La Foa","name_en":"Oua Tom","iso":"NC"},"geometry":{"type":"Point","coordinates":[165.9,-21.8]}},{"type":"Feature","properties":{"country_en":"New Caledonia","name":"Thuahaïk","name_adm0":"Nouvelle-Calédonie","name_adm1":"Loyaute","name_adm2":"Lifou","name_en":"Thuahaïk","iso":"NC"},"geometry":{"type":"Point","coordinates":[167.28333,-21.01667]}},{"type":"Feature","properties":{"country_en":"New Caledonia","name":"Ouegoa","name_adm0":"Nouvelle-Calédonie","name_adm1":"Nord","name_adm2":"Ouegoa","name_en":"Ouegoa","iso":"NC"},"geometry":{"type":"Point","coordinates":[164.558029,-20.390733]}},{"type":"Feature","properties":{"country_en":"New Caledonia","name":"Païta","name_adm0":"Nouvelle-Calédonie","name_adm1":"Sud","name_adm2":"Païta","name_en":"Païta","iso":"NC"},"geometry":{"type":"Point","coordinates":[166.341676,-22.084366999999997]}},{"type":"Feature","properties":{"country_en":"New Caledonia","name":"Canala","name_adm0":"Nouvelle-Calédonie","name_adm1":"Nord","name_adm2":"Canala","name_en":"Canala","iso":"NC"},"geometry":{"type":"Point","coordinates":[165.966167,-21.519727]}},{"type":"Feature","properties":{"country_en":"New Caledonia","name":"Ponerihouen","name_adm0":"Nouvelle-Calédonie","name_adm1":"Nord","name_adm2":"Ponerihouen","name_en":"Ponerihouen","iso":"NC"},"geometry":{"type":"Point","coordinates":[165.41316,-21.072406]}},{"type":"Feature","properties":{"country_en":"New Caledonia","name":"Huneté","name_adm0":"Nouvelle-Calédonie","name_adm1":"Loyaute","name_adm2":"Lifou","name_en":"Huneté","iso":"NC"},"geometry":{"type":"Point","coordinates":[167.1,-20.76667]}},{"type":"Feature","properties":{"country_en":"New Caledonia","name":"Téouta","name_adm0":"Nouvelle-Calédonie","name_adm1":"Loyaute","name_adm2":"Ouvea","name_en":"Téouta","iso":"NC"},"geometry":{"type":"Point","coordinates":[166.61667,-20.4]}},{"type":"Feature","properties":{"country_en":"New Caledonia","name":"Wé","name_adm0":"Nouvelle-Calédonie","name_adm1":"Loyaute","name_adm2":"Lifou","name_en":"Wé","iso":"NC"},"geometry":{"type":"Point","coordinates":[167.24658899999997,-20.900993]}},{"type":"Feature","properties":{"country_en":"New Caledonia","name":"Xere","name_adm0":"Nouvelle-Calédonie","name_adm1":"Sud","name_adm2":"Yate","name_en":"Xere","iso":"NC"},"geometry":{"type":"Point","coordinates":[167.00282999999996,-22.278922]}},{"type":"Feature","properties":{"country_en":"New Caledonia","name":"Koumac","name_adm0":"Nouvelle-Calédonie","name_adm1":"Nord","name_adm2":"Koumac","name_en":"Koumac","iso":"NC"},"geometry":{"type":"Point","coordinates":[164.253845,-20.544722]}},{"type":"Feature","properties":{"country_en":"New Caledonia","name":"La Roche","name_adm0":"Nouvelle-Calédonie","name_adm1":"Loyaute","name_adm2":"Mare","name_en":"La Roche","iso":"NC"},"geometry":{"type":"Point","coordinates":[168.03333,-21.46667]}},{"type":"Feature","properties":{"country_en":"New Caledonia","name":"Ménaku","name_adm0":"Nouvelle-Calédonie","name_adm1":"Loyaute","name_adm2":"Mare","name_en":"Ménaku","iso":"NC"},"geometry":{"type":"Point","coordinates":[167.96667,-21.45]}},{"type":"Feature","properties":{"country_en":"New Caledonia","name":"Sud","name_adm0":"Nouvelle-Calédonie","name_adm1":"Sud","name_en":"Sud","iso":"NC"},"geometry":{"type":"Point","coordinates":[166.3436505,-22.13192]}},{"type":"Feature","properties":{"country_en":"New Caledonia","name":"Kaala-Gomen","name_adm0":"Nouvelle-Calédonie","name_adm1":"Nord","name_adm2":"Kaala-Gomen","name_en":"Kaala-Gomen","iso":"NC"},"geometry":{"type":"Point","coordinates":[165.14923,-20.790782]}},{"type":"Feature","properties":{"country_en":"New Caledonia","name":"Poya","name_adm0":"Nouvelle-Calédonie","name_adm1":"Nord","name_adm2":"Poya","name_en":"Poya","iso":"NC"},"geometry":{"type":"Point","coordinates":[165.14923,-20.790782]}},{"type":"Feature","properties":{"country_en":"New Caledonia","name":"Ouipouin","name_adm0":"Nouvelle-Calédonie","name_adm1":"Sud","name_adm2":"La Foa","name_en":"Ouipouin","iso":"NC"},"geometry":{"type":"Point","coordinates":[165.96666999999997,-21.649999999999995]}},{"type":"Feature","properties":{"country_en":"New Caledonia","name":"Saint-Yves","name_adm0":"Nouvelle-Calédonie","name_adm1":"Nord","name_adm2":"Ponerihouen","name_en":"Saint-Yves","iso":"NC"},"geometry":{"type":"Point","coordinates":[165.3,-21.1]}},{"type":"Feature","properties":{"country_en":"New Caledonia","name":"Thogone","name_adm0":"Nouvelle-Calédonie","name_adm1":"Loyaute","name_adm2":"Mare","name_en":"Thogone","iso":"NC"},"geometry":{"type":"Point","coordinates":[167.9,-21.4]}},{"type":"Feature","properties":{"country_en":"New Caledonia","name":"Ndji","name_adm0":"Nouvelle-Calédonie","name_adm1":"Sud","name_adm2":"Noumea","name_en":"Ndji","iso":"NC"},"geometry":{"type":"Point","coordinates":[166.78333,-22.46667]}},{"type":"Feature","properties":{"country_en":"New Caledonia","name":"Forêt Plate","name_adm0":"Nouvelle-Calédonie","name_adm1":"Nord","name_adm2":"Pouembout","name_en":"Forêt Plate","iso":"NC"},"geometry":{"type":"Point","coordinates":[165.11667,-21.13333]}},{"type":"Feature","properties":{"country_en":"New Caledonia","name":"Bas-Coulna","name_adm0":"Nouvelle-Calédonie","name_adm1":"Nord","name_adm2":"Hienghene","name_en":"Bas-Coulna","iso":"NC"},"geometry":{"type":"Point","coordinates":[164.78333,-20.68333]}},{"type":"Feature","properties":{"country_en":"New Caledonia","name":"Hmélek","name_adm0":"Nouvelle-Calédonie","name_adm1":"Loyaute","name_adm2":"Lifou","name_en":"Hmélek","iso":"NC"},"geometry":{"type":"Point","coordinates":[167.28333,-21.05]}},{"type":"Feature","properties":{"country_en":"New Caledonia","name":"Hnawayéce","name_adm0":"Nouvelle-Calédonie","name_adm1":"Loyaute","name_adm2":"Mare","name_en":"Hnawayéce","iso":"NC"},"geometry":{"type":"Point","coordinates":[167.86667,-21.43333]}}]}