{"type":"FeatureCollection","features":[{"type":"Feature","properties":{"country_en":"Panama","name":"Puerto Armuelles","name_adm0":"Panamá","name_adm1":"Chiriquí","name_adm2":"Barú","name_en":"Puerto Armuelles","iso":"PA"},"geometry":{"type":"Point","coordinates":[-82.86666999999998,8.28333]}},{"type":"Feature","properties":{"country_en":"Panama","name":"Jaqué","name_adm0":"Panamá","name_adm1":"Darién","name_adm2":"Chepigana","name_en":"Jaqué","iso":"PA"},"geometry":{"type":"Point","coordinates":[-78.17028,7.5175]}},{"type":"Feature","properties":{"country_en":"Panama","name":"Juan Díaz","name_adm0":"Panamá","name_adm1":"Coclé","name_adm2":"Antón","name_en":"Juan Díaz","iso":"PA"},"geometry":{"type":"Point","coordinates":[-80.28332999999999,8.466669999999999]}},{"type":"Feature","properties":{"country_en":"Panama","name":"Garachiné","name_adm0":"Panamá","name_adm1":"Darién","name_adm2":"Chepigana","name_en":"Garachiné","iso":"PA"},"geometry":{"type":"Point","coordinates":[-78.36278,8.06472]}},{"type":"Feature","properties":{"country_en":"Panama","name":"San Francisco","name_adm0":"Panamá","name_adm1":"Veraguas","name_adm2":"Soná","name_en":"San Francisco","iso":"PA"},"geometry":{"type":"Point","coordinates":[-81.36667,8.066669999999998]}},{"type":"Feature","properties":{"country_en":"Panama","name":"San Félix","name_adm0":"Panamá","name_adm1":"Chiriquí","name_adm2":"San Félix","name_en":"San Félix","iso":"PA"},"geometry":{"type":"Point","coordinates":[-81.86667,8.28333]}},{"type":"Feature","properties":{"country_en":"Panama","name":"Sona","name_adm0":"Panamá","name_adm1":"Veraguas","name_adm2":"Soná","name_en":"Sona","iso":"PA"},"geometry":{"type":"Point","coordinates":[-81.31667,8.01667]}},{"type":"Feature","properties":{"country_en":"Panama","name":"Capira","name_adm0":"Panamá","name_adm1":"Panamá","name_adm2":"Capira","name_en":"Capira","iso":"PA"},"geometry":{"type":"Point","coordinates":[-79.88333,8.749999999999998]}},{"type":"Feature","properties":{"country_en":"Panama","name":"Bocas del Toro","name_adm0":"Panamá","name_adm1":"Bocas del Toro","name_en":"Bocas del Toro","iso":"PA"},"geometry":{"type":"Point","coordinates":[-82.65,9.25]}},{"type":"Feature","properties":{"country_en":"Panama","name":"Kuna Yala","name_adm0":"Panamá","name_adm1":"Kuna Yala","name_en":"Kuna Yala","iso":"PA"},"geometry":{"type":"Point","coordinates":[-78.25,9.25]}},{"type":"Feature","properties":{"country_en":"Panama","name":"El Guánico","name_adm0":"Panamá","name_adm1":"Herrera","name_adm2":"Las Minas","name_en":"El Guánico","iso":"PA"},"geometry":{"type":"Point","coordinates":[-80.81667,7.716669999999999]}},{"type":"Feature","properties":{"country_en":"Panama","name":"La Cabima","name_adm0":"Panamá","name_adm1":"Panamá","name_adm2":"Panamá","name_en":"La Cabima","iso":"PA"},"geometry":{"type":"Point","coordinates":[-79.53333,9.13333]}},{"type":"Feature","properties":{"country_en":"Panama","name":"La Loma","name_adm0":"Panamá","name_adm1":"Coclé","name_adm2":"Aguadulce","name_en":"La Loma","iso":"PA"},"geometry":{"type":"Point","coordinates":[-80.63333,8.16667]}},{"type":"Feature","properties":{"country_en":"Panama","name":"Pedregal","name_adm0":"Panamá","name_adm1":"Panamá","name_adm2":"Panamá","name_en":"Pedregal","iso":"PA"},"geometry":{"type":"Point","coordinates":[-82.43333,8.36667]}},{"type":"Feature","properties":{"country_en":"Panama","name":"Puerto Caimito","name_adm0":"Panamá","name_adm1":"Panamá","name_adm2":"La Chorrera","name_en":"Puerto Caimito","iso":"PA"},"geometry":{"type":"Point","coordinates":[-79.71667,8.86667]}},{"type":"Feature","properties":{"country_en":"Panama","name":"Pueblo Viejo","name_adm0":"Panamá","name_adm1":"Chiriquí","name_adm2":"Tolé","name_en":"Pueblo Viejo","iso":"PA"},"geometry":{"type":"Point","coordinates":[-81.66667,8.25]}},{"type":"Feature","properties":{"country_en":"Panama","name":"Cerrón","name_adm0":"Panamá","name_adm1":"Chiriquí","name_adm2":"Renacimiento","name_en":"Cerrón","iso":"PA"},"geometry":{"type":"Point","coordinates":[-82.86666999999998,8.76667]}},{"type":"Feature","properties":{"country_en":"Panama","name":"El Ciruelito","name_adm0":"Panamá","name_adm1":"Veraguas","name_adm2":"Atalaya","name_en":"El Ciruelito","iso":"PA"},"geometry":{"type":"Point","coordinates":[-81.4,8.18333]}},{"type":"Feature","properties":{"country_en":"Panama","name":"La Cabuya","name_adm0":"Panamá","name_adm1":"Herrera","name_adm2":"Ocú","name_en":"La Cabuya","iso":"PA"},"geometry":{"type":"Point","coordinates":[-80.76667,7.983329999999999]}},{"type":"Feature","properties":{"country_en":"Panama","name":"La Madera","name_adm0":"Panamá","name_adm1":"Los Santos","name_adm2":"Pocrí","name_en":"La Madera","iso":"PA"},"geometry":{"type":"Point","coordinates":[-80.15,7.533329999999999]}},{"type":"Feature","properties":{"country_en":"Panama","name":"La Mata","name_adm0":"Panamá","name_adm1":"Veraguas","name_adm2":"Santiago","name_en":"La Mata","iso":"PA"},"geometry":{"type":"Point","coordinates":[-80.88333,8.08333]}},{"type":"Feature","properties":{"country_en":"Panama","name":"Junquito","name_adm0":"Panamá","name_adm1":"Bocas del Toro","name_adm2":"Changuinola","name_en":"Junquito","iso":"PA"},"geometry":{"type":"Point","coordinates":[-82.51667,9.4]}},{"type":"Feature","properties":{"country_en":"Panama","name":"Sapzurro","name_adm0":"Panamá","name_adm1":"Kuna Yala","name_adm2":"Kuna Yala","name_en":"Sapzurro","iso":"PA"},"geometry":{"type":"Point","coordinates":[-77.364349,8.638049]}},{"type":"Feature","properties":{"country_en":"Panama","name":"Aguas Buenas","name_adm0":"Panamá","name_adm1":"Panamá","name_adm2":"Panamá","name_en":"Aguas Buenas","iso":"PA"},"geometry":{"type":"Point","coordinates":[-79.6,9.11667]}},{"type":"Feature","properties":{"country_en":"Panama","name":"Bernardino","name_adm0":"Panamá","name_adm1":"Panamá","name_adm2":"Arraiján","name_en":"Bernardino","iso":"PA"},"geometry":{"type":"Point","coordinates":[-79.73333,8.93333]}},{"type":"Feature","properties":{"country_en":"Panama","name":"Boquerón Viejo","name_adm0":"Panamá","name_adm1":"Chiriquí","name_adm2":"Boquerón","name_en":"Boquerón Viejo","iso":"PA"},"geometry":{"type":"Point","coordinates":[-82.58332999999999,8.51667]}},{"type":"Feature","properties":{"country_en":"Panama","name":"Campana","name_adm0":"Panamá","name_adm1":"Panamá","name_adm2":"Capira","name_en":"Campana","iso":"PA"},"geometry":{"type":"Point","coordinates":[-79.89999999999999,8.71667]}},{"type":"Feature","properties":{"country_en":"Panama","name":"Canta Gallo Abajo","name_adm0":"Panamá","name_adm1":"Chiriquí","name_adm2":"Alanje","name_en":"Canta Gallo Abajo","iso":"PA"},"geometry":{"type":"Point","coordinates":[-82.61667,8.36667]}},{"type":"Feature","properties":{"country_en":"Panama","name":"Cermeño","name_adm0":"Panamá","name_adm1":"Panamá","name_adm2":"Capira","name_en":"Cermeño","iso":"PA"},"geometry":{"type":"Point","coordinates":[-79.85,8.73333]}},{"type":"Feature","properties":{"country_en":"Panama","name":"Coclé","name_adm0":"Panamá","name_adm1":"Coclé","name_adm2":"Penonomé","name_en":"Coclé","iso":"PA"},"geometry":{"type":"Point","coordinates":[-80.43333,8.45]}},{"type":"Feature","properties":{"country_en":"Panama","name":"Chame","name_adm0":"Panamá","name_adm1":"Panamá","name_adm2":"Chame","name_en":"Chame","iso":"PA"},"geometry":{"type":"Point","coordinates":[-79.88333,8.58333]}},{"type":"Feature","properties":{"country_en":"Panama","name":"La Candelaria","name_adm0":"Panamá","name_adm1":"Los Santos","name_adm2":"Pocrí","name_en":"La Candelaria","iso":"PA"},"geometry":{"type":"Point","coordinates":[-80.15,7.7333300000000005]}},{"type":"Feature","properties":{"country_en":"Panama","name":"La Madera","name_adm0":"Panamá","name_adm1":"Coclé","name_adm2":"La Pintada","name_en":"La Madera","iso":"PA"},"geometry":{"type":"Point","coordinates":[-80.55,8.55]}},{"type":"Feature","properties":{"country_en":"Panama","name":"La Paz","name_adm0":"Panamá","name_adm1":"Panamá","name_adm2":"Chame","name_en":"La Paz","iso":"PA"},"geometry":{"type":"Point","coordinates":[-79.88333,8.58333]}},{"type":"Feature","properties":{"country_en":"Panama","name":"La Represa","name_adm0":"Panamá","name_adm1":"Colón","name_adm2":"Colón","name_en":"La Represa","iso":"PA"},"geometry":{"type":"Point","coordinates":[-79.83972,9.33694]}},{"type":"Feature","properties":{"country_en":"Panama","name":"Las Hermanas","name_adm0":"Panamá","name_adm1":"Panamá","name_adm2":"San Carlos","name_en":"Las Hermanas","iso":"PA"},"geometry":{"type":"Point","coordinates":[-79.94999999999999,8.51667]}},{"type":"Feature","properties":{"country_en":"Panama","name":"Madroñal","name_adm0":"Panamá","name_adm1":"Colón","name_adm2":"Colón","name_en":"Madroñal","iso":"PA"},"geometry":{"type":"Point","coordinates":[-79.63333,9.21667]}},{"type":"Feature","properties":{"country_en":"Panama","name":"Miraflores","name_adm0":"Panamá","name_adm1":"Coclé","name_adm2":"Penonomé","name_en":"Miraflores","iso":"PA"},"geometry":{"type":"Point","coordinates":[-80.35,8.5]}},{"type":"Feature","properties":{"country_en":"Panama","name":"Miramar","name_adm0":"Panamá","name_adm1":"Colón","name_adm2":"Santa Isabel","name_en":"Miramar","iso":"PA"},"geometry":{"type":"Point","coordinates":[-79.33333,9.58333]}},{"type":"Feature","properties":{"country_en":"Panama","name":"Nalunega","name_adm0":"Panamá","name_adm1":"Kuna Yala","name_adm2":"Kuna Yala","name_en":"Nalunega","iso":"PA"},"geometry":{"type":"Point","coordinates":[-78.96,9.55417]}},{"type":"Feature","properties":{"country_en":"Panama","name":"Nievecita","name_adm0":"Panamá","name_adm1":"Bocas del Toro","name_adm2":"Changuinola","name_en":"Nievecita","iso":"PA"},"geometry":{"type":"Point","coordinates":[-82.73333,9.56667]}},{"type":"Feature","properties":{"country_en":"Panama","name":"Ojo de Agua","name_adm0":"Panamá","name_adm1":"Chiriquí","name_adm2":"Boquerón","name_en":"Ojo de Agua","iso":"PA"},"geometry":{"type":"Point","coordinates":[-81.66667,8.4]}},{"type":"Feature","properties":{"country_en":"Panama","name":"Ojo de Agua","name_adm0":"Panamá","name_adm1":"Bocas del Toro","name_adm2":"Changuinola","name_en":"Ojo de Agua","iso":"PA"},"geometry":{"type":"Point","coordinates":[-82.45,9.299999999999999]}},{"type":"Feature","properties":{"country_en":"Panama","name":"Portachuelo","name_adm0":"Panamá","name_adm1":"Chiriquí","name_adm2":"David","name_en":"Portachuelo","iso":"PA"},"geometry":{"type":"Point","coordinates":[-82.41667,8.48333]}},{"type":"Feature","properties":{"country_en":"Panama","name":"Ciudad Jardin San Antonio","name_adm0":"Panamá","name_adm1":"Panamá","name_adm2":"San Miguelito","name_en":"Ciudad Jardin San Antonio","iso":"PA"},"geometry":{"type":"Point","coordinates":[-79.450831,9.052698]}},{"type":"Feature","properties":{"country_en":"Panama","name":"Buena Vista","name_adm0":"Panamá","name_adm1":"Panamá","name_adm2":"Chame","name_en":"Buena Vista","iso":"PA"},"geometry":{"type":"Point","coordinates":[-79.96667,8.66667]}},{"type":"Feature","properties":{"country_en":"Panama","name":"Chiguirí Abajo","name_adm0":"Panamá","name_adm1":"Coclé","name_adm2":"Penonomé","name_en":"Chiguirí Abajo","iso":"PA"},"geometry":{"type":"Point","coordinates":[-80.25,8.71667]}},{"type":"Feature","properties":{"country_en":"Panama","name":"El Vedado","name_adm0":"Panamá","name_adm1":"Chiriquí","name_adm2":"David","name_en":"El Vedado","iso":"PA"},"geometry":{"type":"Point","coordinates":[-82.43333,8.41667]}},{"type":"Feature","properties":{"country_en":"Panama","name":"Chepo","name_adm0":"Panamá","name_adm1":"Panamá","name_adm2":"Chepo","name_en":"Chepo","iso":"PA"},"geometry":{"type":"Point","coordinates":[-79.1,9.166669999999998]}},{"type":"Feature","properties":{"country_en":"Panama","name":"Santiago","name_adm0":"Panamá","name_adm1":"Veraguas","name_adm2":"Santiago","name_en":"Santiago","iso":"PA"},"geometry":{"type":"Point","coordinates":[-81.024169,8.167993]}},{"type":"Feature","properties":{"country_en":"Panama","name":"Hornito","name_adm0":"Panamá","name_adm1":"Chiriquí","name_adm2":"Gualaca","name_en":"Hornito","iso":"PA"},"geometry":{"type":"Point","coordinates":[-82.282651,8.737483]}},{"type":"Feature","properties":{"country_en":"Panama","name":"Cabecera de Quebrada Guabo","name_adm0":"Panamá","name_adm1":"Ngöbe Buglé","name_adm2":"Nole Duima","name_en":"Cabecera de Quebrada Guabo","iso":"PA"},"geometry":{"type":"Point","coordinates":[-81.91667,8.36667]}},{"type":"Feature","properties":{"country_en":"Panama","name":"Cabecera de Quebrada Salado","name_adm0":"Panamá","name_adm1":"Ngöbe Buglé","name_adm2":"Mirono","name_en":"Cabecera de Quebrada Salado","iso":"PA"},"geometry":{"type":"Point","coordinates":[-81.96667,8.41667]}},{"type":"Feature","properties":{"country_en":"Panama","name":"Cerro Tijera","name_adm0":"Panamá","name_adm1":"Ngöbe Buglé","name_adm2":"Müna","name_en":"Cerro Tijera","iso":"PA"},"geometry":{"type":"Point","coordinates":[-81.85,8.43333]}},{"type":"Feature","properties":{"country_en":"Panama","name":"Corita","name_adm0":"Panamá","name_adm1":"Ngöbe Buglé","name_adm2":"Ñürüm","name_en":"Corita","iso":"PA"},"geometry":{"type":"Point","coordinates":[-82.23333,8.4]}},{"type":"Feature","properties":{"country_en":"Panama","name":"Corozal","name_adm0":"Panamá","name_adm1":"Emberá","name_adm2":"Cémaco","name_en":"Corozal","iso":"PA"},"geometry":{"type":"Point","coordinates":[-79.56666999999999,8.98333]}},{"type":"Feature","properties":{"country_en":"Panama","name":"Dcalle Larga","name_adm0":"Panamá","name_adm1":"Coclé","name_adm2":"Antón","name_en":"Dcalle Larga","iso":"PA"},"geometry":{"type":"Point","coordinates":[-80.26667,8.466669999999999]}},{"type":"Feature","properties":{"country_en":"Panama","name":"Lajas Blancas","name_adm0":"Panamá","name_adm1":"Emberá","name_adm2":"Cémaco","name_en":"Lajas Blancas","iso":"PA"},"geometry":{"type":"Point","coordinates":[-79.65,9.58333]}},{"type":"Feature","properties":{"country_en":"Panama","name":"Las Maravillas","name_adm0":"Panamá","name_adm1":"Colón","name_adm2":"Donoso","name_en":"Las Maravillas","iso":"PA"},"geometry":{"type":"Point","coordinates":[-80.22083,8.89]}},{"type":"Feature","properties":{"country_en":"Panama","name":"Las Rozas","name_adm0":"Panamá","name_adm1":"Coclé","name_adm2":"Penonomé","name_en":"Las Rozas","iso":"PA"},"geometry":{"type":"Point","coordinates":[-80.4,8.58333]}},{"type":"Feature","properties":{"country_en":"Panama","name":"Pese","name_adm0":"Panamá","name_adm1":"Herrera","name_adm2":"Pesé","name_en":"Pese","iso":"PA"},"geometry":{"type":"Point","coordinates":[-80.61666999999998,7.8999999999999995]}},{"type":"Feature","properties":{"country_en":"Panama","name":"Los Pozos","name_adm0":"Panamá","name_adm1":"Herrera","name_adm2":"Los Pozos","name_en":"Los Pozos","iso":"PA"},"geometry":{"type":"Point","coordinates":[-80.63333,7.78333]}},{"type":"Feature","properties":{"country_en":"Panama","name":"Santa Ana","name_adm0":"Panamá","name_adm1":"Panamá","name_adm2":"Panamá","name_en":"Santa Ana","iso":"PA"},"geometry":{"type":"Point","coordinates":[-80.43333,8.56667]}},{"type":"Feature","properties":{"country_en":"Panama","name":"Pocri","name_adm0":"Panamá","name_adm1":"Los Santos","name_adm2":"Pocrí","name_en":"Pocri","iso":"PA"},"geometry":{"type":"Point","coordinates":[-80.11667,7.6499999999999995]}},{"type":"Feature","properties":{"country_en":"Panama","name":"Las Lajas","name_adm0":"Panamá","name_adm1":"Chiriquí","name_adm2":"San Félix","name_en":"Las Lajas","iso":"PA"},"geometry":{"type":"Point","coordinates":[-81.86667,8.25]}},{"type":"Feature","properties":{"country_en":"Panama","name":"Los Hules Abajo","name_adm0":"Panamá","name_adm1":"Panamá","name_adm2":"La Chorrera","name_en":"Los Hules Abajo","iso":"PA"},"geometry":{"type":"Point","coordinates":[-79.87694,9.0575]}},{"type":"Feature","properties":{"country_en":"Panama","name":"Balboa","name_adm0":"Panamá","name_adm1":"Panamá","name_adm2":"Panamá","name_en":"Balboa","iso":"PA"},"geometry":{"type":"Point","coordinates":[-79.56666999999999,8.95]}},{"type":"Feature","properties":{"country_en":"Panama","name":"Isla Grande","name_adm0":"Panamá","name_adm1":"Colón","name_adm2":"Portobelo","name_en":"Isla Grande","iso":"PA"},"geometry":{"type":"Point","coordinates":[-79.561786,9.633075999999999]}},{"type":"Feature","properties":{"country_en":"Panama","name":"Veraguas","name_adm0":"Panamá","name_adm1":"Veraguas","name_adm2":"Santa Fé","name_en":"Veraguas","iso":"PA"},"geometry":{"type":"Point","coordinates":[-80.89999999999999,8.86667]}},{"type":"Feature","properties":{"country_en":"Panama","name":"Santiago","name_adm0":"Panamá","name_adm1":"Veraguas","name_adm2":"Santiago","name_en":"Santiago","iso":"PA"},"geometry":{"type":"Point","coordinates":[-80.972614,8.102227999999998]}},{"type":"Feature","properties":{"country_en":"Panama","name":"Escobal","name_adm0":"Panamá","name_adm1":"Colón","name_adm2":"Colón","name_en":"Escobal","iso":"PA"},"geometry":{"type":"Point","coordinates":[-79.96194,9.14722]}},{"type":"Feature","properties":{"country_en":"Panama","name":"Ñürüm","name_adm0":"Panamá","name_adm1":"Ngöbe Buglé","name_adm2":"Ñürüm","name_en":"Ñürüm","iso":"PA"},"geometry":{"type":"Point","coordinates":[-81.474609,8.798225]}},{"type":"Feature","properties":{"country_en":"Panama","name":"Playón Chico","name_adm0":"Panamá","name_adm1":"Kuna Yala","name_adm2":"Kuna Yala","name_en":"Playón Chico","iso":"PA"},"geometry":{"type":"Point","coordinates":[-78.23332999999998,9.299999999999999]}},{"type":"Feature","properties":{"country_en":"Panama","name":"Cerro Punta","name_adm0":"Panamá","name_adm1":"Chiriquí","name_adm2":"Bugaba","name_en":"Cerro Punta","iso":"PA"},"geometry":{"type":"Point","coordinates":[-82.56667,8.85]}},{"type":"Feature","properties":{"country_en":"Panama","name":"El Dorado","name_adm0":"Panamá","name_adm1":"Panamá","name_adm2":"Panamá","name_en":"El Dorado","iso":"PA"},"geometry":{"type":"Point","coordinates":[-79.55,9.01667]}},{"type":"Feature","properties":{"country_en":"Panama","name":"Fuerte Davis","name_adm0":"Panamá","name_adm1":"Colón","name_adm2":"Colón","name_en":"Fuerte Davis","iso":"PA"},"geometry":{"type":"Point","coordinates":[-79.9075,9.28556]}},{"type":"Feature","properties":{"country_en":"Panama","name":"Bastimentos","name_adm0":"Panamá","name_adm1":"Bocas del Toro","name_adm2":"Bocas del Toro","name_en":"Bastimentos","iso":"PA"},"geometry":{"type":"Point","coordinates":[-82.198677,9.343042999999998]}},{"type":"Feature","properties":{"country_en":"Panama","name":"Cerro Punta","name_adm0":"Panamá","name_adm1":"Chiriquí","name_adm2":"Bugaba","name_en":"Cerro Punta","iso":"PA"},"geometry":{"type":"Point","coordinates":[-82.5702475,8.85081]}},{"type":"Feature","properties":{"country_en":"Panama","name":"La Macha","name_adm0":"Panamá","name_adm1":"Veraguas","name_adm2":"Las Palmas","name_en":"La Macha","iso":"PA"},"geometry":{"type":"Point","coordinates":[-81.6,7.983329999999999]}},{"type":"Feature","properties":{"country_en":"Panama","name":"San Antonio","name_adm0":"Panamá","name_adm1":"Veraguas","name_adm2":"Atalaya","name_en":"San Antonio","iso":"PA"},"geometry":{"type":"Point","coordinates":[-81.32249999999999,7.829720000000001]}},{"type":"Feature","properties":{"country_en":"Panama","name":"Mamituco","name_adm0":"Panamá","name_adm1":"Kuna Yala","name_adm2":"Kuna Yala","name_en":"Mamituco","iso":"PA"},"geometry":{"type":"Point","coordinates":[-77.98333,9.18333]}},{"type":"Feature","properties":{"country_en":"Panama","name":"Cartí Suitupo","name_adm0":"Panamá","name_adm1":"Kuna Yala","name_adm2":"Kuna Yala","name_en":"Cartí Suitupo","iso":"PA"},"geometry":{"type":"Point","coordinates":[-78.96667,9.47417]}},{"type":"Feature","properties":{"country_en":"Panama","name":"Boca de Soloy","name_adm0":"Panamá","name_adm1":"Ngöbe Buglé","name_adm2":"Besiko","name_en":"Boca de Soloy","iso":"PA"},"geometry":{"type":"Point","coordinates":[-82.06667,8.5]}},{"type":"Feature","properties":{"country_en":"Panama","name":"Boca de las Minas","name_adm0":"Panamá","name_adm1":"Coclé","name_adm2":"Penonomé","name_en":"Boca de las Minas","iso":"PA"},"geometry":{"type":"Point","coordinates":[-80.15,8.73333]}},{"type":"Feature","properties":{"country_en":"Panama","name":"Boca del Monte","name_adm0":"Panamá","name_adm1":"Chiriquí","name_adm2":"San Lorenzo","name_en":"Boca del Monte","iso":"PA"},"geometry":{"type":"Point","coordinates":[-82.11667,8.35]}},{"type":"Feature","properties":{"country_en":"Panama","name":"Bugabita Arriba","name_adm0":"Panamá","name_adm1":"Chiriquí","name_adm2":"Bugaba","name_en":"Bugabita Arriba","iso":"PA"},"geometry":{"type":"Point","coordinates":[-82.63333,8.51667]}},{"type":"Feature","properties":{"country_en":"Panama","name":"Cañas","name_adm0":"Panamá","name_adm1":"Los Santos","name_adm2":"Tonosí","name_en":"Cañas","iso":"PA"},"geometry":{"type":"Point","coordinates":[-80.26667,7.450000000000001]}},{"type":"Feature","properties":{"country_en":"Panama","name":"Cartí Tupile","name_adm0":"Panamá","name_adm1":"Kuna Yala","name_adm2":"Kuna Yala","name_en":"Cartí Tupile","iso":"PA"},"geometry":{"type":"Point","coordinates":[-78.96583,9.4825]}},{"type":"Feature","properties":{"country_en":"Panama","name":"Chiriquí","name_adm0":"Panamá","name_adm1":"Chiriquí","name_adm2":"David","name_en":"Chiriquí","iso":"PA"},"geometry":{"type":"Point","coordinates":[-82.31667,8.4]}},{"type":"Feature","properties":{"country_en":"Panama","name":"Chigoré","name_adm0":"Panamá","name_adm1":"Coclé","name_adm2":"Penonomé","name_en":"Chigoré","iso":"PA"},"geometry":{"type":"Point","coordinates":[-80.35,8.53333]}},{"type":"Feature","properties":{"country_en":"Panama","name":"El Palmar","name_adm0":"Panamá","name_adm1":"Veraguas","name_adm2":"Santa Fé","name_en":"El Palmar","iso":"PA"},"geometry":{"type":"Point","coordinates":[-81.08333,8.53333]}},{"type":"Feature","properties":{"country_en":"Panama","name":"El Pantano","name_adm0":"Panamá","name_adm1":"Veraguas","name_adm2":"Santa Fé","name_en":"El Pantano","iso":"PA"},"geometry":{"type":"Point","coordinates":[-81.06667,8.55]}},{"type":"Feature","properties":{"country_en":"Panama","name":"El Picacho","name_adm0":"Panamá","name_adm1":"Coclé","name_adm2":"La Pintada","name_en":"El Picacho","iso":"PA"},"geometry":{"type":"Point","coordinates":[-80.5,8.58333]}},{"type":"Feature","properties":{"country_en":"Panama","name":"El Real de Santa María","name_adm0":"Panamá","name_adm1":"Darién","name_adm2":"Pinogana","name_en":"El Real de Santa María","iso":"PA"},"geometry":{"type":"Point","coordinates":[-77.73438,8.10991]}},{"type":"Feature","properties":{"country_en":"Panama","name":"Filipinas","name_adm0":"Panamá","name_adm1":"Panamá","name_adm2":"Capira","name_en":"Filipinas","iso":"PA"},"geometry":{"type":"Point","coordinates":[-79.93333,8.749999999999998]}},{"type":"Feature","properties":{"country_en":"Panama","name":"Guayabal","name_adm0":"Panamá","name_adm1":"Chiriquí","name_adm2":"David","name_en":"Guayabal","iso":"PA"},"geometry":{"type":"Point","coordinates":[-82.35,8.466669999999999]}},{"type":"Feature","properties":{"country_en":"Panama","name":"Güerita","name_adm0":"Panamá","name_adm1":"Los Santos","name_adm2":"Macaracas","name_en":"Güerita","iso":"PA"},"geometry":{"type":"Point","coordinates":[-80.61666999999998,7.56667]}},{"type":"Feature","properties":{"country_en":"Panama","name":"La Hincada","name_adm0":"Panamá","name_adm1":"Coclé","name_adm2":"Antón","name_en":"La Hincada","iso":"PA"},"geometry":{"type":"Point","coordinates":[-80.25,8.41667]}},{"type":"Feature","properties":{"country_en":"Panama","name":"La Iguana","name_adm0":"Panamá","name_adm1":"Veraguas","name_adm2":"Santiago","name_en":"La Iguana","iso":"PA"},"geometry":{"type":"Point","coordinates":[-81.03333,8.11667]}},{"type":"Feature","properties":{"country_en":"Panama","name":"La Laguna","name_adm0":"Panamá","name_adm1":"Panamá","name_adm2":"San Carlos","name_en":"La Laguna","iso":"PA"},"geometry":{"type":"Point","coordinates":[-80.05,8.6]}},{"type":"Feature","properties":{"country_en":"Panama","name":"La Laguna","name_adm0":"Panamá","name_adm1":"Los Santos","name_adm2":"Pocrí","name_en":"La Laguna","iso":"PA"},"geometry":{"type":"Point","coordinates":[-80.11667,7.63333]}},{"type":"Feature","properties":{"country_en":"Panama","name":"La Mesa","name_adm0":"Panamá","name_adm1":"Los Santos","name_adm2":"Macaracas","name_en":"La Mesa","iso":"PA"},"geometry":{"type":"Point","coordinates":[-80.6175,7.66222]}},{"type":"Feature","properties":{"country_en":"Panama","name":"La Pacheca","name_adm0":"Panamá","name_adm1":"Los Santos","name_adm2":"Guararé","name_en":"La Pacheca","iso":"PA"},"geometry":{"type":"Point","coordinates":[-80.26667,7.83333]}},{"type":"Feature","properties":{"country_en":"Panama","name":"La Pita","name_adm0":"Panamá","name_adm1":"Panamá","name_adm2":"Capira","name_en":"La Pita","iso":"PA"},"geometry":{"type":"Point","coordinates":[-80.13333,8.56667]}},{"type":"Feature","properties":{"country_en":"Panama","name":"La Polvareda","name_adm0":"Panamá","name_adm1":"Panamá","name_adm2":"Arraiján","name_en":"La Polvareda","iso":"PA"},"geometry":{"type":"Point","coordinates":[-79.65,8.93333]}},{"type":"Feature","properties":{"country_en":"Panama","name":"Mata del Nance","name_adm0":"Panamá","name_adm1":"Chiriquí","name_adm2":"David","name_en":"Mata del Nance","iso":"PA"},"geometry":{"type":"Point","coordinates":[-82.4,8.45]}},{"type":"Feature","properties":{"country_en":"Panama","name":"Las Matas","name_adm0":"Panamá","name_adm1":"Chiriquí","name_adm2":"San Félix","name_en":"Las Matas","iso":"PA"},"geometry":{"type":"Point","coordinates":[-81.86667,8.3]}},{"type":"Feature","properties":{"country_en":"Panama","name":"Las Lajas","name_adm0":"Panamá","name_adm1":"Panamá","name_adm2":"Panamá","name_en":"Las Lajas","iso":"PA"},"geometry":{"type":"Point","coordinates":[-79.53333,9.08333]}},{"type":"Feature","properties":{"country_en":"Panama","name":"Las Margaritas","name_adm0":"Panamá","name_adm1":"Panamá","name_adm2":"Chepo","name_en":"Las Margaritas","iso":"PA"},"geometry":{"type":"Point","coordinates":[-79.08333,9.18333]}},{"type":"Feature","properties":{"country_en":"Panama","name":"Las Trancas","name_adm0":"Panamá","name_adm1":"Ngöbe Buglé","name_adm2":"Müna","name_en":"Las Trancas","iso":"PA"},"geometry":{"type":"Point","coordinates":[-81.06667,8.5]}},{"type":"Feature","properties":{"country_en":"Panama","name":"Mata Ahogado","name_adm0":"Panamá","name_adm1":"Panamá","name_adm2":"San Carlos","name_en":"Mata Ahogado","iso":"PA"},"geometry":{"type":"Point","coordinates":[-80.1,8.616669999999997]}},{"type":"Feature","properties":{"country_en":"Panama","name":"Potrerillos Arriba","name_adm0":"Panamá","name_adm1":"Chiriquí","name_adm2":"Dolega","name_en":"Potrerillos Arriba","iso":"PA"},"geometry":{"type":"Point","coordinates":[-82.5,8.68333]}},{"type":"Feature","properties":{"country_en":"Panama","name":"Potrerillos Abajo","name_adm0":"Panamá","name_adm1":"Chiriquí","name_adm2":"Dolega","name_en":"Potrerillos Abajo","iso":"PA"},"geometry":{"type":"Point","coordinates":[-82.48333,8.65]}},{"type":"Feature","properties":{"country_en":"Panama","name":"Paja de Sombrero","name_adm0":"Panamá","name_adm1":"Chiriquí","name_adm2":"Gualaca","name_en":"Paja de Sombrero","iso":"PA"},"geometry":{"type":"Point","coordinates":[-82.31667,8.68333]}},{"type":"Feature","properties":{"country_en":"Panama","name":"Palenque","name_adm0":"Panamá","name_adm1":"Colón","name_adm2":"Santa Isabel","name_en":"Palenque","iso":"PA"},"geometry":{"type":"Point","coordinates":[-79.36667,9.58333]}},{"type":"Feature","properties":{"country_en":"Panama","name":"Palmilla","name_adm0":"Panamá","name_adm1":"Coclé","name_adm2":"Penonomé","name_en":"Palmilla","iso":"PA"},"geometry":{"type":"Point","coordinates":[-80.18333,8.66667]}},{"type":"Feature","properties":{"country_en":"Panama","name":"Pueblo Nuevo","name_adm0":"Panamá","name_adm1":"Colón","name_adm2":"Colón","name_en":"Pueblo Nuevo","iso":"PA"},"geometry":{"type":"Point","coordinates":[-79.83388999999998,9.03472]}},{"type":"Feature","properties":{"country_en":"Panama","name":"Pueblo Nuevo","name_adm0":"Panamá","name_adm1":"Coclé","name_adm2":"Penonomé","name_en":"Pueblo Nuevo","iso":"PA"},"geometry":{"type":"Point","coordinates":[-80.36667,8.51667]}},{"type":"Feature","properties":{"country_en":"Panama","name":"San Miguelito","name_adm0":"Panamá","name_adm1":"Panamá","name_adm2":"San Miguelito","name_en":"San Miguelito","iso":"PA"},"geometry":{"type":"Point","coordinates":[-79.5,9.033329999999998]}},{"type":"Feature","properties":{"country_en":"Panama","name":"San Vicente de Bique","name_adm0":"Panamá","name_adm1":"Panamá","name_adm2":"Arraiján","name_en":"San Vicente de Bique","iso":"PA"},"geometry":{"type":"Point","coordinates":[-79.68333,8.91667]}},{"type":"Feature","properties":{"country_en":"Panama","name":"Santa Rosa","name_adm0":"Panamá","name_adm1":"Colón","name_adm2":"Colón","name_en":"Santa Rosa","iso":"PA"},"geometry":{"type":"Point","coordinates":[-79.65,9.18333]}},{"type":"Feature","properties":{"country_en":"Panama","name":"San Pablo Nuevo Abajo","name_adm0":"Panamá","name_adm1":"Chiriquí","name_adm2":"David","name_en":"San Pablo Nuevo Abajo","iso":"PA"},"geometry":{"type":"Point","coordinates":[-82.5,8.43333]}},{"type":"Feature","properties":{"country_en":"Panama","name":"Santa Pera","name_adm0":"Panamá","name_adm1":"Panamá","name_adm2":"San Miguelito","name_en":"Santa Pera","iso":"PA"},"geometry":{"type":"Point","coordinates":[-79.46667,9.05]}},{"type":"Feature","properties":{"country_en":"Panama","name":"Tambo","name_adm0":"Panamá","name_adm1":"Coclé","name_adm2":"Penonomé","name_en":"Tambo","iso":"PA"},"geometry":{"type":"Point","coordinates":[-80.28332999999999,8.66667]}},{"type":"Feature","properties":{"country_en":"Panama","name":"Tavidal Arriba","name_adm0":"Panamá","name_adm1":"Coclé","name_adm2":"Penonomé","name_en":"Tavidal Arriba","iso":"PA"},"geometry":{"type":"Point","coordinates":[-80.18333,8.66667]}},{"type":"Feature","properties":{"country_en":"Panama","name":"Ticantiquí","name_adm0":"Panamá","name_adm1":"Kuna Yala","name_adm2":"Kuna Yala","name_en":"Ticantiquí","iso":"PA"},"geometry":{"type":"Point","coordinates":[-78.48333,9.41667]}},{"type":"Feature","properties":{"country_en":"Panama","name":"Tobobe","name_adm0":"Panamá","name_adm1":"Ngöbe Buglé","name_adm2":"Kusapín","name_en":"Tobobe","iso":"PA"},"geometry":{"type":"Point","coordinates":[-81.83333,9.11667]}},{"type":"Feature","properties":{"country_en":"Panama","name":"Villa Rosario","name_adm0":"Panamá","name_adm1":"Panamá","name_adm2":"Capira","name_en":"Villa Rosario","iso":"PA"},"geometry":{"type":"Point","coordinates":[-79.86667,8.78333]}},{"type":"Feature","properties":{"country_en":"Panama","name":"Villa Carmen","name_adm0":"Panamá","name_adm1":"Panamá","name_adm2":"Capira","name_en":"Villa Carmen","iso":"PA"},"geometry":{"type":"Point","coordinates":[-79.86667,8.8]}},{"type":"Feature","properties":{"country_en":"Panama","name":"Tupak","name_adm0":"Panamá","name_adm1":"Kuna Yala","name_adm2":"Kuna Yala","name_en":"Tupak","iso":"PA"},"geometry":{"type":"Point","coordinates":[-77.74999999999999,9.01667]}},{"type":"Feature","properties":{"country_en":"Panama","name":"Veraguas","name_adm0":"Panamá","name_adm1":"Veraguas","name_en":"Veraguas","iso":"PA"},"geometry":{"type":"Point","coordinates":[-81.13333,8.25]}},{"type":"Feature","properties":{"country_en":"Panama","name":"Los Cabezos","name_adm0":"Panamá","name_adm1":"Chiriquí","name_adm2":"Boquete","name_en":"Los Cabezos","iso":"PA"},"geometry":{"type":"Point","coordinates":[-82.45,8.8]}},{"type":"Feature","properties":{"country_en":"Panama","name":"Panamá","name_adm0":"Panamá","name_en":"Panama","iso":"PA"},"geometry":{"type":"Point","coordinates":[-80.112777,8.417699]}},{"type":"Feature","properties":{"country_en":"Panama","name":"Pedasí","name_adm0":"Panamá","name_adm1":"Los Santos","name_adm2":"Pedasí","name_en":"Pedasí","iso":"PA"},"geometry":{"type":"Point","coordinates":[-80.139684,7.431581]}},{"type":"Feature","properties":{"country_en":"Panama","name":"Penonomé","name_adm0":"Panamá","name_adm1":"Coclé","name_adm2":"Penonomé","name_en":"Penonomé","iso":"PA"},"geometry":{"type":"Point","coordinates":[-80.403442,8.494104]}},{"type":"Feature","properties":{"country_en":"Panama","name":"Portobelo","name_adm0":"Panamá","name_adm1":"Colón","name_adm2":"Portobelo","name_en":"Portobelo","iso":"PA"},"geometry":{"type":"Point","coordinates":[-79.702892,9.501380999999999]}},{"type":"Feature","properties":{"country_en":"Panama","name":"Alanje","name_adm0":"Panamá","name_adm1":"Chiriquí","name_adm2":"Alanje","name_en":"Alanje","iso":"PA"},"geometry":{"type":"Point","coordinates":[-82.49702399999998,8.443846]}},{"type":"Feature","properties":{"country_en":"Panama","name":"Natá","name_adm0":"Panamá","name_adm1":"Coclé","name_adm2":"Natá","name_en":"Natá","iso":"PA"},"geometry":{"type":"Point","coordinates":[-80.51666999999999,8.333329999999998]}},{"type":"Feature","properties":{"country_en":"Panama","name":"Almirante","name_adm0":"Panamá","name_adm1":"Bocas del Toro","name_adm2":"Changuinola","name_en":"Almirante","iso":"PA"},"geometry":{"type":"Point","coordinates":[-82.4,9.299999999999999]}},{"type":"Feature","properties":{"country_en":"Panama","name":"La Pintada","name_adm0":"Panamá","name_adm1":"Coclé","name_adm2":"La Pintada","name_en":"La Pintada","iso":"PA"},"geometry":{"type":"Point","coordinates":[-80.45,8.6]}},{"type":"Feature","properties":{"country_en":"Panama","name":"Cerro Cañito","name_adm0":"Panamá","name_adm1":"Panamá","name_adm2":"La Chorrera","name_en":"Cerro Cañito","iso":"PA"},"geometry":{"type":"Point","coordinates":[-79.80611,9.04417]}},{"type":"Feature","properties":{"country_en":"Panama","name":"Caldera","name_adm0":"Panamá","name_adm1":"Chiriquí","name_adm2":"Boquete","name_en":"Caldera","iso":"PA"},"geometry":{"type":"Point","coordinates":[-82.38333,8.65]}},{"type":"Feature","properties":{"country_en":"Panama","name":"Coronado","name_adm0":"Panamá","name_adm1":"Panamá","name_adm2":"Chame","name_en":"Coronado","iso":"PA"},"geometry":{"type":"Point","coordinates":[-80.75,8.36667]}},{"type":"Feature","properties":{"country_en":"Panama","name":"Farfan","name_adm0":"Panamá","name_adm1":"Panamá","name_adm2":"Panamá","name_en":"Farfan","iso":"PA"},"geometry":{"type":"Point","coordinates":[-79.58333,8.93333]}},{"type":"Feature","properties":{"country_en":"Panama","name":"Jaramillo Arriba","name_adm0":"Panamá","name_adm1":"Chiriquí","name_adm2":"Boquete","name_en":"Jaramillo Arriba","iso":"PA"},"geometry":{"type":"Point","coordinates":[-82.41667,8.8]}},{"type":"Feature","properties":{"country_en":"Panama","name":"Llano Bonito","name_adm0":"Panamá","name_adm1":"Herrera","name_adm2":"Chitré","name_en":"Llano Bonito","iso":"PA"},"geometry":{"type":"Point","coordinates":[-80.43333,7.966669999999999]}},{"type":"Feature","properties":{"country_en":"Panama","name":"California","name_adm0":"Panamá","name_adm1":"Bocas del Toro","name_adm2":"Changuinola","name_en":"California","iso":"PA"},"geometry":{"type":"Point","coordinates":[-82.6,9.53333]}},{"type":"Feature","properties":{"country_en":"Panama","name":"El Barrero","name_adm0":"Panamá","name_adm1":"Chiriquí","name_adm2":"David","name_en":"El Barrero","iso":"PA"},"geometry":{"type":"Point","coordinates":[-82.43333,8.41667]}},{"type":"Feature","properties":{"country_en":"Panama","name":"Altamira","name_adm0":"Panamá","name_adm1":"Chiriquí","name_adm2":"Renacimiento","name_en":"Altamira","iso":"PA"},"geometry":{"type":"Point","coordinates":[-82.45,8.71667]}},{"type":"Feature","properties":{"country_en":"Panama","name":"Aguacaton","name_adm0":"Panamá","name_adm1":"Chiriquí","name_adm2":"Barú","name_en":"Aguacaton","iso":"PA"},"geometry":{"type":"Point","coordinates":[-81.66667,8.466669999999999]}},{"type":"Feature","properties":{"country_en":"Panama","name":"Alto de San Francisco","name_adm0":"Panamá","name_adm1":"Panamá","name_adm2":"La Chorrera","name_en":"Alto de San Francisco","iso":"PA"},"geometry":{"type":"Point","coordinates":[-79.79,8.86167]}},{"type":"Feature","properties":{"country_en":"Panama","name":"Alto Divisa","name_adm0":"Panamá","name_adm1":"Colón","name_adm2":"Colón","name_en":"Alto Divisa","iso":"PA"},"geometry":{"type":"Point","coordinates":[-79.94083,8.92611]}},{"type":"Feature","properties":{"country_en":"Panama","name":"El Cristo","name_adm0":"Panamá","name_adm1":"Los Santos","name_adm2":"Los Santos","name_en":"El Cristo","iso":"PA"},"geometry":{"type":"Point","coordinates":[-80.61666999999998,8.25]}},{"type":"Feature","properties":{"country_en":"Panama","name":"Cerro Blanco","name_adm0":"Panamá","name_adm1":"Ngöbe Buglé","name_adm2":"Müna","name_en":"Cerro Blanco","iso":"PA"},"geometry":{"type":"Point","coordinates":[-81.98333,8.466669999999999]}},{"type":"Feature","properties":{"country_en":"Panama","name":"Cerro Corozo","name_adm0":"Panamá","name_adm1":"Ngöbe Buglé","name_adm2":"Mirono","name_en":"Cerro Corozo","iso":"PA"},"geometry":{"type":"Point","coordinates":[-82.28333,8.58333]}},{"type":"Feature","properties":{"country_en":"Panama","name":"El Puerto","name_adm0":"Panamá","name_adm1":"Chiriquí","name_adm2":"Remedios","name_en":"El Puerto","iso":"PA"},"geometry":{"type":"Point","coordinates":[-81.25,8.11667]}},{"type":"Feature","properties":{"country_en":"Panama","name":"El Tigre","name_adm0":"Panamá","name_adm1":"Panamá","name_adm2":"Chepo","name_en":"El Tigre","iso":"PA"},"geometry":{"type":"Point","coordinates":[-79.91667,9.01667]}},{"type":"Feature","properties":{"country_en":"Panama","name":"Finca Ceiba","name_adm0":"Panamá","name_adm1":"Chiriquí","name_adm2":"Barú","name_en":"Finca Ceiba","iso":"PA"},"geometry":{"type":"Point","coordinates":[-82.86666999999998,8.4]}},{"type":"Feature","properties":{"country_en":"Panama","name":"Finca Corozo","name_adm0":"Panamá","name_adm1":"Chiriquí","name_adm2":"Barú","name_en":"Finca Corozo","iso":"PA"},"geometry":{"type":"Point","coordinates":[-82.78333,8.36667]}},{"type":"Feature","properties":{"country_en":"Panama","name":"Finca Majagua","name_adm0":"Panamá","name_adm1":"Chiriquí","name_adm2":"Barú","name_en":"Finca Majagua","iso":"PA"},"geometry":{"type":"Point","coordinates":[-82.83333,8.35]}},{"type":"Feature","properties":{"country_en":"Panama","name":"Limonada","name_adm0":"Panamá","name_adm1":"Panamá","name_adm2":"Chepo","name_en":"Limonada","iso":"PA"},"geometry":{"type":"Point","coordinates":[-78.98722,9.096939999999998]}},{"type":"Feature","properties":{"country_en":"Panama","name":"Llano Camaron","name_adm0":"Panamá","name_adm1":"Ngöbe Buglé","name_adm2":"Müna","name_en":"Llano Camaron","iso":"PA"},"geometry":{"type":"Point","coordinates":[-82.05,8.4]}},{"type":"Feature","properties":{"country_en":"Panama","name":"Llano Pita","name_adm0":"Panamá","name_adm1":"Ngöbe Buglé","name_adm2":"Müna","name_en":"Llano Pita","iso":"PA"},"geometry":{"type":"Point","coordinates":[-81.46667,8.199999999999998]}},{"type":"Feature","properties":{"country_en":"Panama","name":"Loma del Viento","name_adm0":"Panamá","name_adm1":"Chiriquí","name_adm2":"Remedios","name_en":"Loma del Viento","iso":"PA"},"geometry":{"type":"Point","coordinates":[-81.63333,8.199999999999998]}},{"type":"Feature","properties":{"country_en":"Panama","name":"Los Azules","name_adm0":"Panamá","name_adm1":"Chiriquí","name_adm2":"Bugaba","name_en":"Los Azules","iso":"PA"},"geometry":{"type":"Point","coordinates":[-82.26667,9.35]}},{"type":"Feature","properties":{"country_en":"Panama","name":"Rio Piragua","name_adm0":"Panamá","name_adm1":"Panamá","name_adm2":"Kuna de Madungandí","name_en":"Rio Piragua","iso":"PA"},"geometry":{"type":"Point","coordinates":[-78.60806,9.22806]}},{"type":"Feature","properties":{"country_en":"Panama","name":"Rotellano","name_adm0":"Panamá","name_adm1":"Coclé","name_adm2":"La Pintada","name_en":"Rotellano","iso":"PA"},"geometry":{"type":"Point","coordinates":[-80.53333,8.56667]}},{"type":"Feature","properties":{"country_en":"Panama","name":"Saliente","name_adm0":"Panamá","name_adm1":"Veraguas","name_adm2":"Cañazas","name_en":"Saliente","iso":"PA"},"geometry":{"type":"Point","coordinates":[-81.56667,8.066669999999998]}},{"type":"Feature","properties":{"country_en":"Panama","name":"Arraiján","name_adm0":"Panamá","name_adm1":"Panamá","name_adm2":"Arraiján","name_en":"Arraiján","iso":"PA"},"geometry":{"type":"Point","coordinates":[-79.655637,9.073778]}},{"type":"Feature","properties":{"country_en":"Panama","name":"Tonosí","name_adm0":"Panamá","name_adm1":"Los Santos","name_adm2":"Tonosí","name_en":"Tonosí","iso":"PA"},"geometry":{"type":"Point","coordinates":[-80.556564,7.2540059999999995]}},{"type":"Feature","properties":{"country_en":"Panama","name":"Almirante","name_adm0":"Panamá","name_adm1":"Bocas del Toro","name_adm2":"Changuinola","name_en":"Almirante","iso":"PA"},"geometry":{"type":"Point","coordinates":[-82.395915,9.293325]}},{"type":"Feature","properties":{"country_en":"Panama","name":"Concepción","name_adm0":"Panamá","name_adm1":"Chiriquí","name_adm2":"Bugaba","name_en":"Concepción","iso":"PA"},"geometry":{"type":"Point","coordinates":[-82.621994,8.52288]}},{"type":"Feature","properties":{"country_en":"Panama","name":"Saboga","name_adm0":"Panamá","name_adm1":"Panamá","name_adm2":"Balboa","name_en":"Saboga","iso":"PA"},"geometry":{"type":"Point","coordinates":[-79.035301,8.629987]}},{"type":"Feature","properties":{"country_en":"Panama","name":"Piña","name_adm0":"Panamá","name_adm1":"Colón","name_adm2":"Chagres","name_en":"Piña","iso":"PA"},"geometry":{"type":"Point","coordinates":[-80.04721999999998,9.28028]}},{"type":"Feature","properties":{"country_en":"Panama","name":"Punta Laurel","name_adm0":"Panamá","name_adm1":"Bocas del Toro","name_adm2":"Bocas del Toro","name_en":"Punta Laurel","iso":"PA"},"geometry":{"type":"Point","coordinates":[-82.13333,9.13333]}},{"type":"Feature","properties":{"country_en":"Panama","name":"Gobea","name_adm0":"Panamá","name_adm1":"Colón","name_adm2":"Donoso","name_en":"Gobea","iso":"PA"},"geometry":{"type":"Point","coordinates":[-80.24889,9.168609999999997]}},{"type":"Feature","properties":{"country_en":"Panama","name":"Bocas del Toro","name_adm0":"Panamá","name_adm1":"Bocas del Toro","name_adm2":"Bocas del Toro","name_en":"Bocas del Toro","iso":"PA"},"geometry":{"type":"Point","coordinates":[-82.25189199999998,9.340672]}},{"type":"Feature","properties":{"country_en":"Panama","name":"Caldera","name_adm0":"Panamá","name_adm1":"Chiriquí","name_adm2":"Boquete","name_en":"Caldera","iso":"PA"},"geometry":{"type":"Point","coordinates":[-82.392482,8.661978]}},{"type":"Feature","properties":{"country_en":"Panama","name":"Betania","name_adm0":"Panamá","name_adm1":"Panamá","name_adm2":"Panamá","name_en":"Betania","iso":"PA"},"geometry":{"type":"Point","coordinates":[-79.530029,9.001738]}},{"type":"Feature","properties":{"country_en":"Panama","name":"Bastimentos","name_adm0":"Panamá","name_adm1":"Bocas del Toro","name_adm2":"Bocas del Toro","name_en":"Bastimentos","iso":"PA"},"geometry":{"type":"Point","coordinates":[-82.2,9.35]}},{"type":"Feature","properties":{"country_en":"Panama","name":"La Boca","name_adm0":"Panamá","name_adm1":"Panamá","name_adm2":"Panamá","name_en":"La Boca","iso":"PA"},"geometry":{"type":"Point","coordinates":[-79.56666999999999,8.95]}},{"type":"Feature","properties":{"country_en":"Panama","name":"La Exposición","name_adm0":"Panamá","name_adm1":"Panamá","name_adm2":"Panamá","name_en":"La Exposición","iso":"PA"},"geometry":{"type":"Point","coordinates":[-79.53333,8.96667]}},{"type":"Feature","properties":{"country_en":"Panama","name":"La Florida","name_adm0":"Panamá","name_adm1":"Panamá","name_adm2":"Panamá","name_en":"La Florida","iso":"PA"},"geometry":{"type":"Point","coordinates":[-79.48333,9.01667]}},{"type":"Feature","properties":{"country_en":"Panama","name":"Río Hato","name_adm0":"Panamá","name_adm1":"Coclé","name_adm2":"Antón","name_en":"Río Hato","iso":"PA"},"geometry":{"type":"Point","coordinates":[-80.16667,8.38333]}},{"type":"Feature","properties":{"country_en":"Panama","name":"Veracruz","name_adm0":"Panamá","name_adm1":"Panamá","name_adm2":"Arraiján","name_en":"Veracruz","iso":"PA"},"geometry":{"type":"Point","coordinates":[-79.623001,8.889129]}},{"type":"Feature","properties":{"country_en":"Panama","name":"La Pulida","name_adm0":"Panamá","name_adm1":"Panamá","name_adm2":"San Miguelito","name_en":"La Pulida","iso":"PA"},"geometry":{"type":"Point","coordinates":[-79.48333,9.05]}},{"type":"Feature","properties":{"country_en":"Panama","name":"Soledad Miriá Ubigantupo","name_adm0":"Panamá","name_adm1":"Kuna Yala","name_adm2":"Kuna Yala","name_en":"Soledad Miriá Ubigantupo","iso":"PA"},"geometry":{"type":"Point","coordinates":[-78.91194,9.45028]}},{"type":"Feature","properties":{"country_en":"Panama","name":"Sorá","name_adm0":"Panamá","name_adm1":"Panamá","name_adm2":"Chame","name_en":"Sorá","iso":"PA"},"geometry":{"type":"Point","coordinates":[-79.99999999999999,8.63333]}},{"type":"Feature","properties":{"country_en":"Panama","name":"Summit Park","name_adm0":"Panamá","name_adm1":"Panamá","name_adm2":"Panamá","name_en":"Summit Park","iso":"PA"},"geometry":{"type":"Point","coordinates":[-79.65,9.06667]}},{"type":"Feature","properties":{"country_en":"Panama","name":"Sabanitas","name_adm0":"Panamá","name_adm1":"Colón","name_adm2":"Colón","name_en":"Sabanitas","iso":"PA"},"geometry":{"type":"Point","coordinates":[-79.8,9.33333]}},{"type":"Feature","properties":{"country_en":"Panama","name":"Río Paja","name_adm0":"Panamá","name_adm1":"Panamá","name_adm2":"Chepo","name_en":"Río Paja","iso":"PA"},"geometry":{"type":"Point","coordinates":[-78.90222,9.21306]}},{"type":"Feature","properties":{"country_en":"Panama","name":"Bajo Lino","name_adm0":"Panamá","name_adm1":"Chiriquí","name_adm2":"Boquete","name_en":"Bajo Lino","iso":"PA"},"geometry":{"type":"Point","coordinates":[-82.43333,8.8]}},{"type":"Feature","properties":{"country_en":"Panama","name":"Bambito","name_adm0":"Panamá","name_adm1":"Chiriquí","name_adm2":"Bugaba","name_en":"Bambito","iso":"PA"},"geometry":{"type":"Point","coordinates":[-82.61667,8.83333]}},{"type":"Feature","properties":{"country_en":"Panama","name":"Coco Solo","name_adm0":"Panamá","name_adm1":"Colón","name_adm2":"Colón","name_en":"Coco Solo","iso":"PA"},"geometry":{"type":"Point","coordinates":[-79.88167,9.37]}},{"type":"Feature","properties":{"country_en":"Panama","name":"Coetupo","name_adm0":"Panamá","name_adm1":"Kuna Yala","name_adm2":"Kuna Yala","name_en":"Coetupo","iso":"PA"},"geometry":{"type":"Point","coordinates":[-77.69095,8.90218]}},{"type":"Feature","properties":{"country_en":"Panama","name":"El Alto","name_adm0":"Panamá","name_adm1":"Panamá","name_adm2":"Capira","name_en":"El Alto","iso":"PA"},"geometry":{"type":"Point","coordinates":[-79.88333,8.73333]}},{"type":"Feature","properties":{"country_en":"Panama","name":"Nuevo Vigía","name_adm0":"Panamá","name_adm1":"Colón","name_adm2":"Colón","name_en":"Nuevo Vigía","iso":"PA"},"geometry":{"type":"Point","coordinates":[-79.60860999999998,9.24472]}},{"type":"Feature","properties":{"country_en":"Panama","name":"El Broquel","name_adm0":"Panamá","name_adm1":"Panamá","name_adm2":"La Chorrera","name_en":"El Broquel","iso":"PA"},"geometry":{"type":"Point","coordinates":[-79.9275,8.86139]}},{"type":"Feature","properties":{"country_en":"Panama","name":"El Guasimo","name_adm0":"Panamá","name_adm1":"Los Santos","name_adm2":"Los Santos","name_en":"El Guasimo","iso":"PA"},"geometry":{"type":"Point","coordinates":[-80.53333,7.8]}},{"type":"Feature","properties":{"country_en":"Panama","name":"San Felipe","name_adm0":"Panamá","name_adm1":"Panamá","name_adm2":"Panamá","name_en":"San Felipe","iso":"PA"},"geometry":{"type":"Point","coordinates":[-79.53333,8.95]}},{"type":"Feature","properties":{"country_en":"Panama","name":"Otoque Occidente","name_adm0":"Panamá","name_adm1":"Panamá","name_adm2":"Taboga","name_en":"Otoque Occidente","iso":"PA"},"geometry":{"type":"Point","coordinates":[-79.61667,8.6]}},{"type":"Feature","properties":{"country_en":"Panama","name":"El Desecho","name_adm0":"Panamá","name_adm1":"Coclé","name_adm2":"Penonomé","name_en":"El Desecho","iso":"PA"},"geometry":{"type":"Point","coordinates":[-80.25,8.65]}},{"type":"Feature","properties":{"country_en":"Panama","name":"El Nancito","name_adm0":"Panamá","name_adm1":"Chiriquí","name_adm2":"Remedios","name_en":"El Nancito","iso":"PA"},"geometry":{"type":"Point","coordinates":[-81.73333,8.23333]}},{"type":"Feature","properties":{"country_en":"Panama","name":"El Pilón","name_adm0":"Panamá","name_adm1":"Veraguas","name_adm2":"Montijo","name_en":"El Pilón","iso":"PA"},"geometry":{"type":"Point","coordinates":[-80.98333,7.6499999999999995]}},{"type":"Feature","properties":{"country_en":"Panama","name":"Hato del Carmen","name_adm0":"Panamá","name_adm1":"Veraguas","name_adm2":"Santa Fé","name_en":"Hato del Carmen","iso":"PA"},"geometry":{"type":"Point","coordinates":[-81.11667,8.4]}},{"type":"Feature","properties":{"country_en":"Panama","name":"La Peana","name_adm0":"Panamá","name_adm1":"Veraguas","name_adm2":"Santiago","name_en":"La Peana","iso":"PA"},"geometry":{"type":"Point","coordinates":[-80.91667,8.15]}},{"type":"Feature","properties":{"country_en":"Panama","name":"Las Mesitas","name_adm0":"Panamá","name_adm1":"Herrera","name_adm2":"Pesé","name_en":"Las Mesitas","iso":"PA"},"geometry":{"type":"Point","coordinates":[-80.7,7.88333]}},{"type":"Feature","properties":{"country_en":"Panama","name":"Río Iglesia","name_adm0":"Panamá","name_adm1":"Darién","name_adm2":"Chepigana","name_en":"Río Iglesia","iso":"PA"},"geometry":{"type":"Point","coordinates":[-78.00972,8.396939999999999]}},{"type":"Feature","properties":{"country_en":"Panama","name":"Rio de Jesus","name_adm0":"Panamá","name_adm1":"Veraguas","name_adm2":"Río de Jesús","name_en":"Rio de Jesus","iso":"PA"},"geometry":{"type":"Point","coordinates":[-81.16306,7.98444]}},{"type":"Feature","properties":{"country_en":"Panama","name":"Macaracas","name_adm0":"Panamá","name_adm1":"Los Santos","name_adm2":"Macaracas","name_en":"Macaracas","iso":"PA"},"geometry":{"type":"Point","coordinates":[-80.55,7.7333300000000005]}},{"type":"Feature","properties":{"country_en":"Panama","name":"Las Guabas","name_adm0":"Panamá","name_adm1":"Los Santos","name_adm2":"Los Santos","name_en":"Las Guabas","iso":"PA"},"geometry":{"type":"Point","coordinates":[-80.48333,7.81667]}},{"type":"Feature","properties":{"country_en":"Panama","name":"Pinogana","name_adm0":"Panamá","name_adm1":"Darién","name_adm2":"Pinogana","name_en":"Pinogana","iso":"PA"},"geometry":{"type":"Point","coordinates":[-77.68428,8.117239999999999]}},{"type":"Feature","properties":{"country_en":"Panama","name":"Plan de Chorcha","name_adm0":"Panamá","name_adm1":"Ngöbe Buglé","name_adm2":"Besiko","name_en":"Plan de Chorcha","iso":"PA"},"geometry":{"type":"Point","coordinates":[-82.18333,8.466669999999999]}},{"type":"Feature","properties":{"country_en":"Panama","name":"La Tiza","name_adm0":"Panamá","name_adm1":"Los Santos","name_adm2":"Las Tablas","name_en":"La Tiza","iso":"PA"},"geometry":{"type":"Point","coordinates":[-80.28332999999999,7.749999999999999]}},{"type":"Feature","properties":{"country_en":"Panama","name":"El Espino","name_adm0":"Panamá","name_adm1":"Panamá","name_adm2":"San Carlos","name_en":"El Espino","iso":"PA"},"geometry":{"type":"Point","coordinates":[-80.01667,8.48333]}},{"type":"Feature","properties":{"country_en":"Panama","name":"Boca de Balsa","name_adm0":"Panamá","name_adm1":"Ngöbe Buglé","name_adm2":"Besiko","name_en":"Boca de Balsa","iso":"PA"},"geometry":{"type":"Point","coordinates":[-81.9,8.883329999999999]}},{"type":"Feature","properties":{"country_en":"Panama","name":"Boca de Quebrada Remedios","name_adm0":"Panamá","name_adm1":"Ngöbe Buglé","name_adm2":"Besiko","name_en":"Boca de Quebrada Remedios","iso":"PA"},"geometry":{"type":"Point","coordinates":[-81.96667,8.4]}},{"type":"Feature","properties":{"country_en":"Panama","name":"Santiago","name_adm0":"Panamá","name_adm1":"Veraguas","name_adm2":"Santiago","name_en":"Santiago","iso":"PA"},"geometry":{"type":"Point","coordinates":[-80.98333,8.1]}},{"type":"Feature","properties":{"country_en":"Panama","name":"Ustupo Ogobsucum","name_adm0":"Panamá","name_adm1":"Kuna Yala","name_adm2":"Kuna Yala","name_en":"Ustupo Ogobsucum","iso":"PA"},"geometry":{"type":"Point","coordinates":[-77.93333,9.13333]}},{"type":"Feature","properties":{"country_en":"Panama","name":"Agua Mina","name_adm0":"Panamá","name_adm1":"Panamá","name_adm2":"Chame","name_en":"Agua Mina","iso":"PA"},"geometry":{"type":"Point","coordinates":[-79.91667,8.55]}},{"type":"Feature","properties":{"country_en":"Panama","name":"Aguacatal","name_adm0":"Panamá","name_adm1":"Chiriquí","name_adm2":"David","name_en":"Aguacatal","iso":"PA"},"geometry":{"type":"Point","coordinates":[-82.46667,8.466669999999999]}},{"type":"Feature","properties":{"country_en":"Panama","name":"Cerro Campana","name_adm0":"Panamá","name_adm1":"Panamá","name_adm2":"Capira","name_en":"Cerro Campana","iso":"PA"},"geometry":{"type":"Point","coordinates":[-79.89999999999999,8.71667]}},{"type":"Feature","properties":{"country_en":"Panama","name":"Cerro Colorado","name_adm0":"Panamá","name_adm1":"Coclé","name_adm2":"Penonomé","name_en":"Cerro Colorado","iso":"PA"},"geometry":{"type":"Point","coordinates":[-80.23333,8.56667]}},{"type":"Feature","properties":{"country_en":"Panama","name":"Cerro Plata","name_adm0":"Panamá","name_adm1":"Veraguas","name_adm2":"Cañazas","name_en":"Cerro Plata","iso":"PA"},"geometry":{"type":"Point","coordinates":[-81.58333,8.25]}},{"type":"Feature","properties":{"country_en":"Panama","name":"Cerro Puerco","name_adm0":"Panamá","name_adm1":"Ngöbe Buglé","name_adm2":"Müna","name_en":"Cerro Puerco","iso":"PA"},"geometry":{"type":"Point","coordinates":[-81.68333,8.35]}},{"type":"Feature","properties":{"country_en":"Panama","name":"La Loma","name_adm0":"Panamá","name_adm1":"Veraguas","name_adm2":"Montijo","name_en":"La Loma","iso":"PA"},"geometry":{"type":"Point","coordinates":[-80.94999999999999,7.499999999999999]}},{"type":"Feature","properties":{"country_en":"Panama","name":"Nuario","name_adm0":"Panamá","name_adm1":"Los Santos","name_adm2":"Las Tablas","name_en":"Nuario","iso":"PA"},"geometry":{"type":"Point","coordinates":[-80.31667,7.533329999999999]}},{"type":"Feature","properties":{"country_en":"Panama","name":"Nueva Suiza","name_adm0":"Panamá","name_adm1":"Chiriquí","name_adm2":"Bugaba","name_en":"Nueva Suiza","iso":"PA"},"geometry":{"type":"Point","coordinates":[-82.6,8.85]}},{"type":"Feature","properties":{"country_en":"Panama","name":"Nuevo Chagres","name_adm0":"Panamá","name_adm1":"Colón","name_adm2":"Chagres","name_en":"Nuevo Chagres","iso":"PA"},"geometry":{"type":"Point","coordinates":[-80.08611,9.23694]}},{"type":"Feature","properties":{"country_en":"Panama","name":"Punta Alegre","name_adm0":"Panamá","name_adm1":"Darién","name_adm2":"Chepigana","name_en":"Punta Alegre","iso":"PA"},"geometry":{"type":"Point","coordinates":[-78.25471999999999,8.29583]}},{"type":"Feature","properties":{"country_en":"Panama","name":"San Carlitos","name_adm0":"Panamá","name_adm1":"Chiriquí","name_adm2":"David","name_en":"San Carlitos","iso":"PA"},"geometry":{"type":"Point","coordinates":[-82.45,8.48333]}},{"type":"Feature","properties":{"country_en":"Panama","name":"San José","name_adm0":"Panamá","name_adm1":"Panamá","name_adm2":"Arraiján","name_en":"San José","iso":"PA"},"geometry":{"type":"Point","coordinates":[-79.73333,8.93333]}},{"type":"Feature","properties":{"country_en":"Panama","name":"San José","name_adm0":"Panamá","name_adm1":"Herrera","name_adm2":"Ocú","name_en":"San José","iso":"PA"},"geometry":{"type":"Point","coordinates":[-80.85,7.949999999999999]}},{"type":"Feature","properties":{"country_en":"Panama","name":"Las Tablas Abajo","name_adm0":"Panamá","name_adm1":"Los Santos","name_adm2":"Las Tablas","name_en":"Las Tablas Abajo","iso":"PA"},"geometry":{"type":"Point","coordinates":[-80.38332999999999,7.81667]}},{"type":"Feature","properties":{"country_en":"Panama","name":"Parita","name_adm0":"Panamá","name_adm1":"Herrera","name_adm2":"Parita","name_en":"Parita","iso":"PA"},"geometry":{"type":"Point","coordinates":[-80.529167,8.115499]}},{"type":"Feature","properties":{"country_en":"Panama","name":"Guarumal","name_adm0":"Panamá","name_adm1":"Chiriquí","name_adm2":"Alanje","name_en":"Guarumal","iso":"PA"},"geometry":{"type":"Point","coordinates":[-82.53332999999999,8.35]}},{"type":"Feature","properties":{"country_en":"Panama","name":"Huile","name_adm0":"Panamá","name_adm1":"Panamá","name_adm2":"Arraiján","name_en":"Huile","iso":"PA"},"geometry":{"type":"Point","coordinates":[-79.73333,9.033329999999998]}},{"type":"Feature","properties":{"country_en":"Panama","name":"Chiriquí Grande","name_adm0":"Panamá","name_adm1":"Bocas del Toro","name_adm2":"Chiriquí Grande","name_en":"Chiriquí Grande","iso":"PA"},"geometry":{"type":"Point","coordinates":[-82.2005,8.846061]}},{"type":"Feature","properties":{"country_en":"Panama","name":"Vista Hermosa","name_adm0":"Panamá","name_adm1":"Coclé","name_adm2":"Penonomé","name_en":"Vista Hermosa","iso":"PA"},"geometry":{"type":"Point","coordinates":[-80.36667,8.53333]}},{"type":"Feature","properties":{"country_en":"Panama","name":"Pacora","name_adm0":"Panamá","name_adm1":"Panamá","name_adm2":"Panamá","name_en":"Pacora","iso":"PA"},"geometry":{"type":"Point","coordinates":[-79.28333,9.08333]}},{"type":"Feature","properties":{"country_en":"Panama","name":"Cerro Mosquito","name_adm0":"Panamá","name_adm1":"Ngöbe Buglé","name_adm2":"Müna","name_en":"Cerro Mosquito","iso":"PA"},"geometry":{"type":"Point","coordinates":[-81.61667,8.4]}},{"type":"Feature","properties":{"country_en":"Panama","name":"Las Cumbres","name_adm0":"Panamá","name_adm1":"Panamá","name_adm2":"Panamá","name_en":"Las Cumbres","iso":"PA"},"geometry":{"type":"Point","coordinates":[-79.53333,9.08333]}},{"type":"Feature","properties":{"country_en":"Panama","name":"Las Flores","name_adm0":"Panamá","name_adm1":"Herrera","name_adm2":"Ocú","name_en":"Las Flores","iso":"PA"},"geometry":{"type":"Point","coordinates":[-80.88333,7.933330000000001]}},{"type":"Feature","properties":{"country_en":"Panama","name":"Cerro Banco","name_adm0":"Panamá","name_adm1":"Ngöbe Buglé","name_adm2":"Besiko","name_en":"Cerro Banco","iso":"PA"},"geometry":{"type":"Point","coordinates":[-81.98333,8.466669999999999]}},{"type":"Feature","properties":{"country_en":"Panama","name":"El Baco","name_adm0":"Panamá","name_adm1":"Chiriquí","name_adm2":"Barú","name_en":"El Baco","iso":"PA"},"geometry":{"type":"Point","coordinates":[-82.86666999999998,8.08333]}},{"type":"Feature","properties":{"country_en":"Panama","name":"Cartí Mulatupo","name_adm0":"Panamá","name_adm1":"Kuna Yala","name_adm2":"Kuna Yala","name_en":"Cartí Mulatupo","iso":"PA"},"geometry":{"type":"Point","coordinates":[-78.95278,9.46972]}},{"type":"Feature","properties":{"country_en":"Panama","name":"Churubé Arriba","name_adm0":"Panamá","name_adm1":"Coclé","name_adm2":"Natá","name_en":"Churubé Arriba","iso":"PA"},"geometry":{"type":"Point","coordinates":[-80.56666999999999,8.41667]}},{"type":"Feature","properties":{"country_en":"Panama","name":"Llano de Santa Rosa","name_adm0":"Panamá","name_adm1":"Panamá","name_adm2":"Capira","name_en":"Llano de Santa Rosa","iso":"PA"},"geometry":{"type":"Point","coordinates":[-79.86667,8.76667]}},{"type":"Feature","properties":{"country_en":"Panama","name":"Metetí","name_adm0":"Panamá","name_adm1":"Darién","name_adm2":"Pinogana","name_en":"Metetí","iso":"PA"},"geometry":{"type":"Point","coordinates":[-77.9786,8.4983]}},{"type":"Feature","properties":{"country_en":"Panama","name":"Los Anastacios","name_adm0":"Panamá","name_adm1":"Chiriquí","name_adm2":"Dolega","name_en":"Los Anastacios","iso":"PA"},"geometry":{"type":"Point","coordinates":[-82.41667,8.53333]}},{"type":"Feature","properties":{"country_en":"Panama","name":"Río Oeste Afuera","name_adm0":"Panamá","name_adm1":"Bocas del Toro","name_adm2":"Changuinola","name_en":"Río Oeste Afuera","iso":"PA"},"geometry":{"type":"Point","coordinates":[-82.41667,9.25]}},{"type":"Feature","properties":{"country_en":"Panama","name":"Cerro Miguel","name_adm0":"Panamá","name_adm1":"Colón","name_adm2":"Donoso","name_en":"Cerro Miguel","iso":"PA"},"geometry":{"type":"Point","coordinates":[-80.23139,8.95194]}},{"type":"Feature","properties":{"country_en":"Panama","name":"Las Tablas","name_adm0":"Panamá","name_adm1":"Los Santos","name_adm2":"Las Tablas","name_en":"Las Tablas","iso":"PA"},"geometry":{"type":"Point","coordinates":[-80.28332999999999,7.76667]}},{"type":"Feature","properties":{"country_en":"Panama","name":"Chiriqui","name_adm0":"Panamá","name_adm1":"Chiriquí","name_adm2":"David","name_en":"Chiriqui","iso":"PA"},"geometry":{"type":"Point","coordinates":[-82.43085,8.427289999999998]}},{"type":"Feature","properties":{"country_en":"Panama","name":"Colón","name_adm0":"Panamá","name_adm1":"Colón","name_adm2":"Colón","name_en":"Colón","iso":"PA"},"geometry":{"type":"Point","coordinates":[-79.90139,9.359169999999999]}},{"type":"Feature","properties":{"country_en":"Panama","name":"Acequias Arriba","name_adm0":"Panamá","name_adm1":"Chiriquí","name_adm2":"Dolega","name_en":"Acequias Arriba","iso":"PA"},"geometry":{"type":"Point","coordinates":[-82.46667,8.616669999999997]}},{"type":"Feature","properties":{"country_en":"Panama","name":"Agua Bendita","name_adm0":"Panamá","name_adm1":"Panamá","name_adm2":"Panamá","name_en":"Agua Bendita","iso":"PA"},"geometry":{"type":"Point","coordinates":[-79.61667,9.166669999999998]}},{"type":"Feature","properties":{"country_en":"Panama","name":"Bajo Grande","name_adm0":"Panamá","name_adm1":"Coclé","name_adm2":"La Pintada","name_en":"Bajo Grande","iso":"PA"},"geometry":{"type":"Point","coordinates":[-80.68333,8.58333]}},{"type":"Feature","properties":{"country_en":"Panama","name":"Bijagual","name_adm0":"Panamá","name_adm1":"Chiriquí","name_adm2":"David","name_en":"Bijagual","iso":"PA"},"geometry":{"type":"Point","coordinates":[-82.31667,8.5]}},{"type":"Feature","properties":{"country_en":"Panama","name":"Ciruelito","name_adm0":"Panamá","name_adm1":"Coclé","name_adm2":"Penonomé","name_en":"Ciruelito","iso":"PA"},"geometry":{"type":"Point","coordinates":[-80.45,8.45]}},{"type":"Feature","properties":{"country_en":"Panama","name":"Cochea Abajo","name_adm0":"Panamá","name_adm1":"Chiriquí","name_adm2":"David","name_en":"Cochea Abajo","iso":"PA"},"geometry":{"type":"Point","coordinates":[-82.35,8.5]}},{"type":"Feature","properties":{"country_en":"Panama","name":"El Rincón","name_adm0":"Panamá","name_adm1":"Veraguas","name_adm2":"Las Palmas","name_en":"El Rincón","iso":"PA"},"geometry":{"type":"Point","coordinates":[-81.51667,8.16667]}},{"type":"Feature","properties":{"country_en":"Panama","name":"La Esperanza","name_adm0":"Panamá","name_adm1":"Chiriquí","name_adm2":"Barú","name_en":"La Esperanza","iso":"PA"},"geometry":{"type":"Point","coordinates":[-82.33333,8.58333]}},{"type":"Feature","properties":{"country_en":"Panama","name":"La Raya de Santa María","name_adm0":"Panamá","name_adm1":"Veraguas","name_adm2":"Santiago","name_en":"La Raya de Santa María","iso":"PA"},"geometry":{"type":"Point","coordinates":[-80.81667,8.16667]}},{"type":"Feature","properties":{"country_en":"Panama","name":"Loma Larga","name_adm0":"Panamá","name_adm1":"Los Santos","name_adm2":"Los Santos","name_en":"Loma Larga","iso":"PA"},"geometry":{"type":"Point","coordinates":[-80.33332999999999,7.8999999999999995]}},{"type":"Feature","properties":{"country_en":"Panama","name":"Quebrada Arena","name_adm0":"Panamá","name_adm1":"Chiriquí","name_adm2":"Barú","name_en":"Quebrada Arena","iso":"PA"},"geometry":{"type":"Point","coordinates":[-81.65,8.38333]}},{"type":"Feature","properties":{"country_en":"Panama","name":"Quebrada Caña","name_adm0":"Panamá","name_adm1":"Ngöbe Buglé","name_adm2":"Müna","name_en":"Quebrada Caña","iso":"PA"},"geometry":{"type":"Point","coordinates":[-81.78333,8.333329999999998]}},{"type":"Feature","properties":{"country_en":"Panama","name":"Quebrada López","name_adm0":"Panamá","name_adm1":"Colón","name_adm2":"Colón","name_en":"Quebrada López","iso":"PA"},"geometry":{"type":"Point","coordinates":[-79.79833,9.32167]}},{"type":"Feature","properties":{"country_en":"Panama","name":"Quebrada Perico","name_adm0":"Panamá","name_adm1":"Ngöbe Buglé","name_adm2":"Müna","name_en":"Quebrada Perico","iso":"PA"},"geometry":{"type":"Point","coordinates":[-81.6,8.36667]}},{"type":"Feature","properties":{"country_en":"Panama","name":"San Juan","name_adm0":"Panamá","name_adm1":"Veraguas","name_adm2":"Cañazas","name_en":"San Juan","iso":"PA"},"geometry":{"type":"Point","coordinates":[-81.98333,8.26667]}},{"type":"Feature","properties":{"country_en":"Panama","name":"San Juan de Dios","name_adm0":"Panamá","name_adm1":"Veraguas","name_adm2":"Cañazas","name_en":"San Juan de Dios","iso":"PA"},"geometry":{"type":"Point","coordinates":[-81.3,8.333329999999998]}},{"type":"Feature","properties":{"country_en":"Panama","name":"Tinajones","name_adm0":"Panamá","name_adm1":"Panamá","name_adm2":"La Chorrera","name_en":"Tinajones","iso":"PA"},"geometry":{"type":"Point","coordinates":[-79.88333,9.05]}},{"type":"Feature","properties":{"country_en":"Panama","name":"Santa Rita Arriba","name_adm0":"Panamá","name_adm1":"Colón","name_adm2":"Colón","name_en":"Santa Rita Arriba","iso":"PA"},"geometry":{"type":"Point","coordinates":[-79.78,9.33778]}},{"type":"Feature","properties":{"country_en":"Panama","name":"El Bongo","name_adm0":"Panamá","name_adm1":"Los Santos","name_adm2":"Los Santos","name_en":"El Bongo","iso":"PA"},"geometry":{"type":"Point","coordinates":[-80.46667,7.916669999999999]}},{"type":"Feature","properties":{"country_en":"Panama","name":"Portobelillo","name_adm0":"Panamá","name_adm1":"Herrera","name_adm2":"Parita","name_en":"Portobelillo","iso":"PA"},"geometry":{"type":"Point","coordinates":[-80.6,8.01667]}},{"type":"Feature","properties":{"country_en":"Panama","name":"Pueblo Nuevo","name_adm0":"Panamá","name_adm1":"Los Santos","name_adm2":"Pocrí","name_en":"Pueblo Nuevo","iso":"PA"},"geometry":{"type":"Point","coordinates":[-80.13333,7.41667]}},{"type":"Feature","properties":{"country_en":"Panama","name":"Los Llanos","name_adm0":"Panamá","name_adm1":"Herrera","name_adm2":"Ocú","name_en":"Los Llanos","iso":"PA"},"geometry":{"type":"Point","coordinates":[-80.88333,7.933330000000001]}},{"type":"Feature","properties":{"country_en":"Panama","name":"Los Naranjos","name_adm0":"Panamá","name_adm1":"Chiriquí","name_adm2":"Boquete","name_en":"Los Naranjos","iso":"PA"},"geometry":{"type":"Point","coordinates":[-82.45,8.8]}},{"type":"Feature","properties":{"country_en":"Panama","name":"El Higo","name_adm0":"Panamá","name_adm1":"Panamá","name_adm2":"San Carlos","name_en":"El Higo","iso":"PA"},"geometry":{"type":"Point","coordinates":[-80.03333,8.45]}},{"type":"Feature","properties":{"country_en":"Panama","name":"Chicá","name_adm0":"Panamá","name_adm1":"Panamá","name_adm2":"Chame","name_en":"Chicá","iso":"PA"},"geometry":{"type":"Point","coordinates":[-79.93333,8.66667]}},{"type":"Feature","properties":{"country_en":"Panama","name":"Cirí Arriba","name_adm0":"Panamá","name_adm1":"Panamá","name_adm2":"Capira","name_en":"Cirí Arriba","iso":"PA"},"geometry":{"type":"Point","coordinates":[-80.06667,8.7]}},{"type":"Feature","properties":{"country_en":"Panama","name":"Coloncito","name_adm0":"Panamá","name_adm1":"Panamá","name_adm2":"Chame","name_en":"Coloncito","iso":"PA"},"geometry":{"type":"Point","coordinates":[-79.89999999999999,8.56667]}},{"type":"Feature","properties":{"country_en":"Panama","name":"Ustupo Yantupo","name_adm0":"Panamá","name_adm1":"Kuna Yala","name_adm2":"Kuna Yala","name_en":"Ustupo Yantupo","iso":"PA"},"geometry":{"type":"Point","coordinates":[-78.56667,9.449999999999998]}},{"type":"Feature","properties":{"country_en":"Panama","name":"Monte Oscuro","name_adm0":"Panamá","name_adm1":"Panamá","name_adm2":"Capira","name_en":"Monte Oscuro","iso":"PA"},"geometry":{"type":"Point","coordinates":[-79.78333,8.71667]}},{"type":"Feature","properties":{"country_en":"Panama","name":"Alto Lino","name_adm0":"Panamá","name_adm1":"Chiriquí","name_adm2":"Boquete","name_en":"Alto Lino","iso":"PA"},"geometry":{"type":"Point","coordinates":[-82.43333,8.8]}},{"type":"Feature","properties":{"country_en":"Panama","name":"Alcaldedíaz","name_adm0":"Panamá","name_adm1":"Panamá","name_adm2":"Panamá","name_en":"Alcaldedíaz","iso":"PA"},"geometry":{"type":"Point","coordinates":[-79.55,9.11667]}},{"type":"Feature","properties":{"country_en":"Panama","name":"La Candelaria","name_adm0":"Panamá","name_adm1":"Herrera","name_adm2":"Pesé","name_en":"La Candelaria","iso":"PA"},"geometry":{"type":"Point","coordinates":[-80.71666999999998,8.21667]}},{"type":"Feature","properties":{"country_en":"Panama","name":"Los Medios","name_adm0":"Panamá","name_adm1":"Los Santos","name_adm2":"Las Tablas","name_en":"Los Medios","iso":"PA"},"geometry":{"type":"Point","coordinates":[-80.26667,7.51667]}},{"type":"Feature","properties":{"country_en":"Panama","name":"Los Mortales","name_adm0":"Panamá","name_adm1":"Panamá","name_adm2":"La Chorrera","name_en":"Los Mortales","iso":"PA"},"geometry":{"type":"Point","coordinates":[-79.94222,8.85]}},{"type":"Feature","properties":{"country_en":"Panama","name":"La Esmeralda","name_adm0":"Panamá","name_adm1":"Panamá","name_adm2":"Balboa","name_en":"La Esmeralda","iso":"PA"},"geometry":{"type":"Point","coordinates":[-78.92333,8.2675]}},{"type":"Feature","properties":{"country_en":"Panama","name":"Curundu","name_adm0":"Panamá","name_adm1":"Panamá","name_adm2":"Panamá","name_en":"Curundu","iso":"PA"},"geometry":{"type":"Point","coordinates":[-79.55,8.98333]}},{"type":"Feature","properties":{"country_en":"Panama","name":"Cerro Molena","name_adm0":"Panamá","name_adm1":"Ngöbe Buglé","name_adm2":"Besiko","name_en":"Cerro Molena","iso":"PA"},"geometry":{"type":"Point","coordinates":[-81.66667,8.3]}},{"type":"Feature","properties":{"country_en":"Panama","name":"Boca Jebay","name_adm0":"Panamá","name_adm1":"Ngöbe Buglé","name_adm2":"Besiko","name_en":"Boca Jebay","iso":"PA"},"geometry":{"type":"Point","coordinates":[-82.08333,8.48333]}},{"type":"Feature","properties":{"country_en":"Panama","name":"Chacarero","name_adm0":"Panamá","name_adm1":"Chiriquí","name_adm2":"Boquerón","name_en":"Chacarero","iso":"PA"},"geometry":{"type":"Point","coordinates":[-82.6,8.48333]}},{"type":"Feature","properties":{"country_en":"Panama","name":"Utivé","name_adm0":"Panamá","name_adm1":"Panamá","name_adm2":"Panamá","name_en":"Utivé","iso":"PA"},"geometry":{"type":"Point","coordinates":[-79.31667,9.15]}},{"type":"Feature","properties":{"country_en":"Panama","name":"Valle Rico","name_adm0":"Panamá","name_adm1":"Los Santos","name_adm2":"Las Tablas","name_en":"Valle Rico","iso":"PA"},"geometry":{"type":"Point","coordinates":[-80.35,7.61667]}},{"type":"Feature","properties":{"country_en":"Panama","name":"Vaquilla","name_adm0":"Panamá","name_adm1":"Coclé","name_adm2":"Penonomé","name_en":"Vaquilla","iso":"PA"},"geometry":{"type":"Point","coordinates":[-80.18333,8.7]}},{"type":"Feature","properties":{"country_en":"Panama","name":"Gualaca","name_adm0":"Panamá","name_adm1":"Chiriquí","name_adm2":"Gualaca","name_en":"Gualaca","iso":"PA"},"geometry":{"type":"Point","coordinates":[-82.2072285,8.712036999999999]}},{"type":"Feature","properties":{"country_en":"Panama","name":"Mulatupo Sasardí","name_adm0":"Panamá","name_adm1":"Kuna Yala","name_adm2":"Kuna Yala","name_en":"Mulatupo Sasardí","iso":"PA"},"geometry":{"type":"Point","coordinates":[-77.76518,8.94921]}},{"type":"Feature","properties":{"country_en":"Panama","name":"Quebrada San Francisco","name_adm0":"Panamá","name_adm1":"Panamá","name_adm2":"Panamá","name_en":"Quebrada San Francisco","iso":"PA"},"geometry":{"type":"Point","coordinates":[-79.53333,9.36667]}},{"type":"Feature","properties":{"country_en":"Panama","name":"El Picador","name_adm0":"Panamá","name_adm1":"Veraguas","name_adm2":"Cañazas","name_en":"El Picador","iso":"PA"},"geometry":{"type":"Point","coordinates":[-81.36667,8.16667]}},{"type":"Feature","properties":{"country_en":"Panama","name":"La Poza","name_adm0":"Panamá","name_adm1":"Coclé","name_adm2":"Aguadulce","name_en":"La Poza","iso":"PA"},"geometry":{"type":"Point","coordinates":[-80.63333,8.25]}},{"type":"Feature","properties":{"country_en":"Panama","name":"La Puente","name_adm0":"Panamá","name_adm1":"Veraguas","name_adm2":"Santa Fé","name_en":"La Puente","iso":"PA"},"geometry":{"type":"Point","coordinates":[-81.03333,8.51667]}},{"type":"Feature","properties":{"country_en":"Panama","name":"La Peña","name_adm0":"Panamá","name_adm1":"Veraguas","name_adm2":"Santiago","name_en":"La Peña","iso":"PA"},"geometry":{"type":"Point","coordinates":[-81.03333,8.13333]}},{"type":"Feature","properties":{"country_en":"Panama","name":"Río Sereno","name_adm0":"Panamá","name_adm1":"Chiriquí","name_adm2":"Renacimiento","name_en":"Río Sereno","iso":"PA"},"geometry":{"type":"Point","coordinates":[-82.86666999999998,8.81667]}},{"type":"Feature","properties":{"country_en":"Panama","name":"Río Piedra","name_adm0":"Panamá","name_adm1":"Panamá","name_adm2":"Chepo","name_en":"Río Piedra","iso":"PA"},"geometry":{"type":"Point","coordinates":[-78.86667,9.21944]}},{"type":"Feature","properties":{"country_en":"Panama","name":"Antón","name_adm0":"Panamá","name_adm1":"Coclé","name_adm2":"Antón","name_en":"Antón","iso":"PA"},"geometry":{"type":"Point","coordinates":[-80.194015,8.309341]}},{"type":"Feature","properties":{"country_en":"Panama","name":"Bugaba","name_adm0":"Panamá","name_adm1":"Chiriquí","name_adm2":"Bugaba","name_en":"Bugaba","iso":"PA"},"geometry":{"type":"Point","coordinates":[-82.910041,8.599013]}},{"type":"Feature","properties":{"country_en":"Panama","name":"Changuinola","name_adm0":"Panamá","name_adm1":"Bocas del Toro","name_adm2":"Changuinola","name_en":"Changuinola","iso":"PA"},"geometry":{"type":"Point","coordinates":[-82.5,9.327120999999998]}},{"type":"Feature","properties":{"country_en":"Panama","name":"Chepigana","name_adm0":"Panamá","name_adm1":"Darién","name_adm2":"Chepigana","name_en":"Chepigana","iso":"PA"},"geometry":{"type":"Point","coordinates":[-78.181457,8.265345]}},{"type":"Feature","properties":{"country_en":"Panama","name":"Santa Fe","name_adm0":"Panamá","name_adm1":"Veraguas","name_adm2":"Santa Fé","name_en":"Santa Fe","iso":"PA"},"geometry":{"type":"Point","coordinates":[-81.079803,8.5152855]}},{"type":"Feature","properties":{"country_en":"Panama","name":"Gobernadora","name_adm0":"Panamá","name_adm1":"Veraguas","name_adm2":"Montijo","name_en":"Gobernadora","iso":"PA"},"geometry":{"type":"Point","coordinates":[-81.729955,7.6306069999999995]}},{"type":"Feature","properties":{"country_en":"Panama","name":"Breñón","name_adm0":"Panamá","name_adm1":"Chiriquí","name_adm2":"Renacimiento","name_en":"Breñón","iso":"PA"},"geometry":{"type":"Point","coordinates":[-82.81666999999999,8.63333]}},{"type":"Feature","properties":{"country_en":"Panama","name":"El Cascajilloso","name_adm0":"Panamá","name_adm1":"Veraguas","name_adm2":"Montijo","name_en":"El Cascajilloso","iso":"PA"},"geometry":{"type":"Point","coordinates":[-80.88333,7.38333]}},{"type":"Feature","properties":{"country_en":"Panama","name":"Torio","name_adm0":"Panamá","name_adm1":"Veraguas","name_adm2":"Montijo","name_en":"Torio","iso":"PA"},"geometry":{"type":"Point","coordinates":[-80.94999999999999,7.549999999999999]}},{"type":"Feature","properties":{"country_en":"Panama","name":"San Antonio","name_adm0":"Panamá","name_adm1":"Panamá","name_adm2":"Panamá","name_en":"San Antonio","iso":"PA"},"geometry":{"type":"Point","coordinates":[-79.48333,9.01667]}},{"type":"Feature","properties":{"country_en":"Panama","name":"Chumical","name_adm0":"Panamá","name_adm1":"Coclé","name_adm2":"Antón","name_en":"Chumical","iso":"PA"},"geometry":{"type":"Point","coordinates":[-80.25,8.53333]}},{"type":"Feature","properties":{"country_en":"Panama","name":"Divisa","name_adm0":"Panamá","name_adm1":"Herrera","name_adm2":"Santa María","name_en":"Divisa","iso":"PA"},"geometry":{"type":"Point","coordinates":[-80.68333,8.13333]}},{"type":"Feature","properties":{"country_en":"Panama","name":"Nuevo Méjico","name_adm0":"Panamá","name_adm1":"Los Santos","name_adm2":"Las Tablas","name_en":"Nuevo Méjico","iso":"PA"},"geometry":{"type":"Point","coordinates":[-80.26667,7.78333]}},{"type":"Feature","properties":{"country_en":"Panama","name":"Palma Real","name_adm0":"Panamá","name_adm1":"Bocas del Toro","name_adm2":"Chiriquí Grande","name_en":"Palma Real","iso":"PA"},"geometry":{"type":"Point","coordinates":[-82.28333,9.05]}},{"type":"Feature","properties":{"country_en":"Panama","name":"Palma Real","name_adm0":"Panamá","name_adm1":"Chiriquí","name_adm2":"Dolega","name_en":"Palma Real","iso":"PA"},"geometry":{"type":"Point","coordinates":[-82.56667,8.68333]}},{"type":"Feature","properties":{"country_en":"Panama","name":"Pedregal","name_adm0":"Panamá","name_adm1":"Los Santos","name_adm2":"Tonosí","name_en":"Pedregal","iso":"PA"},"geometry":{"type":"Point","coordinates":[-80.43333,7.299999999999999]}},{"type":"Feature","properties":{"country_en":"Panama","name":"Escobal","name_adm0":"Panamá","name_adm1":"Chiriquí","name_adm2":"David","name_en":"Escobal","iso":"PA"},"geometry":{"type":"Point","coordinates":[-82.65,8.6]}},{"type":"Feature","properties":{"country_en":"Panama","name":"Finca Aguacate","name_adm0":"Panamá","name_adm1":"Chiriquí","name_adm2":"Barú","name_en":"Finca Aguacate","iso":"PA"},"geometry":{"type":"Point","coordinates":[-82.83333,8.35]}},{"type":"Feature","properties":{"country_en":"Panama","name":"Guacamaya","name_adm0":"Panamá","name_adm1":"Ngöbe Buglé","name_adm2":"Müna","name_en":"Guacamaya","iso":"PA"},"geometry":{"type":"Point","coordinates":[-81.35,8.48333]}},{"type":"Feature","properties":{"country_en":"Panama","name":"Guacamaya","name_adm0":"Panamá","name_adm1":"Ngöbe Buglé","name_adm2":"Besiko","name_en":"Guacamaya","iso":"PA"},"geometry":{"type":"Point","coordinates":[-81.35,8.48333]}},{"type":"Feature","properties":{"country_en":"Panama","name":"La Cuesca","name_adm0":"Panamá","name_adm1":"Chiriquí","name_adm2":"Alanje","name_en":"La Cuesca","iso":"PA"},"geometry":{"type":"Point","coordinates":[-82.84846,8.49124]}},{"type":"Feature","properties":{"country_en":"Panama","name":"Los Angeles","name_adm0":"Panamá","name_adm1":"Los Santos","name_adm2":"Los Santos","name_en":"Los Angeles","iso":"PA"},"geometry":{"type":"Point","coordinates":[-80.35,7.88333]}},{"type":"Feature","properties":{"country_en":"Panama","name":"Quebrada Sabalos","name_adm0":"Panamá","name_adm1":"Chiriquí","name_adm2":"Barú","name_en":"Quebrada Sabalos","iso":"PA"},"geometry":{"type":"Point","coordinates":[-81.83333,8.31667]}},{"type":"Feature","properties":{"country_en":"Panama","name":"Alto Cerro Viejo","name_adm0":"Panamá","name_adm1":"Ngöbe Buglé","name_adm2":"Müna","name_en":"Alto Cerro Viejo","iso":"PA"},"geometry":{"type":"Point","coordinates":[-81.2,8.35]}},{"type":"Feature","properties":{"country_en":"Panama","name":"Blanco Arriba","name_adm0":"Panamá","name_adm1":"Chiriquí","name_adm2":"Barú","name_en":"Blanco Arriba","iso":"PA"},"geometry":{"type":"Point","coordinates":[-82.46667,8.78333]}},{"type":"Feature","properties":{"country_en":"Panama","name":"Bonilla","name_adm0":"Panamá","name_adm1":"Chiriquí","name_adm2":"Boquerón","name_en":"Bonilla","iso":"PA"},"geometry":{"type":"Point","coordinates":[-82.46667,8.466669999999999]}},{"type":"Feature","properties":{"country_en":"Panama","name":"Cabecera de Chorchita","name_adm0":"Panamá","name_adm1":"Ngöbe Buglé","name_adm2":"Besiko","name_en":"Cabecera de Chorchita","iso":"PA"},"geometry":{"type":"Point","coordinates":[-82.5,8.71667]}},{"type":"Feature","properties":{"country_en":"Panama","name":"El Coco","name_adm0":"Panamá","name_adm1":"Chiriquí","name_adm2":"Barú","name_en":"El Coco","iso":"PA"},"geometry":{"type":"Point","coordinates":[-81.18333,8.11667]}},{"type":"Feature","properties":{"country_en":"Panama","name":"San Pedro","name_adm0":"Panamá","name_adm1":"Chiriquí","name_adm2":"Bugaba","name_en":"San Pedro","iso":"PA"},"geometry":{"type":"Point","coordinates":[-83.55008,9.27995]}},{"type":"Feature","properties":{"country_en":"Panama","name":"Las Blas","name_adm0":"Panamá","name_adm1":"Coclé","name_adm2":"La Pintada","name_en":"Las Blas","iso":"PA"},"geometry":{"type":"Point","coordinates":[-80.56666999999999,8.58333]}},{"type":"Feature","properties":{"country_en":"Panama","name":"Mata de Los Reyes","name_adm0":"Panamá","name_adm1":"Coclé","name_adm2":"Natá","name_en":"Mata de Los Reyes","iso":"PA"},"geometry":{"type":"Point","coordinates":[-80.66666999999998,7.8999999999999995]}},{"type":"Feature","properties":{"country_en":"Panama","name":"Quebrada Guabo No.2","name_adm0":"Panamá","name_adm1":"Ngöbe Buglé","name_adm2":"Nole Duima","name_en":"Quebrada Guabo No.2","iso":"PA"},"geometry":{"type":"Point","coordinates":[-81.83333,8.31667]}},{"type":"Feature","properties":{"country_en":"Panama","name":"Chiriquí Grande","name_adm0":"Panamá","name_adm1":"Bocas del Toro","name_adm2":"Chiriquí Grande","name_en":"Chiriquí Grande","iso":"PA"},"geometry":{"type":"Point","coordinates":[-82.11667,8.95]}},{"type":"Feature","properties":{"country_en":"Panama","name":"Aguacate","name_adm0":"Panamá","name_adm1":"Panamá","name_adm2":"Capira","name_en":"Aguacate","iso":"PA"},"geometry":{"type":"Point","coordinates":[-80.1,8.53333]}},{"type":"Feature","properties":{"country_en":"Panama","name":"Aguas Blancas","name_adm0":"Panamá","name_adm1":"Coclé","name_adm2":"Penonomé","name_en":"Aguas Blancas","iso":"PA"},"geometry":{"type":"Point","coordinates":[-80.3,8.5]}},{"type":"Feature","properties":{"country_en":"Panama","name":"Algarrobo","name_adm0":"Panamá","name_adm1":"Ngöbe Buglé","name_adm2":"Nole Duima","name_en":"Algarrobo","iso":"PA"},"geometry":{"type":"Point","coordinates":[-81.53333,8.41667]}},{"type":"Feature","properties":{"country_en":"Panama","name":"Alto Rey","name_adm0":"Panamá","name_adm1":"Ngöbe Buglé","name_adm2":"Mirono","name_en":"Alto Rey","iso":"PA"},"geometry":{"type":"Point","coordinates":[-81.96667,8.333329999999998]}},{"type":"Feature","properties":{"country_en":"Panama","name":"Altos de Güera","name_adm0":"Panamá","name_adm1":"Los Santos","name_adm2":"Tonosí","name_en":"Altos de Güera","iso":"PA"},"geometry":{"type":"Point","coordinates":[-80.63333,7.533329999999999]}},{"type":"Feature","properties":{"country_en":"Panama","name":"Altos de San Miguel","name_adm0":"Panamá","name_adm1":"Coclé","name_adm2":"Penonomé","name_en":"Altos de San Miguel","iso":"PA"},"geometry":{"type":"Point","coordinates":[-80.3,8.76667]}},{"type":"Feature","properties":{"country_en":"Panama","name":"Bajo del Río","name_adm0":"Panamá","name_adm1":"Panamá","name_adm2":"Chame","name_en":"Bajo del Río","iso":"PA"},"geometry":{"type":"Point","coordinates":[-79.94999999999999,8.63333]}},{"type":"Feature","properties":{"country_en":"Panama","name":"Bijagual","name_adm0":"Panamá","name_adm1":"Coclé","name_adm2":"Antón","name_en":"Bijagual","iso":"PA"},"geometry":{"type":"Point","coordinates":[-80.25,8.36667]}},{"type":"Feature","properties":{"country_en":"Panama","name":"Bijagual","name_adm0":"Panamá","name_adm1":"Chiriquí","name_adm2":"Bugaba","name_en":"Bijagual","iso":"PA"},"geometry":{"type":"Point","coordinates":[-82.71667,8.53333]}},{"type":"Feature","properties":{"country_en":"Panama","name":"Bisira","name_adm0":"Panamá","name_adm1":"Ngöbe Buglé","name_adm2":"Kankintú","name_en":"Bisira","iso":"PA"},"geometry":{"type":"Point","coordinates":[-81.86667,8.9]}},{"type":"Feature","properties":{"country_en":"Panama","name":"Bisvalles","name_adm0":"Panamá","name_adm1":"Veraguas","name_adm2":"La Mesa","name_en":"Bisvalles","iso":"PA"},"geometry":{"type":"Point","coordinates":[-81.21667,8.18333]}},{"type":"Feature","properties":{"country_en":"Panama","name":"Boca del Río Indio","name_adm0":"Panamá","name_adm1":"Colón","name_adm2":"Chagres","name_en":"Boca del Río Indio","iso":"PA"},"geometry":{"type":"Point","coordinates":[-80.19028,9.192219999999999]}},{"type":"Feature","properties":{"country_en":"Panama","name":"Bocalatún","name_adm0":"Panamá","name_adm1":"Chiriquí","name_adm2":"Boquerón","name_en":"Bocalatún","iso":"PA"},"geometry":{"type":"Point","coordinates":[-82.58332999999999,8.58333]}},{"type":"Feature","properties":{"country_en":"Panama","name":"Boclé","name_adm0":"Panamá","name_adm1":"Veraguas","name_adm2":"Cañazas","name_en":"Boclé","iso":"PA"},"geometry":{"type":"Point","coordinates":[-81.4,8.23333]}},{"type":"Feature","properties":{"country_en":"Panama","name":"Buenos Aires","name_adm0":"Panamá","name_adm1":"Panamá","name_adm2":"Chame","name_en":"Buenos Aires","iso":"PA"},"geometry":{"type":"Point","coordinates":[-79.94999999999999,8.63333]}},{"type":"Feature","properties":{"country_en":"Panama","name":"Buenos Aires","name_adm0":"Panamá","name_adm1":"Los Santos","name_adm2":"Pedasí","name_en":"Buenos Aires","iso":"PA"},"geometry":{"type":"Point","coordinates":[-80.11667,7.58333]}},{"type":"Feature","properties":{"country_en":"Panama","name":"Buenos Aires","name_adm0":"Panamá","name_adm1":"Los Santos","name_adm2":"Tonosí","name_en":"Buenos Aires","iso":"PA"},"geometry":{"type":"Point","coordinates":[-80.48333,7.4]}},{"type":"Feature","properties":{"country_en":"Panama","name":"Bugabito Abajo","name_adm0":"Panamá","name_adm1":"Chiriquí","name_adm2":"Bugaba","name_en":"Bugabito Abajo","iso":"PA"},"geometry":{"type":"Point","coordinates":[-82.63333,8.5]}},{"type":"Feature","properties":{"country_en":"Panama","name":"Caimito","name_adm0":"Panamá","name_adm1":"Panamá","name_adm2":"Capira","name_en":"Caimito","iso":"PA"},"geometry":{"type":"Point","coordinates":[-80.23333,8.616669999999997]}},{"type":"Feature","properties":{"country_en":"Panama","name":"Calobre","name_adm0":"Panamá","name_adm1":"Panamá","name_adm2":"Chepo","name_en":"Calobre","iso":"PA"},"geometry":{"type":"Point","coordinates":[-78.95,9.15]}},{"type":"Feature","properties":{"country_en":"Panama","name":"Calvario","name_adm0":"Panamá","name_adm1":"Chiriquí","name_adm2":"Bugaba","name_en":"Calvario","iso":"PA"},"geometry":{"type":"Point","coordinates":[-82.61667,8.55]}},{"type":"Feature","properties":{"country_en":"Panama","name":"Camarón Arriba","name_adm0":"Panamá","name_adm1":"Ngöbe Buglé","name_adm2":"Besiko","name_en":"Camarón Arriba","iso":"PA"},"geometry":{"type":"Point","coordinates":[-82,8.38333]}},{"type":"Feature","properties":{"country_en":"Panama","name":"Canoa Abajo","name_adm0":"Panamá","name_adm1":"Chiriquí","name_adm2":"Barú","name_en":"Canoa Abajo","iso":"PA"},"geometry":{"type":"Point","coordinates":[-82.83333,8.51667]}},{"type":"Feature","properties":{"country_en":"Panama","name":"Canoa Arriba","name_adm0":"Panamá","name_adm1":"Chiriquí","name_adm2":"Barú","name_en":"Canoa Arriba","iso":"PA"},"geometry":{"type":"Point","coordinates":[-82.83333,8.53333]}},{"type":"Feature","properties":{"country_en":"Panama","name":"Catival","name_adm0":"Panamá","name_adm1":"Veraguas","name_adm2":"Montijo","name_en":"Catival","iso":"PA"},"geometry":{"type":"Point","coordinates":[-80.98333,7.6499999999999995]}},{"type":"Feature","properties":{"country_en":"Panama","name":"Ceibal","name_adm0":"Panamá","name_adm1":"Veraguas","name_adm2":"Cañazas","name_en":"Ceibal","iso":"PA"},"geometry":{"type":"Point","coordinates":[-81.18333,8.38333]}},{"type":"Feature","properties":{"country_en":"Panama","name":"Celmira","name_adm0":"Panamá","name_adm1":"Chiriquí","name_adm2":"Bugaba","name_en":"Celmira","iso":"PA"},"geometry":{"type":"Point","coordinates":[-82.8,8.53333]}},{"type":"Feature","properties":{"country_en":"Panama","name":"Cermeño","name_adm0":"Panamá","name_adm1":"Coclé","name_adm2":"Penonomé","name_en":"Cermeño","iso":"PA"},"geometry":{"type":"Point","coordinates":[-80.45,8.48333]}},{"type":"Feature","properties":{"country_en":"Panama","name":"Cerro Gordo","name_adm0":"Panamá","name_adm1":"Coclé","name_adm2":"Penonomé","name_en":"Cerro Gordo","iso":"PA"},"geometry":{"type":"Point","coordinates":[-80.4,8.5]}},{"type":"Feature","properties":{"country_en":"Panama","name":"Cerro Gordo","name_adm0":"Panamá","name_adm1":"Veraguas","name_adm2":"Río de Jesús","name_en":"Cerro Gordo","iso":"PA"},"geometry":{"type":"Point","coordinates":[-81.18333,8.03333]}},{"type":"Feature","properties":{"country_en":"Panama","name":"Cerro Iglesia","name_adm0":"Panamá","name_adm1":"Ngöbe Buglé","name_adm2":"Müna","name_en":"Cerro Iglesia","iso":"PA"},"geometry":{"type":"Point","coordinates":[-81.56667,8.3]}},{"type":"Feature","properties":{"country_en":"Panama","name":"Cerro Largo","name_adm0":"Panamá","name_adm1":"Herrera","name_adm2":"Ocú","name_en":"Cerro Largo","iso":"PA"},"geometry":{"type":"Point","coordinates":[-80.83333,7.83333]}},{"type":"Feature","properties":{"country_en":"Panama","name":"Cerro Viejo","name_adm0":"Panamá","name_adm1":"Ngöbe Buglé","name_adm2":"Müna","name_en":"Cerro Viejo","iso":"PA"},"geometry":{"type":"Point","coordinates":[-81.2,8.35]}},{"type":"Feature","properties":{"country_en":"Panama","name":"Charco Negro","name_adm0":"Panamá","name_adm1":"Veraguas","name_adm2":"La Mesa","name_en":"Charco Negro","iso":"PA"},"geometry":{"type":"Point","coordinates":[-81.38332999999999,8.13333]}},{"type":"Feature","properties":{"country_en":"Panama","name":"Chepo","name_adm0":"Panamá","name_adm1":"Herrera","name_adm2":"Las Minas","name_en":"Chepo","iso":"PA"},"geometry":{"type":"Point","coordinates":[-80.81667,7.7333300000000005]}},{"type":"Feature","properties":{"country_en":"Panama","name":"Chichebre","name_adm0":"Panamá","name_adm1":"Panamá","name_adm2":"Chepo","name_en":"Chichebre","iso":"PA"},"geometry":{"type":"Point","coordinates":[-79.16667,9.166669999999998]}},{"type":"Feature","properties":{"country_en":"Panama","name":"Chichica","name_adm0":"Panamá","name_adm1":"Ngöbe Buglé","name_adm2":"Müna","name_en":"Chichica","iso":"PA"},"geometry":{"type":"Point","coordinates":[-81.66667,8.36667]}},{"type":"Feature","properties":{"country_en":"Panama","name":"Chorcha Abajo","name_adm0":"Panamá","name_adm1":"Chiriquí","name_adm2":"David","name_en":"Chorcha Abajo","iso":"PA"},"geometry":{"type":"Point","coordinates":[-82.28333,8.36667]}},{"type":"Feature","properties":{"country_en":"Panama","name":"Chorrerita","name_adm0":"Panamá","name_adm1":"Coclé","name_adm2":"Penonomé","name_en":"Chorrerita","iso":"PA"},"geometry":{"type":"Point","coordinates":[-80.33332999999999,8.45]}},{"type":"Feature","properties":{"country_en":"Panama","name":"Coclé del Norte","name_adm0":"Panamá","name_adm1":"Colón","name_adm2":"Donoso","name_en":"Coclé del Norte","iso":"PA"},"geometry":{"type":"Point","coordinates":[-80.58333,9.08333]}},{"type":"Feature","properties":{"country_en":"Panama","name":"Cocobola","name_adm0":"Panamá","name_adm1":"Panamá","name_adm2":"La Chorrera","name_en":"Cocobola","iso":"PA"},"geometry":{"type":"Point","coordinates":[-79.80806,8.91889]}},{"type":"Feature","properties":{"country_en":"Panama","name":"Cocobolas","name_adm0":"Panamá","name_adm1":"Los Santos","name_adm2":"Las Tablas","name_en":"Cocobolas","iso":"PA"},"geometry":{"type":"Point","coordinates":[-80.25,7.78333]}},{"type":"Feature","properties":{"country_en":"Panama","name":"Colán","name_adm0":"Panamá","name_adm1":"Los Santos","name_adm2":"Pocrí","name_en":"Colán","iso":"PA"},"geometry":{"type":"Point","coordinates":[-80.23333,7.58333]}},{"type":"Feature","properties":{"country_en":"Panama","name":"Corozales Adentro","name_adm0":"Panamá","name_adm1":"Panamá","name_adm2":"La Chorrera","name_en":"Corozales Adentro","iso":"PA"},"geometry":{"type":"Point","coordinates":[-79.90416999999998,8.9375]}},{"type":"Feature","properties":{"country_en":"Panama","name":"Corozales Afuera","name_adm0":"Panamá","name_adm1":"Panamá","name_adm2":"La Chorrera","name_en":"Corozales Afuera","iso":"PA"},"geometry":{"type":"Point","coordinates":[-79.87416999999999,8.91222]}},{"type":"Feature","properties":{"country_en":"Panama","name":"Cruz de Oro","name_adm0":"Panamá","name_adm1":"Panamá","name_adm2":"Arraiján","name_en":"Cruz de Oro","iso":"PA"},"geometry":{"type":"Point","coordinates":[-79.66667,8.95]}},{"type":"Feature","properties":{"country_en":"Panama","name":"Cuay Abajo","name_adm0":"Panamá","name_adm1":"Veraguas","name_adm2":"San Francisco","name_en":"Cuay Abajo","iso":"PA"},"geometry":{"type":"Point","coordinates":[-81.08333,8.36667]}},{"type":"Feature","properties":{"country_en":"Panama","name":"Cuay Arriba","name_adm0":"Panamá","name_adm1":"Veraguas","name_adm2":"San Francisco","name_en":"Cuay Arriba","iso":"PA"},"geometry":{"type":"Point","coordinates":[-81.08333,8.38333]}},{"type":"Feature","properties":{"country_en":"Panama","name":"Cuipo","name_adm0":"Panamá","name_adm1":"Colón","name_adm2":"Colón","name_en":"Cuipo","iso":"PA"},"geometry":{"type":"Point","coordinates":[-80.05,9.08333]}},{"type":"Feature","properties":{"country_en":"Panama","name":"Cuiria","name_adm0":"Panamá","name_adm1":"Coclé","name_adm2":"Penonomé","name_en":"Cuiria","iso":"PA"},"geometry":{"type":"Point","coordinates":[-80.38332999999999,8.8]}},{"type":"Feature","properties":{"country_en":"Panama","name":"Dos Ríos Abajo","name_adm0":"Panamá","name_adm1":"Chiriquí","name_adm2":"Dolega","name_en":"Dos Ríos Abajo","iso":"PA"},"geometry":{"type":"Point","coordinates":[-82.38333,8.53333]}},{"type":"Feature","properties":{"country_en":"Panama","name":"Dos Ríos Arriba","name_adm0":"Panamá","name_adm1":"Chiriquí","name_adm2":"Dolega","name_en":"Dos Ríos Arriba","iso":"PA"},"geometry":{"type":"Point","coordinates":[-82.4,8.55]}},{"type":"Feature","properties":{"country_en":"Panama","name":"El Aguacate","name_adm0":"Panamá","name_adm1":"Chiriquí","name_adm2":"Boquerón","name_en":"El Aguacate","iso":"PA"},"geometry":{"type":"Point","coordinates":[-81.48332999999998,8.28333]}},{"type":"Feature","properties":{"country_en":"Panama","name":"El Cortezo","name_adm0":"Panamá","name_adm1":"Los Santos","name_adm2":"Tonosí","name_en":"El Cortezo","iso":"PA"},"geometry":{"type":"Point","coordinates":[-80.63333,7.43333]}},{"type":"Feature","properties":{"country_en":"Panama","name":"El Cruce","name_adm0":"Panamá","name_adm1":"Los Santos","name_adm2":"Guararé","name_en":"El Cruce","iso":"PA"},"geometry":{"type":"Point","coordinates":[-80.31667,7.85]}},{"type":"Feature","properties":{"country_en":"Panama","name":"El Flor","name_adm0":"Panamá","name_adm1":"Chiriquí","name_adm2":"Dolega","name_en":"El Flor","iso":"PA"},"geometry":{"type":"Point","coordinates":[-82.43333,8.56667]}},{"type":"Feature","properties":{"country_en":"Panama","name":"El Gavilán","name_adm0":"Panamá","name_adm1":"Veraguas","name_adm2":"La Mesa","name_en":"El Gavilán","iso":"PA"},"geometry":{"type":"Point","coordinates":[-81.13333,8.18333]}},{"type":"Feature","properties":{"country_en":"Panama","name":"El Guarumal","name_adm0":"Panamá","name_adm1":"Herrera","name_adm2":"Ocú","name_en":"El Guarumal","iso":"PA"},"geometry":{"type":"Point","coordinates":[-80.76667,7.83333]}},{"type":"Feature","properties":{"country_en":"Panama","name":"El Guayabo","name_adm0":"Panamá","name_adm1":"Ngöbe Buglé","name_adm2":"Müna","name_en":"El Guayabo","iso":"PA"},"geometry":{"type":"Point","coordinates":[-81.04999999999998,8.55]}},{"type":"Feature","properties":{"country_en":"Panama","name":"El Juncal","name_adm0":"Panamá","name_adm1":"Veraguas","name_adm2":"Santa Fé","name_en":"El Juncal","iso":"PA"},"geometry":{"type":"Point","coordinates":[-81.03333,8.48333]}},{"type":"Feature","properties":{"country_en":"Panama","name":"El Junquillo","name_adm0":"Panamá","name_adm1":"Veraguas","name_adm2":"Santiago","name_en":"El Junquillo","iso":"PA"},"geometry":{"type":"Point","coordinates":[-80.99999999999999,8.049999999999999]}},{"type":"Feature","properties":{"country_en":"Panama","name":"El Líbano","name_adm0":"Panamá","name_adm1":"Panamá","name_adm2":"Chame","name_en":"El Líbano","iso":"PA"},"geometry":{"type":"Point","coordinates":[-79.83333,8.616669999999997]}},{"type":"Feature","properties":{"country_en":"Panama","name":"El Montero","name_adm0":"Panamá","name_adm1":"Los Santos","name_adm2":"Guararé","name_en":"El Montero","iso":"PA"},"geometry":{"type":"Point","coordinates":[-80.3,7.78333]}},{"type":"Feature","properties":{"country_en":"Panama","name":"El Muñoz","name_adm0":"Panamá","name_adm1":"Los Santos","name_adm2":"Las Tablas","name_en":"El Muñoz","iso":"PA"},"geometry":{"type":"Point","coordinates":[-80.31667,7.666670000000001]}},{"type":"Feature","properties":{"country_en":"Panama","name":"El Nancecillo","name_adm0":"Panamá","name_adm1":"Los Santos","name_adm2":"Los Santos","name_en":"El Nancecillo","iso":"PA"},"geometry":{"type":"Point","coordinates":[-80.48333,7.81667]}},{"type":"Feature","properties":{"country_en":"Panama","name":"El Nanzal","name_adm0":"Panamá","name_adm1":"Herrera","name_adm2":"Las Minas","name_en":"El Nanzal","iso":"PA"},"geometry":{"type":"Point","coordinates":[-80.71666999999998,7.749999999999999]}},{"type":"Feature","properties":{"country_en":"Panama","name":"El Pedregoso Número Uno","name_adm0":"Panamá","name_adm1":"Veraguas","name_adm2":"Las Palmas","name_en":"El Pedregoso Número Uno","iso":"PA"},"geometry":{"type":"Point","coordinates":[-81.46667,8.16667]}},{"type":"Feature","properties":{"country_en":"Panama","name":"El Peñón","name_adm0":"Panamá","name_adm1":"Veraguas","name_adm2":"San Francisco","name_en":"El Peñón","iso":"PA"},"geometry":{"type":"Point","coordinates":[-80.98333,8.35]}},{"type":"Feature","properties":{"country_en":"Panama","name":"El Retiro","name_adm0":"Panamá","name_adm1":"Chiriquí","name_adm2":"Tolé","name_en":"El Retiro","iso":"PA"},"geometry":{"type":"Point","coordinates":[-81.65,8.199999999999998]}},{"type":"Feature","properties":{"country_en":"Panama","name":"El Veladero","name_adm0":"Panamá","name_adm1":"Chiriquí","name_adm2":"David","name_en":"El Veladero","iso":"PA"},"geometry":{"type":"Point","coordinates":[-82.28333,8.43333]}},{"type":"Feature","properties":{"country_en":"Panama","name":"Flores","name_adm0":"Panamá","name_adm1":"Los Santos","name_adm2":"Tonosí","name_en":"Flores","iso":"PA"},"geometry":{"type":"Point","coordinates":[-80.4,7.48333]}},{"type":"Feature","properties":{"country_en":"Panama","name":"Florida Abajo","name_adm0":"Panamá","name_adm1":"Panamá","name_adm2":"Capira","name_en":"Florida Abajo","iso":"PA"},"geometry":{"type":"Point","coordinates":[-80.01167,8.84694]}},{"type":"Feature","properties":{"country_en":"Panama","name":"Guacá Abajo","name_adm0":"Panamá","name_adm1":"Chiriquí","name_adm2":"Boquerón","name_en":"Guacá Abajo","iso":"PA"},"geometry":{"type":"Point","coordinates":[-82.46667,8.51667]}},{"type":"Feature","properties":{"country_en":"Panama","name":"Guacá Arriba","name_adm0":"Panamá","name_adm1":"Chiriquí","name_adm2":"David","name_en":"Guacá Arriba","iso":"PA"},"geometry":{"type":"Point","coordinates":[-82.5,8.55]}},{"type":"Feature","properties":{"country_en":"Panama","name":"Guacamaya","name_adm0":"Panamá","name_adm1":"Veraguas","name_adm2":"Cañazas","name_en":"Guacamaya","iso":"PA"},"geometry":{"type":"Point","coordinates":[-81.35,8.48333]}},{"type":"Feature","properties":{"country_en":"Panama","name":"Hato Chamí","name_adm0":"Panamá","name_adm1":"Ngöbe Buglé","name_adm2":"Nole Duima","name_en":"Hato Chamí","iso":"PA"},"geometry":{"type":"Point","coordinates":[-81.76667,8.45]}},{"type":"Feature","properties":{"country_en":"Panama","name":"Hato Corotú","name_adm0":"Panamá","name_adm1":"Ngöbe Buglé","name_adm2":"Mirono","name_en":"Hato Corotú","iso":"PA"},"geometry":{"type":"Point","coordinates":[-81.96667,8.35]}},