{"type":"FeatureCollection","features":[{"type":"Feature","properties":{"country_en":"Papua New Guinea","name":"Chakol","name_adm0":"Papua New Guinea","name_adm1":"Manus","name_en":"Chakol","iso":"PG"},"geometry":{"type":"Point","coordinates":[148.2,-2.21667]}},{"type":"Feature","properties":{"country_en":"Papua New Guinea","name":"Aitape","name_adm0":"Papua New Guinea","name_adm1":"Sandaun","name_en":"Aitape","iso":"PG"},"geometry":{"type":"Point","coordinates":[142.3475,-3.13744]}},{"type":"Feature","properties":{"country_en":"Papua New Guinea","name":"Tanubada","name_adm0":"Papua New Guinea","name_adm1":"Central","name_en":"Tanubada","iso":"PG"},"geometry":{"type":"Point","coordinates":[147.25,-9.41667]}},{"type":"Feature","properties":{"country_en":"Papua New Guinea","name":"Okapa","name_adm0":"Papua New Guinea","name_adm1":"Eastern Highlands","name_en":"Okapa","iso":"PG"},"geometry":{"type":"Point","coordinates":[145.60071,-6.5202599999999995]}},{"type":"Feature","properties":{"country_en":"Papua New Guinea","name":"Nadzab","name_adm0":"Papua New Guinea","name_adm1":"Morobe","name_en":"Nadzab","iso":"PG"},"geometry":{"type":"Point","coordinates":[146.73926,-6.56729]}},{"type":"Feature","properties":{"country_en":"Papua New Guinea","name":"Chimbulok","name_adm0":"Papua New Guinea","name_adm1":"Morobe","name_en":"Chimbulok","iso":"PG"},"geometry":{"type":"Point","coordinates":[146.7444,-6.90422]}},{"type":"Feature","properties":{"country_en":"Papua New Guinea","name":"Mumeng","name_adm0":"Papua New Guinea","name_adm1":"Morobe","name_en":"Mumeng","iso":"PG"},"geometry":{"type":"Point","coordinates":[146.58333,-6.98333]}},{"type":"Feature","properties":{"country_en":"Papua New Guinea","name":"Kaugere","name_adm0":"Papua New Guinea","name_adm1":"National Capital","name_en":"Kaugere","iso":"PG"},"geometry":{"type":"Point","coordinates":[147.18333,-9.48333]}},{"type":"Feature","properties":{"country_en":"Papua New Guinea","name":"Komokpin","name_adm0":"Papua New Guinea","name_adm1":"Western","name_en":"Komokpin","iso":"PG"},"geometry":{"type":"Point","coordinates":[141.03491999999997,-5.80704]}},{"type":"Feature","properties":{"country_en":"Papua New Guinea","name":"Babai","name_adm0":"Papua New Guinea","name_adm1":"Gulf","name_en":"Babai","iso":"PG"},"geometry":{"type":"Point","coordinates":[144.33333,-7.716669999999999]}},{"type":"Feature","properties":{"country_en":"Papua New Guinea","name":"Gibu","name_adm0":"Papua New Guinea","name_adm1":"Gulf","name_en":"Gibu","iso":"PG"},"geometry":{"type":"Point","coordinates":[143.83589,-7.81508]}},{"type":"Feature","properties":{"country_en":"Papua New Guinea","name":"Apiope","name_adm0":"Papua New Guinea","name_adm1":"Gulf","name_en":"Apiope","iso":"PG"},"geometry":{"type":"Point","coordinates":[145.1627,-7.84872]}},{"type":"Feature","properties":{"country_en":"Papua New Guinea","name":"Korium","name_adm0":"Papua New Guinea","name_adm1":"Western Highlands","name_en":"Korium","iso":"PG"},"geometry":{"type":"Point","coordinates":[144.72687,-5.57808]}},{"type":"Feature","properties":{"country_en":"Papua New Guinea","name":"Komaio","name_adm0":"Papua New Guinea","name_adm1":"Gulf","name_en":"Komaio","iso":"PG"},"geometry":{"type":"Point","coordinates":[143.60659,-7.24812]}},{"type":"Feature","properties":{"country_en":"Papua New Guinea","name":"Wakunai","name_adm0":"Papua New Guinea","name_adm1":"North Solomons","name_en":"Wakunai","iso":"PG"},"geometry":{"type":"Point","coordinates":[155.21667,-5.86667]}},{"type":"Feature","properties":{"country_en":"Papua New Guinea","name":"Guasopa","name_adm0":"Papua New Guinea","name_adm1":"Milne Bay","name_en":"Guasopa","iso":"PG"},"geometry":{"type":"Point","coordinates":[152.95108,-9.22277]}},{"type":"Feature","properties":{"country_en":"Papua New Guinea","name":"Vanimo","name_adm0":"Papua New Guinea","name_adm1":"Sandaun","name_en":"Vanimo","iso":"PG"},"geometry":{"type":"Point","coordinates":[141.30283999999997,-2.67408]}},{"type":"Feature","properties":{"country_en":"Papua New Guinea","name":"Central","name_adm0":"Papua New Guinea","name_adm1":"Central","name_en":"Central","iso":"PG"},"geometry":{"type":"Point","coordinates":[148,-9.999999999999998]}},{"type":"Feature","properties":{"country_en":"Papua New Guinea","name":"Morobe","name_adm0":"Papua New Guinea","name_adm1":"Morobe","name_en":"Morobe","iso":"PG"},"geometry":{"type":"Point","coordinates":[146.9672,-7.0106]}},{"type":"Feature","properties":{"country_en":"Papua New Guinea","name":"Western Highlands","name_adm0":"Papua New Guinea","name_adm1":"Western Highlands","name_en":"Western Highlands","iso":"PG"},"geometry":{"type":"Point","coordinates":[144.49999999999997,-5.749999999999999]}},{"type":"Feature","properties":{"country_en":"Papua New Guinea","name":"West New Britain","name_adm0":"Papua New Guinea","name_adm1":"West New Britain","name_en":"West New Britain","iso":"PG"},"geometry":{"type":"Point","coordinates":[149.82605,-5.87833]}},{"type":"Feature","properties":{"country_en":"Papua New Guinea","name":"Labuka","name_adm0":"Papua New Guinea","name_adm1":"Central","name_en":"Labuka","iso":"PG"},"geometry":{"type":"Point","coordinates":[147.34981,-9.53268]}},{"type":"Feature","properties":{"country_en":"Papua New Guinea","name":"Kokoda","name_adm0":"Papua New Guinea","name_adm1":"Northern","name_en":"Kokoda","iso":"PG"},"geometry":{"type":"Point","coordinates":[147.74073,-8.87853]}},{"type":"Feature","properties":{"country_en":"Papua New Guinea","name":"Papua New Guinea","name_adm0":"Papua New Guinea","name_en":"Papua New Guinea","iso":"PG"},"geometry":{"type":"Point","coordinates":[146.999511,-6.6561889999999995]}},{"type":"Feature","properties":{"country_en":"Papua New Guinea","name":"Eastern Highlands","name_adm0":"Papua New Guinea","name_adm1":"Eastern Highlands","name_en":"Eastern Highlands","iso":"PG"},"geometry":{"type":"Point","coordinates":[145.58333,-6.5]}},{"type":"Feature","properties":{"country_en":"Papua New Guinea","name":"Sandaun","name_adm0":"Papua New Guinea","name_adm1":"Sandaun","name_en":"Sandaun","iso":"PG"},"geometry":{"type":"Point","coordinates":[142,-3.5]}},{"type":"Feature","properties":{"country_en":"Papua New Guinea","name":"Enga","name_adm0":"Papua New Guinea","name_adm1":"Enga","name_en":"Enga","iso":"PG"},"geometry":{"type":"Point","coordinates":[143.5,-5.5]}},{"type":"Feature","properties":{"country_en":"Papua New Guinea","name":"Buiambum","name_adm0":"Papua New Guinea","name_adm1":"Morobe","name_en":"Buiambum","iso":"PG"},"geometry":{"type":"Point","coordinates":[147.06667,-7.15]}},{"type":"Feature","properties":{"country_en":"Papua New Guinea","name":"Rabaul","name_adm0":"Papua New Guinea","name_adm1":"East New Britain","name_en":"Rabaul","iso":"PG"},"geometry":{"type":"Point","coordinates":[152.17215,-4.1967099999999995]}},{"type":"Feature","properties":{"country_en":"Papua New Guinea","name":"Lea Lea","name_adm0":"Papua New Guinea","name_adm1":"Central","name_en":"Lea Lea","iso":"PG"},"geometry":{"type":"Point","coordinates":[146.97765,-9.284489999999998]}},{"type":"Feature","properties":{"country_en":"Papua New Guinea","name":"Tulu Number 1","name_adm0":"Papua New Guinea","name_adm1":"Manus","name_en":"Tulu Number 1","iso":"PG"},"geometry":{"type":"Point","coordinates":[146.83384,-1.9589299999999998]}},{"type":"Feature","properties":{"country_en":"Papua New Guinea","name":"Lumi","name_adm0":"Papua New Guinea","name_adm1":"Sandaun","name_en":"Lumi","iso":"PG"},"geometry":{"type":"Point","coordinates":[142.03996,-3.47162]}},{"type":"Feature","properties":{"country_en":"Papua New Guinea","name":"Bongimasi","name_adm0":"Papua New Guinea","name_adm1":"East Sepik","name_en":"Bongimasi","iso":"PG"},"geometry":{"type":"Point","coordinates":[142.65,-3.8]}},{"type":"Feature","properties":{"country_en":"Papua New Guinea","name":"Worin","name_adm0":"Papua New Guinea","name_adm1":"Morobe","name_en":"Worin","iso":"PG"},"geometry":{"type":"Point","coordinates":[146.82127,-6.09554]}},{"type":"Feature","properties":{"country_en":"Papua New Guinea","name":"Kami","name_adm0":"Papua New Guinea","name_adm1":"Eastern Highlands","name_en":"Kami","iso":"PG"},"geometry":{"type":"Point","coordinates":[145.41667,-6.099999999999999]}},{"type":"Feature","properties":{"country_en":"Papua New Guinea","name":"Rewe","name_adm0":"Papua New Guinea","name_adm1":"Milne Bay","name_en":"Rewe","iso":"PG"},"geometry":{"type":"Point","coordinates":[153.551,-11.637]}},{"type":"Feature","properties":{"country_en":"Papua New Guinea","name":"Lemieng","name_adm0":"Papua New Guinea","name_adm1":"Sandaun","name_en":"Lemieng","iso":"PG"},"geometry":{"type":"Point","coordinates":[142.46058,-3.19361]}},{"type":"Feature","properties":{"country_en":"Papua New Guinea","name":"East New Britain","name_adm0":"Papua New Guinea","name_adm1":"East New Britain","name_en":"East New Britain","iso":"PG"},"geometry":{"type":"Point","coordinates":[151.88775,-4.61283]}},{"type":"Feature","properties":{"country_en":"Papua New Guinea","name":"East Sepik","name_adm0":"Papua New Guinea","name_adm1":"East Sepik","name_en":"East Sepik","iso":"PG"},"geometry":{"type":"Point","coordinates":[143.75,-4]}},{"type":"Feature","properties":{"country_en":"Papua New Guinea","name":"Silom Number 1","name_adm0":"Papua New Guinea","name_adm1":"New Ireland","name_en":"Silom Number 1","iso":"PG"},"geometry":{"type":"Point","coordinates":[152.1053,-3.3159799999999997]}},{"type":"Feature","properties":{"country_en":"Papua New Guinea","name":"Nesgo","name_adm0":"Papua New Guinea","name_adm1":"New Ireland","name_en":"Nesgo","iso":"PG"},"geometry":{"type":"Point","coordinates":[150.93229,-2.66388]}},{"type":"Feature","properties":{"country_en":"Papua New Guinea","name":"Penamun","name_adm0":"Papua New Guinea","name_adm1":"New Ireland","name_en":"Penamun","iso":"PG"},"geometry":{"type":"Point","coordinates":[152.04999999999998,-3.3]}},{"type":"Feature","properties":{"country_en":"Papua New Guinea","name":"New Garara","name_adm0":"Papua New Guinea","name_adm1":"Northern","name_en":"New Garara","iso":"PG"},"geometry":{"type":"Point","coordinates":[148.31079,-8.62192]}},{"type":"Feature","properties":{"country_en":"Papua New Guinea","name":"Vanimo","name_adm0":"Papua New Guinea","name_adm1":"Sandaun","name_en":"Vanimo","iso":"PG"},"geometry":{"type":"Point","coordinates":[141.30283999999997,-2.67408]}},{"type":"Feature","properties":{"country_en":"Papua New Guinea","name":"Torokina","name_adm0":"Papua New Guinea","name_adm1":"North Solomons","name_en":"Torokina","iso":"PG"},"geometry":{"type":"Point","coordinates":[155.05,-6.233329999999999]}},{"type":"Feature","properties":{"country_en":"Papua New Guinea","name":"Hoskins","name_adm0":"Papua New Guinea","name_adm1":"West New Britain","name_en":"Hoskins","iso":"PG"},"geometry":{"type":"Point","coordinates":[150.40939,-5.45437]}},{"type":"Feature","properties":{"country_en":"Papua New Guinea","name":"Porgera","name_adm0":"Papua New Guinea","name_adm1":"Enga","name_en":"Porgera","iso":"PG"},"geometry":{"type":"Point","coordinates":[143.2,-5.46667]}},{"type":"Feature","properties":{"country_en":"Papua New Guinea","name":"Wapenamanda","name_adm0":"Papua New Guinea","name_adm1":"Enga","name_en":"Wapenamanda","iso":"PG"},"geometry":{"type":"Point","coordinates":[143.9109,-5.6265]}},{"type":"Feature","properties":{"country_en":"Papua New Guinea","name":"Tagibu","name_adm0":"Papua New Guinea","name_adm1":"Southern Highlands","name_en":"Tagibu","iso":"PG"},"geometry":{"type":"Point","coordinates":[144.19016,-6.68405]}},{"type":"Feature","properties":{"country_en":"Papua New Guinea","name":"Togoba","name_adm0":"Papua New Guinea","name_adm1":"Western Highlands","name_en":"Togoba","iso":"PG"},"geometry":{"type":"Point","coordinates":[144.15,-5.9]}},{"type":"Feature","properties":{"country_en":"Papua New Guinea","name":"Lamassa","name_adm0":"Papua New Guinea","name_adm1":"New Ireland","name_en":"Lamassa","iso":"PG"},"geometry":{"type":"Point","coordinates":[152.77121,-4.68388]}},{"type":"Feature","properties":{"country_en":"Papua New Guinea","name":"North Solomons","name_adm0":"Papua New Guinea","name_adm1":"North Solomons","name_en":"North Solomons","iso":"PG"},"geometry":{"type":"Point","coordinates":[155,-6]}},{"type":"Feature","properties":{"country_en":"Papua New Guinea","name":"Kaubi","name_adm0":"Papua New Guinea","name_adm1":"East New Britain","name_en":"Kaubi","iso":"PG"},"geometry":{"type":"Point","coordinates":[151.03333,-5.883329999999999]}},{"type":"Feature","properties":{"country_en":"Papua New Guinea","name":"Bunabun","name_adm0":"Papua New Guinea","name_adm1":"Madang","name_en":"Bunabun","iso":"PG"},"geometry":{"type":"Point","coordinates":[145.51894,-4.58458]}},{"type":"Feature","properties":{"country_en":"Papua New Guinea","name":"Ialibu","name_adm0":"Papua New Guinea","name_adm1":"Southern Highlands","name_en":"Ialibu","iso":"PG"},"geometry":{"type":"Point","coordinates":[143.99354,-6.28208]}},{"type":"Feature","properties":{"country_en":"Papua New Guinea","name":"Bulolo","name_adm0":"Papua New Guinea","name_adm1":"Morobe","name_en":"Bulolo","iso":"PG"},"geometry":{"type":"Point","coordinates":[146.65,-7.2]}},{"type":"Feature","properties":{"country_en":"Papua New Guinea","name":"Pawaia","name_adm0":"Papua New Guinea","name_adm1":"Gulf","name_en":"Pawaia","iso":"PG"},"geometry":{"type":"Point","coordinates":[145.33333,-7.2]}},{"type":"Feature","properties":{"country_en":"Papua New Guinea","name":"Kui","name_adm0":"Papua New Guinea","name_adm1":"Morobe","name_en":"Kui","iso":"PG"},"geometry":{"type":"Point","coordinates":[147.24903,-7.47208]}},{"type":"Feature","properties":{"country_en":"Papua New Guinea","name":"Iori","name_adm0":"Papua New Guinea","name_adm1":"Gulf","name_en":"Iori","iso":"PG"},"geometry":{"type":"Point","coordinates":[145.45363999999998,-7.48139]}},{"type":"Feature","properties":{"country_en":"Papua New Guinea","name":"Nomad","name_adm0":"Papua New Guinea","name_adm1":"Western","name_en":"Nomad","iso":"PG"},"geometry":{"type":"Point","coordinates":[142,-6.83333]}},{"type":"Feature","properties":{"country_en":"Papua New Guinea","name":"Sa","name_adm0":"Papua New Guinea","name_adm1":"Madang","name_en":"Sa","iso":"PG"},"geometry":{"type":"Point","coordinates":[145.68333,-5.28333]}},{"type":"Feature","properties":{"country_en":"Papua New Guinea","name":"Baramata","name_adm0":"Papua New Guinea","name_adm1":"Central","name_en":"Baramata","iso":"PG"},"geometry":{"type":"Point","coordinates":[148.48992,-10.20079]}},{"type":"Feature","properties":{"country_en":"Papua New Guinea","name":"Morehead","name_adm0":"Papua New Guinea","name_adm1":"Western","name_en":"Morehead","iso":"PG"},"geometry":{"type":"Point","coordinates":[141.63668,-8.71066]}},{"type":"Feature","properties":{"country_en":"Papua New Guinea","name":"Wedau","name_adm0":"Papua New Guinea","name_adm1":"Milne Bay","name_en":"Wedau","iso":"PG"},"geometry":{"type":"Point","coordinates":[150.10229,-10.09652]}},{"type":"Feature","properties":{"country_en":"Papua New Guinea","name":"Mendi","name_adm0":"Papua New Guinea","name_adm1":"Southern Highlands","name_en":"Mendi","iso":"PG"},"geometry":{"type":"Point","coordinates":[143.85,-6.33333]}},{"type":"Feature","properties":{"country_en":"Papua New Guinea","name":"Bunapae","name_adm0":"Papua New Guinea","name_adm1":"Madang","name_en":"Bunapae","iso":"PG"},"geometry":{"type":"Point","coordinates":[144.71086,-4.21511]}},{"type":"Feature","properties":{"country_en":"Papua New Guinea","name":"Buakup","name_adm0":"Papua New Guinea","name_adm1":"Morobe","name_en":"Buakup","iso":"PG"},"geometry":{"type":"Point","coordinates":[147,-7.01667]}},{"type":"Feature","properties":{"country_en":"Papua New Guinea","name":"Palie","name_adm0":"Papua New Guinea","name_adm1":"New Ireland","name_en":"Palie","iso":"PG"},"geometry":{"type":"Point","coordinates":[152.6,-3.2]}},{"type":"Feature","properties":{"country_en":"Papua New Guinea","name":"Taruba","name_adm0":"Papua New Guinea","name_adm1":"Northern","name_en":"Taruba","iso":"PG"},"geometry":{"type":"Point","coordinates":[148.6,-9.55]}},{"type":"Feature","properties":{"country_en":"Papua New Guinea","name":"Watabung","name_adm0":"Papua New Guinea","name_adm1":"Eastern Highlands","name_en":"Watabung","iso":"PG"},"geometry":{"type":"Point","coordinates":[145.20746999999997,-6.082]}},{"type":"Feature","properties":{"country_en":"Papua New Guinea","name":"Sukurum","name_adm0":"Papua New Guinea","name_adm1":"Morobe","name_en":"Sukurum","iso":"PG"},"geometry":{"type":"Point","coordinates":[146.48889,-6.28316]}},{"type":"Feature","properties":{"country_en":"Papua New Guinea","name":"Labu","name_adm0":"Papua New Guinea","name_adm1":"Central","name_en":"Labu","iso":"PG"},"geometry":{"type":"Point","coordinates":[149.07796,-10.23128]}},{"type":"Feature","properties":{"country_en":"Papua New Guinea","name":"Chimbu","name_adm0":"Papua New Guinea","name_adm1":"Chimbu","name_en":"Chimbu","iso":"PG"},"geometry":{"type":"Point","coordinates":[144.83332999999996,-6.25]}},{"type":"Feature","properties":{"country_en":"Papua New Guinea","name":"Wang","name_adm0":"Papua New Guinea","name_adm1":"New Ireland","name_en":"Wang","iso":"PG"},"geometry":{"type":"Point","coordinates":[152.02932,-2.98195]}},{"type":"Feature","properties":{"country_en":"Papua New Guinea","name":"Pango","name_adm0":"Papua New Guinea","name_adm1":"New Ireland","name_en":"Pango","iso":"PG"},"geometry":{"type":"Point","coordinates":[152.60834,-3.19612]}},{"type":"Feature","properties":{"country_en":"Papua New Guinea","name":"Lambu","name_adm0":"Papua New Guinea","name_adm1":"New Ireland","name_en":"Lambu","iso":"PG"},"geometry":{"type":"Point","coordinates":[151.72418,-3.29328]}},{"type":"Feature","properties":{"country_en":"Papua New Guinea","name":"Tarobi","name_adm0":"Papua New Guinea","name_adm1":"West New Britain","name_en":"Tarobi","iso":"PG"},"geometry":{"type":"Point","coordinates":[150.79999999999998,-5.45]}},{"type":"Feature","properties":{"country_en":"Papua New Guinea","name":"Tauri","name_adm0":"Papua New Guinea","name_adm1":"Southern Highlands","name_en":"Tauri","iso":"PG"},"geometry":{"type":"Point","coordinates":[142.93511,-5.9022]}},{"type":"Feature","properties":{"country_en":"Papua New Guinea","name":"Wagan","name_adm0":"Papua New Guinea","name_adm1":"Morobe","name_en":"Wagan","iso":"PG"},"geometry":{"type":"Point","coordinates":[147.09662,-6.69745]}},{"type":"Feature","properties":{"country_en":"Papua New Guinea","name":"Uwu","name_adm0":"Papua New Guinea","name_adm1":"East Sepik","name_en":"Uwu","iso":"PG"},"geometry":{"type":"Point","coordinates":[142.48333,-4.48333]}},{"type":"Feature","properties":{"country_en":"Papua New Guinea","name":"Umbukul","name_adm0":"Papua New Guinea","name_adm1":"New Ireland","name_en":"Umbukul","iso":"PG"},"geometry":{"type":"Point","coordinates":[150,-2.51667]}},{"type":"Feature","properties":{"country_en":"Papua New Guinea","name":"Uluputur","name_adm0":"Papua New Guinea","name_adm1":"New Ireland","name_en":"Uluputur","iso":"PG"},"geometry":{"type":"Point","coordinates":[152.36667,-3.7166699999999997]}},{"type":"Feature","properties":{"country_en":"Papua New Guinea","name":"Baia","name_adm0":"Papua New Guinea","name_adm1":"West New Britain","name_en":"Baia","iso":"PG"},"geometry":{"type":"Point","coordinates":[151.52598,-4.923439999999999]}},{"type":"Feature","properties":{"country_en":"Papua New Guinea","name":"Mange","name_adm0":"Papua New Guinea","name_adm1":"Madang","name_en":"Mange","iso":"PG"},"geometry":{"type":"Point","coordinates":[145.06379,-5.09882]}},{"type":"Feature","properties":{"country_en":"Papua New Guinea","name":"Telefomin","name_adm0":"Papua New Guinea","name_adm1":"Sandaun","name_en":"Telefomin","iso":"PG"},"geometry":{"type":"Point","coordinates":[141.58332999999996,-5.133329999999999]}},{"type":"Feature","properties":{"country_en":"Papua New Guinea","name":"Zumin","name_adm0":"Papua New Guinea","name_adm1":"Morobe","name_en":"Zumin","iso":"PG"},"geometry":{"type":"Point","coordinates":[146.21482,-6.26968]}},{"type":"Feature","properties":{"country_en":"Papua New Guinea","name":"Beipa","name_adm0":"Papua New Guinea","name_adm1":"Central","name_en":"Beipa","iso":"PG"},"geometry":{"type":"Point","coordinates":[146.56137,-8.53935]}},{"type":"Feature","properties":{"country_en":"Papua New Guinea","name":"Gaile","name_adm0":"Papua New Guinea","name_adm1":"Central","name_en":"Gaile","iso":"PG"},"geometry":{"type":"Point","coordinates":[147.40839,-9.6697]}},{"type":"Feature","properties":{"country_en":"Papua New Guinea","name":"Kaupena","name_adm0":"Papua New Guinea","name_adm1":"Western Highlands","name_en":"Kaupena","iso":"PG"},"geometry":{"type":"Point","coordinates":[144.1038,-6.10577]}},{"type":"Feature","properties":{"country_en":"Papua New Guinea","name":"Bundi","name_adm0":"Papua New Guinea","name_adm1":"Madang","name_en":"Bundi","iso":"PG"},"geometry":{"type":"Point","coordinates":[145.1749,-5.74698]}},{"type":"Feature","properties":{"country_en":"Papua New Guinea","name":"Myola","name_adm0":"Papua New Guinea","name_adm1":"Central","name_en":"Myola","iso":"PG"},"geometry":{"type":"Point","coordinates":[147.7,-9.08333]}},{"type":"Feature","properties":{"country_en":"Papua New Guinea","name":"Buin","name_adm0":"Papua New Guinea","name_adm1":"North Solomons","name_en":"Buin","iso":"PG"},"geometry":{"type":"Point","coordinates":[155.66147,-6.73362]}},{"type":"Feature","properties":{"country_en":"Papua New Guinea","name":"Kawawoki","name_adm0":"Papua New Guinea","name_adm1":"Northern","name_en":"Kawawoki","iso":"PG"},"geometry":{"type":"Point","coordinates":[148.39501999999996,-9.1]}},{"type":"Feature","properties":{"country_en":"Papua New Guinea","name":"Lake Murray","name_adm0":"Papua New Guinea","name_adm1":"Western","name_en":"Lake Murray","iso":"PG"},"geometry":{"type":"Point","coordinates":[141.43333,-6.8]}},{"type":"Feature","properties":{"country_en":"Papua New Guinea","name":"Makiri","name_adm0":"Papua New Guinea","name_adm1":"West New Britain","name_en":"Makiri","iso":"PG"},"geometry":{"type":"Point","coordinates":[149.14829,-4.86664]}},{"type":"Feature","properties":{"country_en":"Papua New Guinea","name":"Maliom","name_adm0":"Papua New Guinea","name_adm1":"New Ireland","name_en":"Maliom","iso":"PG"},"geometry":{"type":"Point","coordinates":[153.03193,-4.61345]}},{"type":"Feature","properties":{"country_en":"Papua New Guinea","name":"Malom Number 2","name_adm0":"Papua New Guinea","name_adm1":"New Ireland","name_en":"Malom Number 2","iso":"PG"},"geometry":{"type":"Point","coordinates":[151.89999,-3.20176]}},{"type":"Feature","properties":{"country_en":"Papua New Guinea","name":"Sabama","name_adm0":"Papua New Guinea","name_adm1":"National Capital","name_en":"Sabama","iso":"PG"},"geometry":{"type":"Point","coordinates":[147.18333,-9.48333]}},{"type":"Feature","properties":{"country_en":"Papua New Guinea","name":"Sumakarimu","name_adm0":"Papua New Guinea","name_adm1":"Gulf","name_en":"Sumakarimu","iso":"PG"},"geometry":{"type":"Point","coordinates":[143.50766,-7.193249999999999]}},{"type":"Feature","properties":{"country_en":"Papua New Guinea","name":"Sumerang","name_adm0":"Papua New Guinea","name_adm1":"Madang","name_en":"Sumerang","iso":"PG"},"geometry":{"type":"Point","coordinates":[145.78332999999998,-4.91667]}},{"type":"Feature","properties":{"country_en":"Papua New Guinea","name":"Karaitem","name_adm0":"Papua New Guinea","name_adm1":"Sandaun","name_en":"Karaitem","iso":"PG"},"geometry":{"type":"Point","coordinates":[142.00394,-3.40605]}},{"type":"Feature","properties":{"country_en":"Papua New Guinea","name":"Walihiga Asasapas","name_adm0":"Papua New Guinea","name_adm1":"Sandaun","name_en":"Walihiga Asasapas","iso":"PG"},"geometry":{"type":"Point","coordinates":[142.97419,-3.3751]}},{"type":"Feature","properties":{"country_en":"Papua New Guinea","name":"Seim","name_adm0":"Papua New Guinea","name_adm1":"Sandaun","name_en":"Seim","iso":"PG"},"geometry":{"type":"Point","coordinates":[142.17049,-3.32672]}},{"type":"Feature","properties":{"country_en":"Papua New Guinea","name":"Kunjingini","name_adm0":"Papua New Guinea","name_adm1":"East Sepik","name_en":"Kunjingini","iso":"PG"},"geometry":{"type":"Point","coordinates":[143.01667,-3.76667]}},{"type":"Feature","properties":{"country_en":"Papua New Guinea","name":"Magleri","name_adm0":"Papua New Guinea","name_adm1":"East Sepik","name_en":"Magleri","iso":"PG"},"geometry":{"type":"Point","coordinates":[143.98333,-4.05]}},{"type":"Feature","properties":{"country_en":"Papua New Guinea","name":"Nogosop","name_adm0":"Papua New Guinea","name_adm1":"East Sepik","name_en":"Nogosop","iso":"PG"},"geometry":{"type":"Point","coordinates":[143.26798,-4.1143]}},{"type":"Feature","properties":{"country_en":"Papua New Guinea","name":"Kanduanam","name_adm0":"Papua New Guinea","name_adm1":"East Sepik","name_en":"Kanduanam","iso":"PG"},"geometry":{"type":"Point","coordinates":[143.75,-4.23333]}},{"type":"Feature","properties":{"country_en":"Papua New Guinea","name":"Wom","name_adm0":"Papua New Guinea","name_adm1":"East Sepik","name_en":"Wom","iso":"PG"},"geometry":{"type":"Point","coordinates":[143.59322,-3.51997]}},{"type":"Feature","properties":{"country_en":"Papua New Guinea","name":"Karkar","name_adm0":"Papua New Guinea","name_adm1":"Madang","name_en":"Karkar","iso":"PG"},"geometry":{"type":"Point","coordinates":[146.11725,-5.70989]}},{"type":"Feature","properties":{"country_en":"Papua New Guinea","name":"Manki","name_adm0":"Papua New Guinea","name_adm1":"Western Highlands","name_en":"Manki","iso":"PG"},"geometry":{"type":"Point","coordinates":[143.65,-6.36667]}},{"type":"Feature","properties":{"country_en":"Papua New Guinea","name":"Idauwi","name_adm0":"Papua New Guinea","name_adm1":"Southern Highlands","name_en":"Idauwi","iso":"PG"},"geometry":{"type":"Point","coordinates":[143.88333,-6.21667]}},{"type":"Feature","properties":{"country_en":"Papua New Guinea","name":"Komo","name_adm0":"Papua New Guinea","name_adm1":"Southern Highlands","name_en":"Komo","iso":"PG"},"geometry":{"type":"Point","coordinates":[142.84323,-6.14248]}},{"type":"Feature","properties":{"country_en":"Papua New Guinea","name":"Balimo","name_adm0":"Papua New Guinea","name_adm1":"Western","name_en":"Balimo","iso":"PG"},"geometry":{"type":"Point","coordinates":[142.96045,-8.03899]}},{"type":"Feature","properties":{"country_en":"Papua New Guinea","name":"Kini","name_adm0":"Papua New Guinea","name_adm1":"Western","name_en":"Kini","iso":"PG"},"geometry":{"type":"Point","coordinates":[142.96262,-8.09163]}},{"type":"Feature","properties":{"country_en":"Papua New Guinea","name":"Iamara","name_adm0":"Papua New Guinea","name_adm1":"Western","name_en":"Iamara","iso":"PG"},"geometry":{"type":"Point","coordinates":[142.90748,-8.4366]}},{"type":"Feature","properties":{"country_en":"Papua New Guinea","name":"Wipim","name_adm0":"Papua New Guinea","name_adm1":"Western","name_en":"Wipim","iso":"PG"},"geometry":{"type":"Point","coordinates":[142.91831999999997,-8.85424]}},{"type":"Feature","properties":{"country_en":"Papua New Guinea","name":"Sibidiri","name_adm0":"Papua New Guinea","name_adm1":"Western","name_en":"Sibidiri","iso":"PG"},"geometry":{"type":"Point","coordinates":[142.24964,-8.97823]}},{"type":"Feature","properties":{"country_en":"Papua New Guinea","name":"Kukipi","name_adm0":"Papua New Guinea","name_adm1":"Gulf","name_en":"Kukipi","iso":"PG"},"geometry":{"type":"Point","coordinates":[146.10871,-8.1732]}},{"type":"Feature","properties":{"country_en":"Papua New Guinea","name":"Auro","name_adm0":"Papua New Guinea","name_adm1":"Northern","name_en":"Auro","iso":"PG"},"geometry":{"type":"Point","coordinates":[148.21667,-8.53333]}},{"type":"Feature","properties":{"country_en":"Papua New Guinea","name":"Afore","name_adm0":"Papua New Guinea","name_adm1":"Northern","name_en":"Afore","iso":"PG"},"geometry":{"type":"Point","coordinates":[148.39867,-9.125479999999998]}},{"type":"Feature","properties":{"country_en":"Papua New Guinea","name":"Sariri","name_adm0":"Papua New Guinea","name_adm1":"Northern","name_en":"Sariri","iso":"PG"},"geometry":{"type":"Point","coordinates":[148.60258,-9.18866]}},{"type":"Feature","properties":{"country_en":"Papua New Guinea","name":"Obaha","name_adm0":"Papua New Guinea","name_adm1":"Central","name_en":"Obaha","iso":"PG"},"geometry":{"type":"Point","coordinates":[148.1,-9.95]}},{"type":"Feature","properties":{"country_en":"Papua New Guinea","name":"Oronga","name_adm0":"Papua New Guinea","name_adm1":"Madang","name_en":"Oronga","iso":"PG"},"geometry":{"type":"Point","coordinates":[145.46667,-5.1]}},{"type":"Feature","properties":{"country_en":"Papua New Guinea","name":"Garu","name_adm0":"Papua New Guinea","name_adm1":"West New Britain","name_en":"Garu","iso":"PG"},"geometry":{"type":"Point","coordinates":[149.97561,-5.41509]}},{"type":"Feature","properties":{"country_en":"Papua New Guinea","name":"Bambak","name_adm0":"Papua New Guinea","name_adm1":"West New Britain","name_en":"Bambak","iso":"PG"},"geometry":{"type":"Point","coordinates":[148.63175,-5.4917]}},{"type":"Feature","properties":{"country_en":"Papua New Guinea","name":"Anepmete","name_adm0":"Papua New Guinea","name_adm1":"West New Britain","name_en":"Anepmete","iso":"PG"},"geometry":{"type":"Point","coordinates":[148.65,-5.85]}},{"type":"Feature","properties":{"country_en":"Papua New Guinea","name":"Sauren","name_adm0":"Papua New Guinea","name_adm1":"West New Britain","name_en":"Sauren","iso":"PG"},"geometry":{"type":"Point","coordinates":[148.84772,-5.97316]}},{"type":"Feature","properties":{"country_en":"Papua New Guinea","name":"Eseli","name_adm0":"Papua New Guinea","name_adm1":"West New Britain","name_en":"Eseli","iso":"PG"},"geometry":{"type":"Point","coordinates":[149.4,-6.01667]}},{"type":"Feature","properties":{"country_en":"Papua New Guinea","name":"Wako","name_adm0":"Papua New Guinea","name_adm1":"West New Britain","name_en":"Wako","iso":"PG"},"geometry":{"type":"Point","coordinates":[149.13332999999997,-6.099999999999999]}},{"type":"Feature","properties":{"country_en":"Papua New Guinea","name":"Bumbum","name_adm0":"Papua New Guinea","name_adm1":"Morobe","name_en":"Bumbum","iso":"PG"},"geometry":{"type":"Point","coordinates":[146.49554,-6.16124]}},{"type":"Feature","properties":{"country_en":"Papua New Guinea","name":"Kabwum","name_adm0":"Papua New Guinea","name_adm1":"Morobe","name_en":"Kabwum","iso":"PG"},"geometry":{"type":"Point","coordinates":[147.2213,-6.13622]}},{"type":"Feature","properties":{"country_en":"Papua New Guinea","name":"Haia","name_adm0":"Papua New Guinea","name_adm1":"Chimbu","name_en":"Haia","iso":"PG"},"geometry":{"type":"Point","coordinates":[145.06328,-6.702459999999999]}},{"type":"Feature","properties":{"country_en":"Papua New Guinea","name":"Ivaki","name_adm0":"Papua New Guinea","name_adm1":"Eastern Highlands","name_en":"Ivaki","iso":"PG"},"geometry":{"type":"Point","coordinates":[145.54664,-6.44933]}},{"type":"Feature","properties":{"country_en":"Papua New Guinea","name":"Wonenara","name_adm0":"Papua New Guinea","name_adm1":"Eastern Highlands","name_en":"Wonenara","iso":"PG"},"geometry":{"type":"Point","coordinates":[145.88969,-6.79738]}},{"type":"Feature","properties":{"country_en":"Papua New Guinea","name":"Digdagela","name_adm0":"Papua New Guinea","name_adm1":"Milne Bay","name_en":"Digdagela","iso":"PG"},"geometry":{"type":"Point","coordinates":[152.406,-8.991]}},{"type":"Feature","properties":{"country_en":"Papua New Guinea","name":"Auwale","name_adm0":"Papua New Guinea","name_adm1":"Milne Bay","name_en":"Auwale","iso":"PG"},"geometry":{"type":"Point","coordinates":[150.35,-9.449999999999998]}},{"type":"Feature","properties":{"country_en":"Papua New Guinea","name":"Kalip","name_adm0":"Papua New Guinea","name_adm1":"East New Britain","name_en":"Kalip","iso":"PG"},"geometry":{"type":"Point","coordinates":[151.95427,-5.11184]}},{"type":"Feature","properties":{"country_en":"Papua New Guinea","name":"Galilo","name_adm0":"Papua New Guinea","name_adm1":"West New Britain","name_en":"Galilo","iso":"PG"},"geometry":{"type":"Point","coordinates":[150.55121,-5.469389999999999]}},{"type":"Feature","properties":{"country_en":"Papua New Guinea","name":"Pulpul","name_adm0":"Papua New Guinea","name_adm1":"East New Britain","name_en":"Pulpul","iso":"PG"},"geometry":{"type":"Point","coordinates":[151.43447,-5.615819999999999]}},{"type":"Feature","properties":{"country_en":"Papua New Guinea","name":"Silanga","name_adm0":"Papua New Guinea","name_adm1":"West New Britain","name_en":"Silanga","iso":"PG"},"geometry":{"type":"Point","coordinates":[150.85,-5.549999999999999]}},{"type":"Feature","properties":{"country_en":"Papua New Guinea","name":"Ubai","name_adm0":"Papua New Guinea","name_adm1":"West New Britain","name_en":"Ubai","iso":"PG"},"geometry":{"type":"Point","coordinates":[150.63584,-5.6449]}},{"type":"Feature","properties":{"country_en":"Papua New Guinea","name":"Awio","name_adm0":"Papua New Guinea","name_adm1":"West New Britain","name_en":"Awio","iso":"PG"},"geometry":{"type":"Point","coordinates":[150.16077,-6.235549999999999]}},{"type":"Feature","properties":{"country_en":"Papua New Guinea","name":"Onioni","name_adm0":"Papua New Guinea","name_adm1":"Central","name_en":"Onioni","iso":"PG"},"geometry":{"type":"Point","coordinates":[149.51368,-10.34632]}},{"type":"Feature","properties":{"country_en":"Papua New Guinea","name":"Kilakilana School","name_adm0":"Papua New Guinea","name_adm1":"Milne Bay","name_en":"Kilakilana School","iso":"PG"},"geometry":{"type":"Point","coordinates":[150.57375,-10.46456]}},{"type":"Feature","properties":{"country_en":"Papua New Guinea","name":"Hohola","name_adm0":"Papua New Guinea","name_adm1":"National Capital","name_en":"Hohola","iso":"PG"},"geometry":{"type":"Point","coordinates":[147.16013,-9.45958]}},{"type":"Feature","properties":{"country_en":"Papua New Guinea","name":"Torembi","name_adm0":"Papua New Guinea","name_adm1":"East Sepik","name_en":"Torembi","iso":"PG"},"geometry":{"type":"Point","coordinates":[143.12792,-4.02941]}},{"type":"Feature","properties":{"country_en":"Papua New Guinea","name":"Mafuara","name_adm0":"Papua New Guinea","name_adm1":"Sandaun","name_en":"Mafuara","iso":"PG"},"geometry":{"type":"Point","coordinates":[141.55734,-3.4754]}},{"type":"Feature","properties":{"country_en":"Papua New Guinea","name":"Bandaber","name_adm0":"Papua New Guinea","name_adm1":"Western","name_en":"Bandaber","iso":"PG"},"geometry":{"type":"Point","coordinates":[141.27014,-8.9342]}},{"type":"Feature","properties":{"country_en":"Papua New Guinea","name":"Tonu","name_adm0":"Papua New Guinea","name_adm1":"North Solomons","name_en":"Tonu","iso":"PG"},"geometry":{"type":"Point","coordinates":[155.425,-6.6499999999999995]}},{"type":"Feature","properties":{"country_en":"Papua New Guinea","name":"Alotau","name_adm0":"Papua New Guinea","name_adm1":"Milne Bay","name_en":"Alotau","iso":"PG"},"geometry":{"type":"Point","coordinates":[150.45423,-10.30764]}},{"type":"Feature","properties":{"country_en":"Papua New Guinea","name":"Konebada","name_adm0":"Papua New Guinea","name_adm1":"National Capital","name_en":"Konebada","iso":"PG"},"geometry":{"type":"Point","coordinates":[147.14024,-9.48242]}},{"type":"Feature","properties":{"country_en":"Papua New Guinea","name":"Kilu","name_adm0":"Papua New Guinea","name_adm1":"West New Britain","name_en":"Kilu","iso":"PG"},"geometry":{"type":"Point","coordinates":[150.08263,-5.42403]}},{"type":"Feature","properties":{"country_en":"Papua New Guinea","name":"Vanimo Government Station","name_adm0":"Papua New Guinea","name_adm1":"Sandaun","name_en":"Vanimo Government Station","iso":"PG"},"geometry":{"type":"Point","coordinates":[141.30283999999997,-2.67408]}},{"type":"Feature","properties":{"country_en":"Papua New Guinea","name":"Hanuabada","name_adm0":"Papua New Guinea","name_adm1":"National Capital","name_en":"Hanuabada","iso":"PG"},"geometry":{"type":"Point","coordinates":[147.19182,-9.46472]}},{"type":"Feature","properties":{"country_en":"Papua New Guinea","name":"Tufi","name_adm0":"Papua New Guinea","name_adm1":"Northern","name_en":"Tufi","iso":"PG"},"geometry":{"type":"Point","coordinates":[149.32205,-9.07931]}},{"type":"Feature","properties":{"country_en":"Papua New Guinea","name":"Western","name_adm0":"Papua New Guinea","name_adm1":"Western","name_en":"Western","iso":"PG"},"geometry":{"type":"Point","coordinates":[142,-7.499999999999999]}},{"type":"Feature","properties":{"country_en":"Papua New Guinea","name":"Pongani","name_adm0":"Papua New Guinea","name_adm1":"Northern","name_en":"Pongani","iso":"PG"},"geometry":{"type":"Point","coordinates":[148.56605999999996,-9.05097]}},{"type":"Feature","properties":{"country_en":"Papua New Guinea","name":"Aroma","name_adm0":"Papua New Guinea","name_adm1":"Central","name_en":"Aroma","iso":"PG"},"geometry":{"type":"Point","coordinates":[147.98333,-10.16667]}},{"type":"Feature","properties":{"country_en":"Papua New Guinea","name":"Tapapi","name_adm0":"Papua New Guinea","name_adm1":"Western","name_en":"Tapapi","iso":"PG"},"geometry":{"type":"Point","coordinates":[143.48544,-8.092479999999998]}},{"type":"Feature","properties":{"country_en":"Papua New Guinea","name":"Tagaru","name_adm0":"Papua New Guinea","name_adm1":"Southern Highlands","name_en":"Tagaru","iso":"PG"},"geometry":{"type":"Point","coordinates":[144.21764,-6.38216]}},{"type":"Feature","properties":{"country_en":"Papua New Guinea","name":"Sara","name_adm0":"Papua New Guinea","name_adm1":"East Sepik","name_en":"Sara","iso":"PG"},"geometry":{"type":"Point","coordinates":[143.26613,-3.7059799999999994]}},{"type":"Feature","properties":{"country_en":"Papua New Guinea","name":"Putput","name_adm0":"Papua New Guinea","name_adm1":"New Ireland","name_en":"Putput","iso":"PG"},"geometry":{"type":"Point","coordinates":[150.93333,-2.65]}},{"type":"Feature","properties":{"country_en":"Papua New Guinea","name":"Murlip","name_adm0":"Papua New Guinea","name_adm1":"Enga","name_en":"Murlip","iso":"PG"},"geometry":{"type":"Point","coordinates":[143.46667,-5.73333]}},{"type":"Feature","properties":{"country_en":"Papua New Guinea","name":"Mosa","name_adm0":"Papua New Guinea","name_adm1":"West New Britain","name_en":"Mosa","iso":"PG"},"geometry":{"type":"Point","coordinates":[150.28123,-5.62828]}},{"type":"Feature","properties":{"country_en":"Papua New Guinea","name":"Maipani","name_adm0":"Papua New Guinea","name_adm1":"Western","name_en":"Maipani","iso":"PG"},"geometry":{"type":"Point","coordinates":[143.69655,-8.18687]}},{"type":"Feature","properties":{"country_en":"Papua New Guinea","name":"Konos","name_adm0":"Papua New Guinea","name_adm1":"New Ireland","name_en":"Konos","iso":"PG"},"geometry":{"type":"Point","coordinates":[151.73519,-3.12858]}},{"type":"Feature","properties":{"country_en":"Papua New Guinea","name":"Kompiam","name_adm0":"Papua New Guinea","name_adm1":"Enga","name_en":"Kompiam","iso":"PG"},"geometry":{"type":"Point","coordinates":[143.92627,-5.34446]}},{"type":"Feature","properties":{"country_en":"Papua New Guinea","name":"Koirapusi","name_adm0":"Papua New Guinea","name_adm1":"Northern","name_en":"Koirapusi","iso":"PG"},"geometry":{"type":"Point","coordinates":[148.18333,-8.333329999999998]}},{"type":"Feature","properties":{"country_en":"Papua New Guinea","name":"Kilau","name_adm0":"Papua New Guinea","name_adm1":"Chimbu","name_en":"Kilau","iso":"PG"},"geometry":{"type":"Point","coordinates":[145,-6.299999999999999]}},{"type":"Feature","properties":{"country_en":"Papua New Guinea","name":"Kea Kea","name_adm0":"Papua New Guinea","name_adm1":"Gulf","name_en":"Kea Kea","iso":"PG"},"geometry":{"type":"Point","coordinates":[145.49806,-7.943430000000001]}},{"type":"Feature","properties":{"country_en":"Papua New Guinea","name":"Kafkaf","name_adm0":"Papua New Guinea","name_adm1":"New Ireland","name_en":"Kafkaf","iso":"PG"},"geometry":{"type":"Point","coordinates":[151.48923,-2.97256]}},{"type":"Feature","properties":{"country_en":"Papua New Guinea","name":"Haiara","name_adm0":"Papua New Guinea","name_adm1":"Gulf","name_en":"Haiara","iso":"PG"},"geometry":{"type":"Point","coordinates":[145.38333,-7.88333]}},{"type":"Feature","properties":{"country_en":"Papua New Guinea","name":"Dengalu","name_adm0":"Papua New Guinea","name_adm1":"Morobe","name_en":"Dengalu","iso":"PG"},"geometry":{"type":"Point","coordinates":[146.68333,-7.16667]}},{"type":"Feature","properties":{"country_en":"Papua New Guinea","name":"Dakit","name_adm0":"Papua New Guinea","name_adm1":"Madang","name_en":"Dakit","iso":"PG"},"geometry":{"type":"Point","coordinates":[144.74189,-4.45654]}},{"type":"Feature","properties":{"country_en":"Papua New Guinea","name":"Boku","name_adm0":"Papua New Guinea","name_adm1":"North Solomons","name_en":"Boku","iso":"PG"},"geometry":{"type":"Point","coordinates":[155.35523,-6.56664]}},{"type":"Feature","properties":{"country_en":"Papua New Guinea","name":"Avunkum","name_adm0":"Papua New Guinea","name_adm1":"Madang","name_en":"Avunkum","iso":"PG"},"geometry":{"type":"Point","coordinates":[144.73065999999997,-4.46637]}},{"type":"Feature","properties":{"country_en":"Papua New Guinea","name":"Auri","name_adm0":"Papua New Guinea","name_adm1":"Gulf","name_en":"Auri","iso":"PG"},"geometry":{"type":"Point","coordinates":[144.72042,-7.24914]}},{"type":"Feature","properties":{"country_en":"Papua New Guinea","name":"Asoatutuma","name_adm0":"Papua New Guinea","name_adm1":"Western","name_en":"Asoatutuma","iso":"PG"},"geometry":{"type":"Point","coordinates":[141.48332999999997,-7.23333]}},{"type":"Feature","properties":{"country_en":"Papua New Guinea","name":"Atsilima","name_adm0":"Papua New Guinea","name_adm1":"North Solomons","name_en":"Atsilima","iso":"PG"},"geometry":{"type":"Point","coordinates":[154.97866,-6.09337]}},{"type":"Feature","properties":{"country_en":"Papua New Guinea","name":"Sefoa","name_adm0":"Papua New Guinea","name_adm1":"Northern","name_en":"Sefoa","iso":"PG"},"geometry":{"type":"Point","coordinates":[149.3,-9.06667]}},{"type":"Feature","properties":{"country_en":"Papua New Guinea","name":"Manus","name_adm0":"Papua New Guinea","name_adm1":"Manus","name_en":"Manus","iso":"PG"},"geometry":{"type":"Point","coordinates":[147,-2]}},{"type":"Feature","properties":{"country_en":"Papua New Guinea","name":"National Capital","name_adm0":"Papua New Guinea","name_adm1":"National Capital","name_en":"National Capital","iso":"PG"},"geometry":{"type":"Point","coordinates":[147.16667,-9.41667]}},{"type":"Feature","properties":{"country_en":"Papua New Guinea","name":"Dreikikir","name_adm0":"Papua New Guinea","name_adm1":"East Sepik","name_en":"Dreikikir","iso":"PG"},"geometry":{"type":"Point","coordinates":[142.76896,-3.57187]}},{"type":"Feature","properties":{"country_en":"Papua New Guinea","name":"Watam","name_adm0":"Papua New Guinea","name_adm1":"East Sepik","name_en":"Watam","iso":"PG"},"geometry":{"type":"Point","coordinates":[144.56078,-3.9229199999999995]}},{"type":"Feature","properties":{"country_en":"Papua New Guinea","name":"Gavien","name_adm0":"Papua New Guinea","name_adm1":"East Sepik","name_en":"Gavien","iso":"PG"},"geometry":{"type":"Point","coordinates":[144.08484,-3.93247]}},{"type":"Feature","properties":{"country_en":"Papua New Guinea","name":"Wau","name_adm0":"Papua New Guinea","name_adm1":"Morobe","name_en":"Wau","iso":"PG"},"geometry":{"type":"Point","coordinates":[146.71798,-7.33514]}},{"type":"Feature","properties":{"country_en":"Papua New Guinea","name":"Lonahan","name_adm0":"Papua New Guinea","name_adm1":"North Solomons","name_en":"Lonahan","iso":"PG"},"geometry":{"type":"Point","coordinates":[154.68741,-5.30718]}},{"type":"Feature","properties":{"country_en":"Papua New Guinea","name":"Korobosea","name_adm0":"Papua New Guinea","name_adm1":"National Capital","name_en":"Korobosea","iso":"PG"},"geometry":{"type":"Point","coordinates":[147.19182,-9.46472]}},{"type":"Feature","properties":{"country_en":"Papua New Guinea","name":"Amanab","name_adm0":"Papua New Guinea","name_adm1":"Sandaun","name_en":"Amanab","iso":"PG"},"geometry":{"type":"Point","coordinates":[141.20805999999996,-3.58089]}},{"type":"Feature","properties":{"country_en":"Papua New Guinea","name":"Baimuru","name_adm0":"Papua New Guinea","name_adm1":"Gulf","name_en":"Baimuru","iso":"PG"},"geometry":{"type":"Point","coordinates":[144.80522,-7.49176]}},{"type":"Feature","properties":{"country_en":"Papua New Guinea","name":"Akoma","name_adm0":"Papua New Guinea","name_adm1":"Gulf","name_en":"Akoma","iso":"PG"},"geometry":{"type":"Point","coordinates":[145.03086,-7.806229999999999]}},{"type":"Feature","properties":{"country_en":"Papua New Guinea","name":"Kenewa","name_adm0":"Papua New Guinea","name_adm1":"Western","name_en":"Kenewa","iso":"PG"},"geometry":{"type":"Point","coordinates":[142.90476,-7.94428]}},{"type":"Feature","properties":{"country_en":"Papua New Guinea","name":"Marawaka","name_adm0":"Papua New Guinea","name_adm1":"Morobe","name_en":"Marawaka","iso":"PG"},"geometry":{"type":"Point","coordinates":[145.88402999999997,-6.975959999999999]}},{"type":"Feature","properties":{"country_en":"Papua New Guinea","name":"Marunga","name_adm0":"Papua New Guinea","name_adm1":"East New Britain","name_en":"Marunga","iso":"PG"},"geometry":{"type":"Point","coordinates":[152.04006,-4.9688]}},{"type":"Feature","properties":{"country_en":"Papua New Guinea","name":"Moian 1","name_adm0":"Papua New Guinea","name_adm1":"Western","name_en":"Moian 1","iso":"PG"},"geometry":{"type":"Point","coordinates":[141.21711,-6.19405]}},{"type":"Feature","properties":{"country_en":"Papua New Guinea","name":"Lakuramau","name_adm0":"Papua New Guinea","name_adm1":"New Ireland","name_en":"Lakuramau","iso":"PG"},"geometry":{"type":"Point","coordinates":[151.25721,-2.88012]}},{"type":"Feature","properties":{"country_en":"Papua New Guinea","name":"Kait","name_adm0":"Papua New Guinea","name_adm1":"New Ireland","name_en":"Kait","iso":"PG"},"geometry":{"type":"Point","coordinates":[152.66058,-4.44265]}},{"type":"Feature","properties":{"country_en":"Papua New Guinea","name":"Kabunut","name_adm0":"Papua New Guinea","name_adm1":"New Ireland","name_en":"Kabunut","iso":"PG"},"geometry":{"type":"Point","coordinates":[152.48332999999997,-3.8499999999999996]}},{"type":"Feature","properties":{"country_en":"Papua New Guinea","name":"Embessa","name_adm0":"Papua New Guinea","name_adm1":"Northern","name_en":"Embessa","iso":"PG"},"geometry":{"type":"Point","coordinates":[148.76667,-9.449999999999998]}},{"type":"Feature","properties":{"country_en":"Papua New Guinea","name":"Garuai","name_adm0":"Papua New Guinea","name_adm1":"Milne Bay","name_en":"Garuai","iso":"PG"},"geometry":{"type":"Point","coordinates":[150.49458999999996,-10.22329]}},{"type":"Feature","properties":{"country_en":"Papua New Guinea","name":"Jarai","name_adm0":"Papua New Guinea","name_adm1":"Western","name_en":"Jarai","iso":"PG"},"geometry":{"type":"Point","coordinates":[141.5589,-9.20672]}},{"type":"Feature","properties":{"country_en":"Papua New Guinea","name":"Kaevaga","name_adm0":"Papua New Guinea","name_adm1":"National Capital","name_en":"Kaevaga","iso":"PG"},"geometry":{"type":"Point","coordinates":[147.15,-9.46667]}},{"type":"Feature","properties":{"country_en":"Papua New Guinea","name":"Kerora","name_adm0":"Papua New Guinea","name_adm1":"Milne Bay","name_en":"Kerora","iso":"PG"},"geometry":{"type":"Point","coordinates":[149.8,-9.91667]}},{"type":"Feature","properties":{"country_en":"Papua New Guinea","name":"Kewansasap","name_adm0":"Papua New Guinea","name_adm1":"Northern","name_en":"Kewansasap","iso":"PG"},"geometry":{"type":"Point","coordinates":[149.41612,-9.5712]}},{"type":"Feature","properties":{"country_en":"Papua New Guinea","name":"Kila Kila Number 1","name_adm0":"Papua New Guinea","name_adm1":"National Capital","name_en":"Kila Kila Number 1","iso":"PG"},"geometry":{"type":"Point","coordinates":[147.19898999999998,-9.49736]}},{"type":"Feature","properties":{"country_en":"Papua New Guinea","name":"Merai","name_adm0":"Papua New Guinea","name_adm1":"East New Britain","name_en":"Merai","iso":"PG"},"geometry":{"type":"Point","coordinates":[152.32729,-4.80733]}},{"type":"Feature","properties":{"country_en":"Papua New Guinea","name":"Sirasira","name_adm0":"Papua New Guinea","name_adm1":"Morobe","name_en":"Sirasira","iso":"PG"},"geometry":{"type":"Point","coordinates":[146.47729999999999,-6.32592]}},{"type":"Feature","properties":{"country_en":"Papua New Guinea","name":"Rongo","name_adm0":"Papua New Guinea","name_adm1":"Eastern Highlands","name_en":"Rongo","iso":"PG"},"geometry":{"type":"Point","coordinates":[146.11162,-5.735719999999999]}},{"type":"Feature","properties":{"country_en":"Papua New Guinea","name":"Mindik","name_adm0":"Papua New Guinea","name_adm1":"Morobe","name_en":"Mindik","iso":"PG"},"geometry":{"type":"Point","coordinates":[147.41772,-6.47773]}},{"type":"Feature","properties":{"country_en":"Papua New Guinea","name":"Boana","name_adm0":"Papua New Guinea","name_adm1":"Morobe","name_en":"Boana","iso":"PG"},"geometry":{"type":"Point","coordinates":[146.82074,-6.433459999999999]}},{"type":"Feature","properties":{"country_en":"Papua New Guinea","name":"Kwapsanek","name_adm0":"Papua New Guinea","name_adm1":"Morobe","name_en":"Kwapsanek","iso":"PG"},"geometry":{"type":"Point","coordinates":[147.03332999999998,-6.56667]}},{"type":"Feature","properties":{"country_en":"Papua New Guinea","name":"Southern Highlands","name_adm0":"Papua New Guinea","name_adm1":"Southern Highlands","name_en":"Southern Highlands","iso":"PG"},"geometry":{"type":"Point","coordinates":[143.41667,-6.25]}},{"type":"Feature","properties":{"country_en":"Papua New Guinea","name":"Madang","name_adm0":"Papua New Guinea","name_adm1":"Madang","name_en":"Madang","iso":"PG"},"geometry":{"type":"Point","coordinates":[145.5,-4.999999999999999]}},{"type":"Feature","properties":{"country_en":"Papua New Guinea","name":"New Ireland","name_adm0":"Papua New Guinea","name_adm1":"New Ireland","name_en":"New Ireland","iso":"PG"},"geometry":{"type":"Point","coordinates":[151.5,-3]}},{"type":"Feature","properties":{"country_en":"Papua New Guinea","name":"Badili","name_adm0":"Papua New Guinea","name_adm1":"National Capital","name_en":"Badili","iso":"PG"},"geometry":{"type":"Point","coordinates":[147.16667,-9.48333]}},{"type":"Feature","properties":{"country_en":"Papua New Guinea","name":"Baramata Number 4","name_adm0":"Papua New Guinea","name_adm1":"Central","name_en":"Baramata Number 4","iso":"PG"},"geometry":{"type":"Point","coordinates":[148.48992,-10.20079]}},{"type":"Feature","properties":{"country_en":"Papua New Guinea","name":"Barune","name_adm0":"Papua New Guinea","name_adm1":"National Capital","name_en":"Barune","iso":"PG"},"geometry":{"type":"Point","coordinates":[147.12884,-9.42766]}},{"type":"Feature","properties":{"country_en":"Papua New Guinea","name":"Buka","name_adm0":"Papua New Guinea","name_adm1":"Milne Bay","name_en":"Buka","iso":"PG"},"geometry":{"type":"Point","coordinates":[149.73333,-9.8]}},{"type":"Feature","properties":{"country_en":"Papua New Guinea","name":"Bwagaoia","name_adm0":"Papua New Guinea","name_adm1":"Milne Bay","name_en":"Bwagaoia","iso":"PG"},"geometry":{"type":"Point","coordinates":[152.84217,-10.68649]}},{"type":"Feature","properties":{"country_en":"Papua New Guinea","name":"Gabutu","name_adm0":"Papua New Guinea","name_adm1":"National Capital","name_en":"Gabutu","iso":"PG"},"geometry":{"type":"Point","coordinates":[147.16667,-9.48333]}},{"type":"Feature","properties":{"country_en":"Papua New Guinea","name":"Gaiwonaki","name_adm0":"Papua New Guinea","name_adm1":"Milne Bay","name_en":"Gaiwonaki","iso":"PG"},"geometry":{"type":"Point","coordinates":[149.70462,-9.81343]}},{"type":"Feature","properties":{"country_en":"Papua New Guinea","name":"Kokola","name_adm0":"Papua New Guinea","name_adm1":"New Ireland","name_en":"Kokola","iso":"PG"},"geometry":{"type":"Point","coordinates":[152.25402,-3.55518]}},{"type":"Feature","properties":{"country_en":"Papua New Guinea","name":"Korabosa","name_adm0":"Papua New Guinea","name_adm1":"National Capital","name_en":"Korabosa","iso":"PG"},"geometry":{"type":"Point","coordinates":[147.19294,-9.47759]}},{"type":"Feature","properties":{"country_en":"Papua New Guinea","name":"Mangga","name_adm0":"Papua New Guinea","name_adm1":"Morobe","name_en":"Mangga","iso":"PG"},"geometry":{"type":"Point","coordinates":[146.73126999999997,-6.95088]}},{"type":"Feature","properties":{"country_en":"Papua New Guinea","name":"Nenewe","name_adm0":"Papua New Guinea","name_adm1":"Morobe","name_en":"Nenewe","iso":"PG"},"geometry":{"type":"Point","coordinates":[146.02732,-7.30157]}},{"type":"Feature","properties":{"country_en":"Papua New Guinea","name":"Raunsepna","name_adm0":"Papua New Guinea","name_adm1":"East New Britain","name_en":"Raunsepna","iso":"PG"},"geometry":{"type":"Point","coordinates":[151.78376,-4.46076]}},{"type":"Feature","properties":{"country_en":"Papua New Guinea","name":"Wasum","name_adm0":"Papua New Guinea","name_adm1":"West New Britain","name_en":"Wasum","iso":"PG"},"geometry":{"type":"Point","coordinates":[149.35,-6.05]}},{"type":"Feature","properties":{"country_en":"Papua New Guinea","name":"Laiama","name_adm0":"Papua New Guinea","name_adm1":"West New Britain","name_en":"Laiama","iso":"PG"},"geometry":{"type":"Point","coordinates":[149.56667,-6.05]}},{"type":"Feature","properties":{"country_en":"Papua New Guinea","name":"Hafaru","name_adm0":"Papua New Guinea","name_adm1":"Eastern Highlands","name_en":"Hafaru","iso":"PG"},"geometry":{"type":"Point","coordinates":[145.40905,-6.42334]}},{"type":"Feature","properties":{"country_en":"Papua New Guinea","name":"Koki","name_adm0":"Papua New Guinea","name_adm1":"National Capital","name_en":"Koki","iso":"PG"},"geometry":{"type":"Point","coordinates":[147.16667,-9.48333]}},{"type":"Feature","properties":{"country_en":"Papua New Guinea","name":"Hanuada","name_adm0":"Papua New Guinea","name_adm1":"National Capital","name_en":"Hanuada","iso":"PG"},"geometry":{"type":"Point","coordinates":[147.13332999999997,-9.449999999999998]}},{"type":"Feature","properties":{"country_en":"Papua New Guinea","name":"Kifamu Mission","name_adm0":"Papua New Guinea","name_adm1":"Eastern Highlands","name_en":"Kifamu Mission","iso":"PG"},"geometry":{"type":"Point","coordinates":[145.440643,-6.035345]}},{"type":"Feature","properties":{"country_en":"Papua New Guinea","name":"Hepa","name_adm0":"Papua New Guinea","name_adm1":"Gulf","name_en":"Hepa","iso":"PG"},"geometry":{"type":"Point","coordinates":[145.44647,-7.557349999999999]}},{"type":"Feature","properties":{"country_en":"Papua New Guinea","name":"Wabununu","name_adm0":"Papua New Guinea","name_adm1":"Milne Bay","name_en":"Wabununu","iso":"PG"},"geometry":{"type":"Point","coordinates":[152.89146,-9.24763]}},{"type":"Feature","properties":{"country_en":"Papua New Guinea","name":"Kundiawa","name_adm0":"Papua New Guinea","name_adm1":"Chimbu","name_en":"Kundiawa","iso":"PG"},"geometry":{"type":"Point","coordinates":[144.96667,-6.01667]}},{"type":"Feature","properties":{"country_en":"Papua New Guinea","name":"Emo","name_adm0":"Papua New Guinea","name_adm1":"Northern","name_en":"Emo","iso":"PG"},"geometry":{"type":"Point","coordinates":[148.52375999999998,-8.99366]}},{"type":"Feature","properties":{"country_en":"Papua New Guinea","name":"Fagamajiu","name_adm0":"Papua New Guinea","name_adm1":"Southern Highlands","name_en":"Fagamajiu","iso":"PG"},"geometry":{"type":"Point","coordinates":[143.11374,-6.531199999999999]}},{"type":"Feature","properties":{"country_en":"Papua New Guinea","name":"Woitape","name_adm0":"Papua New Guinea","name_adm1":"Central","name_en":"Woitape","iso":"PG"},"geometry":{"type":"Point","coordinates":[147.24741,-8.55312]}},{"type":"Feature","properties":{"country_en":"Papua New Guinea","name":"Eroro","name_adm0":"Papua New Guinea","name_adm1":"Northern","name_en":"Eroro","iso":"PG"},"geometry":{"type":"Point","coordinates":[148.48333,-8.86667]}},{"type":"Feature","properties":{"country_en":"Papua New Guinea","name":"Konedobu","name_adm0":"Papua New Guinea","name_adm1":"National Capital","name_en":"Konedobu","iso":"PG"},"geometry":{"type":"Point","coordinates":[147.16212,-9.466419999999998]}},{"type":"Feature","properties":{"country_en":"Papua New Guinea","name":"Widu","name_adm0":"Papua New Guinea","name_adm1":"West New Britain","name_en":"Widu","iso":"PG"},"geometry":{"type":"Point","coordinates":[149.45,-4.68333]}},{"type":"Feature","properties":{"country_en":"Papua New Guinea","name":"Sopau","name_adm0":"Papua New Guinea","name_adm1":"New Ireland","name_en":"Sopau","iso":"PG"},"geometry":{"type":"Point","coordinates":[152.55056999999996,-3.74668]}},{"type":"Feature","properties":{"country_en":"Papua New Guinea","name":"Gaulim","name_adm0":"Papua New Guinea","name_adm1":"East New Britain","name_en":"Gaulim","iso":"PG"},"geometry":{"type":"Point","coordinates":[152.10712,-4.4436]}},{"type":"Feature","properties":{"country_en":"Papua New Guinea","name":"Karema","name_adm0":"Papua New Guinea","name_adm1":"Central","name_en":"Karema","iso":"PG"},"geometry":{"type":"Point","coordinates":[147.23333,-9.2]}},{"type":"Feature","properties":{"country_en":"Papua New Guinea","name":"Utu","name_adm0":"Papua New Guinea","name_adm1":"Madang","name_en":"Utu","iso":"PG"},"geometry":{"type":"Point","coordinates":[145.54117,-5.127149999999999]}},{"type":"Feature","properties":{"country_en":"Papua New Guinea","name":"Ungerum","name_adm0":"Papua New Guinea","name_adm1":"Western","name_en":"Ungerum","iso":"PG"},"geometry":{"type":"Point","coordinates":[141.13192,-6.44608]}},{"type":"Feature","properties":{"country_en":"Papua New Guinea","name":"Uamai Number 1","name_adm0":"Papua New Guinea","name_adm1":"Gulf","name_en":"Uamai Number 1","iso":"PG"},"geometry":{"type":"Point","coordinates":[145.88332999999997,-8.049999999999999]}},{"type":"Feature","properties":{"country_en":"Papua New Guinea","name":"To'okena","name_adm0":"Papua New Guinea","name_adm1":"Eastern Highlands","name_en":"To'okena","iso":"PG"},"geometry":{"type":"Point","coordinates":[146.00364,-6.6179499999999996]}},{"type":"Feature","properties":{"country_en":"Papua New Guinea","name":"Yawaw-Rapaw","name_adm0":"Papua New Guinea","name_adm1":"Sandaun","name_en":"Yawaw-Rapaw","iso":"PG"},"geometry":{"type":"Point","coordinates":[142.29995,-3.8020499999999995]}},{"type":"Feature","properties":{"country_en":"Papua New Guinea","name":"Turingi","name_adm0":"Papua New Guinea","name_adm1":"East Sepik","name_en":"Turingi","iso":"PG"},"geometry":{"type":"Point","coordinates":[143.50636,-3.8364599999999998]}},{"type":"Feature","properties":{"country_en":"Papua New Guinea","name":"Wowobo","name_adm0":"Papua New Guinea","name_adm1":"Gulf","name_en":"Wowobo","iso":"PG"},"geometry":{"type":"Point","coordinates":[144.52219,-7.403]}},{"type":"Feature","properties":{"country_en":"Papua New Guinea","name":"Usokof","name_adm0":"Papua New Guinea","name_adm1":"Western","name_en":"Usokof","iso":"PG"},"geometry":{"type":"Point","coordinates":[141.5262,-6.89253]}},{"type":"Feature","properties":{"country_en":"Papua New Guinea","name":"Wabununa","name_adm0":"Papua New Guinea","name_adm1":"Milne Bay","name_en":"Wabununa","iso":"PG"},"geometry":{"type":"Point","coordinates":[152.89146,-9.24763]}},{"type":"Feature","properties":{"country_en":"Papua New Guinea","name":"Valoka","name_adm0":"Papua New Guinea","name_adm1":"West New Britain","name_en":"Valoka","iso":"PG"},"geometry":{"type":"Point","coordinates":[150.45,-5.43333]}},{"type":"Feature","properties":{"country_en":"Papua New Guinea","name":"Vakuta","name_adm0":"Papua New Guinea","name_adm1":"Milne Bay","name_en":"Vakuta","iso":"PG"},"geometry":{"type":"Point","coordinates":[151.20216,-8.86002]}},{"type":"Feature","properties":{"country_en":"Papua New Guinea","name":"Gulf","name_adm0":"Papua New Guinea","name_adm1":"Gulf","name_en":"Gulf","iso":"PG"},"geometry":{"type":"Point","coordinates":[145.08545,-7.724600000000001]}},{"type":"Feature","properties":{"country_en":"Papua New Guinea","name":"Kanudi","name_adm0":"Papua New Guinea","name_adm1":"National Capital","name_en":"Kanudi","iso":"PG"},"geometry":{"type":"Point","coordinates":[147.13332999999997,-9.433329999999998]}},{"type":"Feature","properties":{"country_en":"Papua New Guinea","name":"Milne Bay","name_adm0":"Papua New Guinea","name_adm1":"Milne Bay","name_en":"Milne Bay","iso":"PG"},"geometry":{"type":"Point","coordinates":[150.31494,-10.55262]}},{"type":"Feature","properties":{"country_en":"Papua New Guinea","name":"Northern","name_adm0":"Papua New Guinea","name_adm1":"Northern","name_en":"Northern","iso":"PG"},"geometry":{"type":"Point","coordinates":[148.5,-9]}},{"type":"Feature","properties":{"country_en":"Papua New Guinea","name":"Ambunti","name_adm0":"Papua New Guinea","name_adm1":"East Sepik","name_en":"Ambunti","iso":"PG"},"geometry":{"type":"Point","coordinates":[142.84485,-4.23653]}},{"type":"Feature","properties":{"country_en":"Papua New Guinea","name":"Timbunke","name_adm0":"Papua New Guinea","name_adm1":"East Sepik","name_en":"Timbunke","iso":"PG"},"geometry":{"type":"Point","coordinates":[143.51986,-4.20493]}},{"type":"Feature","properties":{"country_en":"Papua New Guinea","name":"Okukwewelou","name_adm0":"Papua New Guinea","name_adm1":"Milne Bay","name_en":"Okukwewelou","iso":"PG"},"geometry":{"type":"Point","coordinates":[151.12499,-8.53673]}},{"type":"Feature","properties":{"country_en":"Papua New Guinea","name":"Kila","name_adm0":"Papua New Guinea","name_adm1":"National Capital","name_en":"Kila","iso":"PG"},"geometry":{"type":"Point","coordinates":[147.18333,-9.5]}},{"type":"Feature","properties":{"country_en":"Papua New Guinea","name":"Amtanmin 1","name_adm0":"Papua New Guinea","name_adm1":"Sandaun","name_en":"Amtanmin 1","iso":"PG"},"geometry":{"type":"Point","coordinates":[141.20102,-4.9331]}},{"type":"Feature","properties":{"country_en":"Papua New Guinea","name":"Arop Villages","name_adm0":"Papua New Guinea","name_adm1":"Sandaun","name_en":"Arop Villages","iso":"PG"},"geometry":{"type":"Point","coordinates":[142.1303,-3.0565]}},{"type":"Feature","properties":{"country_en":"Papua New Guinea","name":"Asasapas","name_adm0":"Papua New Guinea","name_adm1":"Sandaun","name_en":"Asasapas","iso":"PG"},"geometry":{"type":"Point","coordinates":[142.97419,-3.3751]}},{"type":"Feature","properties":{"country_en":"Papua New Guinea","name":"Atsinima","name_adm0":"Papua New Guinea","name_adm1":"North Solomons","name_en":"Atsinima","iso":"PG"},"geometry":{"type":"Point","coordinates":[154.97866,-6.09337]}},{"type":"Feature","properties":{"country_en":"Papua New Guinea","name":"Auwali","name_adm0":"Papua New Guinea","name_adm1":"Milne Bay","name_en":"Auwali","iso":"PG"},"geometry":{"type":"Point","coordinates":[150.35,-9.449999999999998]}},{"type":"Feature","properties":{"country_en":"Papua New Guinea","name":"Barume","name_adm0":"Papua New Guinea","name_adm1":"National Capital","name_en":"Barume","iso":"PG"},"geometry":{"type":"Point","coordinates":[147.19182,-9.46472]}},{"type":"Feature","properties":{"country_en":"Papua New Guinea","name":"Baruni","name_adm0":"Papua New Guinea","name_adm1":"National Capital","name_en":"Baruni","iso":"PG"},"geometry":{"type":"Point","coordinates":[147.19182,-9.46472]}},{"type":"Feature","properties":{"country_en":"Papua New Guinea","name":"Chimbuluk","name_adm0":"Papua New Guinea","name_adm1":"Morobe","name_en":"Chimbuluk","iso":"PG"},"geometry":{"type":"Point","coordinates":[146.7444,-6.90422]}},{"type":"Feature","properties":{"country_en":"Papua New Guinea","name":"Iari","name_adm0":"Papua New Guinea","name_adm1":"Gulf","name_en":"Iari","iso":"PG"},"geometry":{"type":"Point","coordinates":[145.15,-7.666670000000001]}},{"type":"Feature","properties":{"country_en":"Papua New Guinea","name":"Idam 1","name_adm0":"Papua New Guinea","name_adm1":"Sandaun","name_en":"Idam 1","iso":"PG"},"geometry":{"type":"Point","coordinates":[141.24224,-4.12525]}},{"type":"Feature","properties":{"country_en":"Papua New Guinea","name":"Kabori Number 1","name_adm0":"Papua New Guinea","name_adm1":"Sandaun","name_en":"Kabori Number 1","iso":"PG"},"geometry":{"type":"Point","coordinates":[141.85408,-3.3270199999999996]}},{"type":"Feature","properties":{"country_en":"Papua New Guinea","name":"Kanduanam Number 2","name_adm0":"Papua New Guinea","name_adm1":"East Sepik","name_en":"Kanduanam Number 2","iso":"PG"},"geometry":{"type":"Point","coordinates":[143.75,-4.23333]}},{"type":"Feature","properties":{"country_en":"Papua New Guinea","name":"Karep","name_adm0":"Papua New Guinea","name_adm1":"Western Highlands","name_en":"Karep","iso":"PG"},"geometry":{"type":"Point","coordinates":[144.68709,-5.66486]}},{"type":"Feature","properties":{"country_en":"Papua New Guinea","name":"Koiare","name_adm0":"Papua New Guinea","name_adm1":"North Solomons","name_en":"Koiare","iso":"PG"},"geometry":{"type":"Point","coordinates":[155.20286,-6.30175]}},{"type":"Feature","properties":{"country_en":"Papua New Guinea","name":"Koinambi","name_adm0":"Papua New Guinea","name_adm1":"Western Highlands","name_en":"Koinambi","iso":"PG"},"geometry":{"type":"Point","coordinates":[144.61667,-5.51667]}},{"type":"Feature","properties":{"country_en":"Papua New Guinea","name":"Konibada","name_adm0":"Papua New Guinea","name_adm1":"National Capital","name_en":"Konibada","iso":"PG"},"geometry":{"type":"Point","coordinates":[147.19182,-9.46472]}},{"type":"Feature","properties":{"country_en":"Papua New Guinea","name":"Moiwatu","name_adm0":"Papua New Guinea","name_adm1":"Gulf","name_en":"Moiwatu","iso":"PG"},"geometry":{"type":"Point","coordinates":[145.33333,-7.2]}},{"type":"Feature","properties":{"country_en":"Papua New Guinea","name":"Nagosap","name_adm0":"Papua New Guinea","name_adm1":"East Sepik","name_en":"Nagosap","iso":"PG"},"geometry":{"type":"Point","coordinates":[143.26667,-4.099999999999999]}},{"type":"Feature","properties":{"country_en":"Papua New Guinea","name":"One One","name_adm0":"Papua New Guinea","name_adm1":"Central","name_en":"One One","iso":"PG"},"geometry":{"type":"Point","coordinates":[149.51368,-10.34632]}},{"type":"Feature","properties":{"country_en":"Papua New Guinea","name":"Pulpul","name_adm0":"Papua New Guinea","name_adm1":"East New Britain","name_en":"Pulpul","iso":"PG"},"geometry":{"type":"Point","coordinates":[151.43447,-5.615819999999999]}},{"type":"Feature","properties":{"country_en":"Papua New Guinea","name":"Sebe","name_adm0":"Papua New Guinea","name_adm1":"Western","name_en":"Sebe","iso":"PG"},"geometry":{"type":"Point","coordinates":[142.76667,-8.93333]}},{"type":"Feature","properties":{"country_en":"Papua New Guinea","name":"Terere","name_adm0":"Papua New Guinea","name_adm1":"Western","name_en":"Terere","iso":"PG"},"geometry":{"type":"Point","coordinates":[143.62324,-8.23864]}},{"type":"Feature","properties":{"country_en":"Papua New Guinea","name":"Amaki","name_adm0":"Papua New Guinea","name_adm1":"East Sepik","name_en":"Amaki","iso":"PG"},"geometry":{"type":"Point","coordinates":[142.65101,-4.08481]}},{"type":"Feature","properties":{"country_en":"Papua New Guinea","name":"Kaminimbit","name_adm0":"Papua New Guinea","name_adm1":"East Sepik","name_en":"Kaminimbit","iso":"PG"},"geometry":{"type":"Point","coordinates":[143.35284,-4.29815]}},{"type":"Feature","properties":{"country_en":"Papua New Guinea","name":"Tulu","name_adm0":"Papua New Guinea","name_adm1":"Manus","name_en":"Tulu","iso":"PG"},"geometry":{"type":"Point","coordinates":[146.83384,-1.9589299999999998]}},{"type":"Feature","properties":{"country_en":"Papua New Guinea","name":"Orei","name_adm0":"Papua New Guinea","name_adm1":"Enga","name_en":"Orei","iso":"PG"},"geometry":{"type":"Point","coordinates":[143.05,-5.38333]}},{"type":"Feature","properties":{"country_en":"Papua New Guinea","name":"Lae","name_adm0":"Papua New Guinea","name_adm1":"Morobe","name_en":"Lae","iso":"PG"},"geometry":{"type":"Point","coordinates":[146.99429299999997,-6.72098]}},{"type":"Feature","properties":{"country_en":"Papua New Guinea","name":"Moian","name_adm0":"Papua New Guinea","name_adm1":"Western","name_en":"Moian","iso":"PG"},"geometry":{"type":"Point","coordinates":[141.21711,-6.19405]}},{"type":"Feature","properties":{"country_en":"Papua New Guinea","name":"Bosset","name_adm0":"Papua New Guinea","name_adm1":"Western","name_en":"Bosset","iso":"PG"},"geometry":{"type":"Point","coordinates":[141.09261,-7.24563]}},{"type":"Feature","properties":{"country_en":"Papua New Guinea","name":"Emeti","name_adm0":"Papua New Guinea","name_adm1":"Western","name_en":"Emeti","iso":"PG"},"geometry":{"type":"Point","coordinates":[143.25265,-7.884699999999999]}},{"type":"Feature","properties":{"country_en":"Papua New Guinea","name":"Kenewa","name_adm0":"Papua New Guinea","name_adm1":"Western","name_en":"Kenewa","iso":"PG"},"geometry":{"type":"Point","coordinates":[142.90476,-7.94428]}},{"type":"Feature","properties":{"country_en":"Papua New Guinea","name":"Uamai","name_adm0":"Papua New Guinea","name_adm1":"Gulf","name_en":"Uamai","iso":"PG"},"geometry":{"type":"Point","coordinates":[145.88332999999997,-8.049999999999999]}},{"type":"Feature","properties":{"country_en":"Papua New Guinea","name":"Nagada Mission","name_adm0":"Papua New Guinea","name_adm1":"Madang","name_en":"Nagada Mission","iso":"PG"},"geometry":{"type":"Point","coordinates":[145.802478,-5.154056]}},{"type":"Feature","properties":{"country_en":"Papua New Guinea","name":"Mari","name_adm0":"Papua New Guinea","name_adm1":"Morobe","name_en":"Mari","iso":"PG"},"geometry":{"type":"Point","coordinates":[146.68812,-6.65439]}},{"type":"Feature","properties":{"country_en":"Papua New Guinea","name":"Manga","name_adm0":"Papua New Guinea","name_adm1":"Morobe","name_en":"Manga","iso":"PG"},"geometry":{"type":"Point","coordinates":[146.73126999999997,-6.95088]}},{"type":"Feature","properties":{"country_en":"Papua New Guinea","name":"Dogura","name_adm0":"Papua New Guinea","name_adm1":"Milne Bay","name_en":"Dogura","iso":"PG"},"geometry":{"type":"Point","coordinates":[150.10229,-10.09652]}},{"type":"Feature","properties":{"country_en":"Papua New Guinea","name":"Gembogl","name_adm0":"Papua New Guinea","name_adm1":"Chimbu","name_en":"Gembogl","iso":"PG"},"geometry":{"type":"Point","coordinates":[145.08333,-5.883329999999999]}},{"type":"Feature","properties":{"country_en":"Papua New Guinea","name":"Drimdemasuk","name_adm0":"Papua New Guinea","name_adm1":"Western","name_en":"Drimdemasuk","iso":"PG"},"geometry":{"type":"Point","coordinates":[141.39415,-6.141639999999999]}},{"type":"Feature","properties":{"country_en":"Papua New Guinea","name":"Wanigela","name_adm0":"Papua New Guinea","name_adm1":"Northern","name_en":"Wanigela","iso":"PG"},"geometry":{"type":"Point","coordinates":[149.1818,-9.33548]}},{"type":"Feature","properties":{"country_en":"Papua New Guinea","name":"Boroko","name_adm0":"Papua New Guinea","name_adm1":"National Capital","name_en":"Boroko","iso":"PG"},"geometry":{"type":"Point","coordinates":[147.19582,-9.46755]}},{"type":"Feature","properties":{"country_en":"Papua New Guinea","name":"Matirogo","name_adm0":"Papua New Guinea","name_adm1":"National Capital","name_en":"Matirogo","iso":"PG"},"geometry":{"type":"Point","coordinates":[147.16667,-9.48333]}},{"type":"Feature","properties":{"country_en":"Papua New Guinea","name":"Murray Barracks","name_adm0":"Papua New Guinea","name_adm1":"National Capital","name_en":"Murray Barracks","iso":"PG"},"geometry":{"type":"Point","coordinates":[147.18333,-9.46667]}},{"type":"Feature","properties":{"country_en":"Papua New Guinea","name":"Gumine","name_adm0":"Papua New Guinea","name_adm1":"Chimbu","name_en":"Gumine","iso":"PG"},"geometry":{"type":"Point","coordinates":[144.94249,-6.20144]}},{"type":"Feature","properties":{"country_en":"Papua New Guinea","name":"Waigani","name_adm0":"Papua New Guinea","name_adm1":"National Capital","name_en":"Waigani","iso":"PG"},"geometry":{"type":"Point","coordinates":[147.18315,-9.42349]}},{"type":"Feature","properties":{"country_en":"Papua New Guinea","name":"Sogeri","name_adm0":"Papua New Guinea","name_adm1":"Central","name_en":"Sogeri","iso":"PG"},"geometry":{"type":"Point","coordinates":[147.42111,-9.42111]}},{"type":"Feature","properties":{"country_en":"Papua New Guinea","name":"Asaro","name_adm0":"Papua New Guinea","name_adm1":"Eastern Highlands","name_en":"Asaro","iso":"PG"},"geometry":{"type":"Point","coordinates":[145.97698,-6.57903]}},{"type":"Feature","properties":{"country_en":"Papua New Guinea","name":"Wadalei","name_adm0":"Papua New Guinea","name_adm1":"Milne Bay","name_en":"Wadalei","iso":"PG"},"geometry":{"type":"Point","coordinates":[150.74367999999998,-9.421339999999999]}},{"type":"Feature","properties":{"country_en":"Papua New Guinea","name":"Wauwoga","name_adm0":"Papua New Guinea","name_adm1":"Morobe","name_en":"Wauwoga","iso":"PG"},"geometry":{"type":"Point","coordinates":[146.06519999999998,-7.30625]}},{"type":"Feature","properties":{"country_en":"Papua New Guinea","name":"Yakamul 1","name_adm0":"Papua New Guinea","name_adm1":"Sandaun","name_en":"Yakamul 1","iso":"PG"},"geometry":{"type":"Point","coordinates":[142.68765999999997,-3.27408]}},{"type":"Feature","properties":{"country_en":"Papua New Guinea","name":"Yokua","name_adm0":"Papua New Guinea","name_adm1":"Morobe","name_en":"Yokua","iso":"PG"},"geometry":{"type":"Point","coordinates":[146.52642999999998,-7.3267299999999995]}},{"type":"Feature","properties":{"country_en":"Papua New Guinea","name":"Wakunai","name_adm0":"Papua New Guinea","name_adm1":"North Solomons","name_en":"Wakunai","iso":"PG"},"geometry":{"type":"Point","coordinates":[155.21667,-5.86667]}},{"type":"Feature","properties":{"country_en":"Papua New Guinea","name":"Mokara","name_adm0":"Papua New Guinea","name_adm1":"Manus","name_en":"Mokara","iso":"PG"},"geometry":{"type":"Point","coordinates":[147.59256,-2.08354]}},{"type":"Feature","properties":{"country_en":"Papua New Guinea","name":"Moreguipa","name_adm0":"Papua New Guinea","name_adm1":"Central","name_en":"Moreguipa","iso":"PG"},"geometry":{"type":"Point","coordinates":[148.4743,-10.01524]}},{"type":"Feature","properties":{"country_en":"Papua New Guinea","name":"Awungi","name_adm0":"Papua New Guinea","name_adm1":"East New Britain","name_en":"Awungi","iso":"PG"},"geometry":{"type":"Point","coordinates":[151.81666999999996,-4.783329999999999]}},{"type":"Feature","properties":{"country_en":"Papua New Guinea","name":"Gordon","name_adm0":"Papua New Guinea","name_adm1":"National Capital","name_en":"Gordon","iso":"PG"},"geometry":{"type":"Point","coordinates":[147.17487,-9.43583]}},{"type":"Feature","properties":{"country_en":"Papua New Guinea","name":"Muruken Villages","name_adm0":"Papua New Guinea","name_adm1":"East Sepik","name_en":"Muruken Villages","iso":"PG"},"geometry":{"type":"Point","coordinates":[144.3201,-4.25446]}},{"type":"Feature","properties":{"country_en":"Papua New Guinea","name":"Mapos","name_adm0":"Papua New Guinea","name_adm1":"Morobe","name_en":"Mapos","iso":"PG"},"geometry":{"type":"Point","coordinates":[146.76693,-6.907409999999999]}},{"type":"Feature","properties":{"country_en":"Papua New Guinea","name":"Wagu","name_adm0":"Papua New Guinea","name_adm1":"East Sepik","name_en":"Wagu","iso":"PG"},"geometry":{"type":"Point","coordinates":[142.74476,-4.34818]}},{"type":"Feature","properties":{"country_en":"Papua New Guinea","name":"Batari","name_adm0":"Papua New Guinea","name_adm1":"Northern","name_en":"Batari","iso":"PG"},"geometry":{"type":"Point","coordinates":[148.11757,-8.46824]}},{"type":"Feature","properties":{"country_en":"Papua New Guinea","name":"Solang","name_adm0":"Papua New Guinea","name_adm1":"Manus","name_en":"Solang","iso":"PG"},"geometry":{"type":"Point","coordinates":[147.3337,-2.39127]}},{"type":"Feature","properties":{"country_en":"Papua New Guinea","name":"Chuave","name_adm0":"Papua New Guinea","name_adm1":"Chimbu","name_en":"Chuave","iso":"PG"},"geometry":{"type":"Point","coordinates":[145.13308,-6.11391]}},{"type":"Feature","properties":{"country_en":"Papua New Guinea","name":"Aiambak","name_adm0":"Papua New Guinea","name_adm1":"Western","name_en":"Aiambak","iso":"PG"},"geometry":{"type":"Point","coordinates":[141.27637,-7.362160000000001]}},{"type":"Feature","properties":{"country_en":"Papua New Guinea","name":"Aimei","name_adm0":"Papua New Guinea","name_adm1":"Gulf","name_en":"Aimei","iso":"PG"},"geometry":{"type":"Point","coordinates":[144.74141,-7.451240000000001]}},{"type":"Feature","properties":{"country_en":"Papua New Guinea","name":"Williame","name_adm0":"Papua New Guinea","name_adm1":"Southern Highlands","name_en":"Williame","iso":"PG"},"geometry":{"type":"Point","coordinates":[144.2,-6.5]}},{"type":"Feature","properties":{"country_en":"Papua New Guinea","name":"Wakiana","name_adm0":"Papua New Guinea","name_adm1":"Western","name_en":"Wakiana","iso":"PG"},"geometry":{"type":"Point","coordinates":[141.96982,-6.24223]}},{"type":"Feature","properties":{"country_en":"Papua New Guinea","name":"Wabmosom","name_adm0":"Papua New Guinea","name_adm1":"Western","name_en":"Wabmosom","iso":"PG"},"geometry":{"type":"Point","coordinates":[142.33333,-6.433329999999999]}},{"type":"Feature","properties":{"country_en":"Papua New Guinea","name":"Terebu","name_adm0":"Papua New Guinea","name_adm1":"East Sepik","name_en":"Terebu","iso":"PG"},"geometry":{"type":"Point","coordinates":[143.81198,-3.65984]}},{"type":"Feature","properties":{"country_en":"Papua New Guinea","name":"Terauwi","name_adm0":"Papua New Guinea","name_adm1":"Sandaun","name_en":"Terauwi","iso":"PG"},"geometry":{"type":"Point","coordinates":[141.0333,-3.85161]}},{"type":"Feature","properties":{"country_en":"Papua New Guinea","name":"Serki","name_adm0":"Papua New Guinea","name_adm1":"Western","name_en":"Serki","iso":"PG"},"geometry":{"type":"Point","coordinates":[141.81125,-8.38994]}},{"type":"Feature","properties":{"country_en":"Papua New Guinea","name":"Sebe","name_adm0":"Papua New Guinea","name_adm1":"Western","name_en":"Sebe","iso":"PG"},"geometry":{"type":"Point","coordinates":[142.76667,-8.93333]}},{"type":"Feature","properties":{"country_en":"Papua New Guinea","name":"Putei","name_adm0":"Papua New Guinea","name_adm1":"Gulf","name_en":"Putei","iso":"PG"},"geometry":{"type":"Point","coordinates":[146.13444999999996,-7.80753]}},{"type":"Feature","properties":{"country_en":"Papua New Guinea","name":"Omai","name_adm0":"Papua New Guinea","name_adm1":"Southern Highlands","name_en":"Omai","iso":"PG"},"geometry":{"type":"Point","coordinates":[143.77316,-6.25753]}},{"type":"Feature","properties":{"country_en":"Papua New Guinea","name":"Olsobip","name_adm0":"Papua New Guinea","name_adm1":"Western","name_en":"Olsobip","iso":"PG"},"geometry":{"type":"Point","coordinates":[141.51666,-5.387289999999999]}},{"type":"Feature","properties":{"country_en":"Papua New Guinea","name":"Mari","name_adm0":"Papua New Guinea","name_adm1":"Western","name_en":"Mari","iso":"PG"},"geometry":{"type":"Point","coordinates":[141.70944,-9.19749]}},{"type":"Feature","properties":{"country_en":"Papua New Guinea","name":"Margarima","name_adm0":"Papua New Guinea","name_adm1":"Southern Highlands","name_en":"Margarima","iso":"PG"},"geometry":{"type":"Point","coordinates":[143.34761,-6.01904]}},{"type":"Feature","properties":{"country_en":"Papua New Guinea","name":"Mai","name_adm0":"Papua New Guinea","name_adm1":"West New Britain","name_en":"Mai","iso":"PG"},"geometry":{"type":"Point","coordinates":[150.31692,-5.52506]}},{"type":"Feature","properties":{"country_en":"Papua New Guinea","name":"Mahani","name_adm0":"Papua New Guinea","name_adm1":"Sandaun","name_en":"Mahani","iso":"PG"},"geometry":{"type":"Point","coordinates":[141.33073,-3.9620099999999994]}},{"type":"Feature","properties":{"country_en":"Papua New Guinea","name":"Kunua","name_adm0":"Papua New Guinea","name_adm1":"North Solomons","name_en":"Kunua","iso":"PG"},"geometry":{"type":"Point","coordinates":[154.75173,-5.78205]}},{"type":"Feature","properties":{"country_en":"Papua New Guinea","name":"Kungim","name_adm0":"Papua New Guinea","name_adm1":"Western","name_en":"Kungim","iso":"PG"},"geometry":{"type":"Point","coordinates":[141.03234,-5.70617]}},{"type":"Feature","properties":{"country_en":"Papua New Guinea","name":"Kumbiwingei","name_adm0":"Papua New Guinea","name_adm1":"East Sepik","name_en":"Kumbiwingei","iso":"PG"},"geometry":{"type":"Point","coordinates":[143.21684,-3.9048]}},{"type":"Feature","properties":{"country_en":"Papua New Guinea","name":"Koinambe","name_adm0":"Papua New Guinea","name_adm1":"Western Highlands","name_en":"Koinambe","iso":"PG"},"geometry":{"type":"Point","coordinates":[144.61667,-5.51667]}},{"type":"Feature","properties":{"country_en":"Papua New Guinea","name":"Kilia","name_adm0":"Papua New Guinea","name_adm1":"Milne Bay","name_en":"Kilia","iso":"PG"},"geometry":{"type":"Point","coordinates":[150.29708,-9.49592]}},{"type":"Feature","properties":{"country_en":"Papua New Guinea","name":"Karap","name_adm0":"Papua New Guinea","name_adm1":"Western Highlands","name_en":"Karap","iso":"PG"},"geometry":{"type":"Point","coordinates":[144.68709,-5.66486]}},{"type":"Feature","properties":{"country_en":"Papua New Guinea","name":"Karemgu","name_adm0":"Papua New Guinea","name_adm1":"Western","name_en":"Karemgu","iso":"PG"},"geometry":{"type":"Point","coordinates":[141.05781,-6.4415]}},{"type":"Feature","properties":{"country_en":"Papua New Guinea","name":"Karegari","name_adm0":"Papua New Guinea","name_adm1":"Enga","name_en":"Karegari","iso":"PG"},"geometry":{"type":"Point","coordinates":[143.30671,-5.69861]}},{"type":"Feature","properties":{"country_en":"Papua New Guinea","name":"Karanda","name_adm0":"Papua New Guinea","name_adm1":"Southern Highlands","name_en":"Karanda","iso":"PG"},"geometry":{"type":"Point","coordinates":[144.06241,-6.53285]}},{"type":"Feature","properties":{"country_en":"Papua New Guinea","name":"Kapuri","name_adm0":"Papua New Guinea","name_adm1":"Gulf","name_en":"Kapuri","iso":"PG"},"geometry":{"type":"Point","coordinates":[146.2,-8.23333]}},{"type":"Feature","properties":{"country_en":"Papua New Guinea","name":"Kanumpanaga","name_adm0":"Papua New Guinea","name_adm1":"Eastern Highlands","name_en":"Kanumpanaga","iso":"PG"},"geometry":{"type":"Point","coordinates":[145.66786,-6.13156]}},{"type":"Feature","properties":{"country_en":"Papua New Guinea","name":"Kaniangua","name_adm0":"Papua New Guinea","name_adm1":"East Sepik","name_en":"Kaniangua","iso":"PG"},"geometry":{"type":"Point","coordinates":[143.01167,-3.91729]}},{"type":"Feature","properties":{"country_en":"Papua New Guinea","name":"Kaiapit","name_adm0":"Papua New Guinea","name_adm1":"Morobe","name_en":"Kaiapit","iso":"PG"},"geometry":{"type":"Point","coordinates":[146.26736,-6.26597]}},{"type":"Feature","properties":{"country_en":"Papua New Guinea","name":"Kaiam","name_adm0":"Papua New Guinea","name_adm1":"Gulf","name_en":"Kaiam","iso":"PG"},"geometry":{"type":"Point","coordinates":[143.92564,-7.09097]}},{"type":"Feature","properties":{"country_en":"Papua New Guinea","name":"Hatzfeldthafen","name_adm0":"Papua New Guinea","name_adm1":"Madang","name_en":"Hatzfeldthafen","iso":"PG"},"geometry":{"type":"Point","coordinates":[145.21702,-4.40949]}},{"type":"Feature","properties":{"country_en":"Papua New Guinea","name":"Elmagle","name_adm0":"Papua New Guinea","name_adm1":"Chimbu","name_en":"Elmagle","iso":"PG"},"geometry":{"type":"Point","coordinates":[144.8,-6.3009]}},{"type":"Feature","properties":{"country_en":"Papua New Guinea","name":"Egauwi","name_adm0":"Papua New Guinea","name_adm1":"Southern Highlands","name_en":"Egauwi","iso":"PG"},"geometry":{"type":"Point","coordinates":[142.83332999999996,-6.11667]}},{"type":"Feature","properties":{"country_en":"Papua New Guinea","name":"Egari","name_adm0":"Papua New Guinea","name_adm1":"Southern Highlands","name_en":"Egari","iso":"PG"},"geometry":{"type":"Point","coordinates":[143.66516,-6.03312]}},{"type":"Feature","properties":{"country_en":"Papua New Guinea","name":"Duru","name_adm0":"Papua New Guinea","name_adm1":"Western","name_en":"Duru","iso":"PG"},"geometry":{"type":"Point","coordinates":[141.85,-8.13333]}},{"type":"Feature","properties":{"country_en":"Papua New Guinea","name":"Diodio","name_adm0":"Papua New Guinea","name_adm1":"Milne Bay","name_en":"Diodio","iso":"PG"},"geometry":{"type":"Point","coordinates":[150.16562,-9.42323]}},{"type":"Feature","properties":{"country_en":"Papua New Guinea","name":"Ambasi","name_adm0":"Papua New Guinea","name_adm1":"Northern","name_en":"Ambasi","iso":"PG"},"geometry":{"type":"Point","coordinates":[148.18919,-8.259559999999999]}},{"type":"Feature","properties":{"country_en":"Papua New Guinea","name":"Alairo","name_adm0":"Papua New Guinea","name_adm1":"Morobe","name_en":"Alairo","iso":"PG"},"geometry":{"type":"Point","coordinates":[148.0521,-5.42403]}},{"type":"Feature","properties":{"country_en":"Papua New Guinea","name":"Akonga","name_adm0":"Papua New Guinea","name_adm1":"West New Britain","name_en":"Akonga","iso":"PG"},"geometry":{"type":"Point","coordinates":[148.65,-5.5]}},{"type":"Feature","properties":{"country_en":"Papua New Guinea","name":"Aiome","name_adm0":"Papua New Guinea","name_adm1":"Madang","name_en":"Aiome","iso":"PG"},"geometry":{"type":"Point","coordinates":[144.71016,-5.1277]}},{"type":"Feature","properties":{"country_en":"Papua New Guinea","name":"Timne","name_adm0":"Papua New Guinea","name_adm1":"Morobe","name_en":"Timne","iso":"PG"},"geometry":{"type":"Point","coordinates":[146.64882,-6.801249999999999]}},{"type":"Feature","properties":{"country_en":"Papua New Guinea","name":"Tetehui","name_adm0":"Papua New Guinea","name_adm1":"Gulf","name_en":"Tetehui","iso":"PG"},"geometry":{"type":"Point","coordinates":[144.61996,-7.33793]}},{"type":"Feature","properties":{"country_en":"Papua New Guinea","name":"Tirere","name_adm0":"Papua New Guinea","name_adm1":"Western","name_en":"Tirere","iso":"PG"},"geometry":{"type":"Point","coordinates":[143.62324,-8.23864]}},{"type":"Feature","properties":{"country_en":"Papua New Guinea","name":"Tauhimbier","name_adm0":"Papua New Guinea","name_adm1":"East Sepik","name_en":"Tauhimbier","iso":"PG"},"geometry":{"type":"Point","coordinates":[142.72477,-3.6762699999999997]}},{"type":"Feature","properties":{"country_en":"Papua New Guinea","name":"Salimbua","name_adm0":"Papua New Guinea","name_adm1":"East Sepik","name_en":"Salimbua","iso":"PG"},"geometry":{"type":"Point","coordinates":[143.41596,-3.52396]}},{"type":"Feature","properties":{"country_en":"Papua New Guinea","name":"Salelubu","name_adm0":"Papua New Guinea","name_adm1":"West New Britain","name_en":"Salelubu","iso":"PG"},"geometry":{"type":"Point","coordinates":[150.83333,-5.58333]}},{"type":"Feature","properties":{"country_en":"Papua New Guinea","name":"Sagero","name_adm0":"Papua New Guinea","name_adm1":"Western","name_en":"Sagero","iso":"PG"},"geometry":{"type":"Point","coordinates":[143.53333,-8.23333]}},{"type":"Feature","properties":{"country_en":"Papua New Guinea","name":"Rempi","name_adm0":"Papua New Guinea","name_adm1":"Madang","name_en":"Rempi","iso":"PG"},"geometry":{"type":"Point","coordinates":[145.8,-5.03333]}},{"type":"Feature","properties":{"country_en":"Papua New Guinea","name":"Rawei","name_adm0":"Papua New Guinea","name_adm1":"Sandaun","name_en":"Rawei","iso":"PG"},"geometry":{"type":"Point","coordinates":[141.38934,-3.84372]}},{"type":"Feature","properties":{"country_en":"Papua New Guinea","name":"Rasirik","name_adm0":"Papua New Guinea","name_adm1":"New Ireland","name_en":"Rasirik","iso":"PG"},"geometry":{"type":"Point","coordinates":[152.37269,-3.7126199999999994]}},{"type":"Feature","properties":{"country_en":"Papua New Guinea","name":"Peringa","name_adm0":"Papua New Guinea","name_adm1":"East Sepik","name_en":"Peringa","iso":"PG"},"geometry":{"type":"Point","coordinates":[143.43084,-3.91568]}},{"type":"Feature","properties":{"country_en":"Papua New Guinea","name":"Pelama","name_adm0":"Papua New Guinea","name_adm1":"Sandaun","name_en":"Pelama","iso":"PG"},"geometry":{"type":"Point","coordinates":[141.74613,-3.42642]}},{"type":"Feature","properties":{"country_en":"Papua New Guinea","name":"Paup","name_adm0":"Papua New Guinea","name_adm1":"Sandaun","name_en":"Paup","iso":"PG"},"geometry":{"type":"Point","coordinates":[142.59055,-3.2417]}},{"type":"Feature","properties":{"country_en":"Papua New Guinea","name":"Pangia","name_adm0":"Papua New Guinea","name_adm1":"Southern Highlands","name_en":"Pangia","iso":"PG"},"geometry":{"type":"Point","coordinates":[144.08857,-6.39764]}},{"type":"Feature","properties":{"country_en":"Papua New Guinea","name":"Norambalip","name_adm0":"Papua New Guinea","name_adm1":"Sandaun","name_en":"Norambalip","iso":"PG"},"geometry":{"type":"Point","coordinates":[141.82284,-3.82807]}},{"type":"Feature","properties":{"country_en":"Papua New Guinea","name":"Nago","name_adm0":"Papua New Guinea","name_adm1":"Western","name_en":"Nago","iso":"PG"},"geometry":{"type":"Point","coordinates":[141.3993,-6.82878]}},{"type":"Feature","properties":{"country_en":"Papua New Guinea","name":"Minjip","name_adm0":"Papua New Guinea","name_adm1":"Enga","name_en":"Minjip","iso":"PG"},"geometry":{"type":"Point","coordinates":[143.34999999999997,-5.71667]}},{"type":"Feature","properties":{"country_en":"Papua New Guinea","name":"Meteiai","name_adm0":"Papua New Guinea","name_adm1":"New Ireland","name_en":"Meteiai","iso":"PG"},"geometry":{"type":"Point","coordinates":[150.37974,-2.4579]}},{"type":"Feature","properties":{"country_en":"Papua New Guinea","name":"Mariki","name_adm0":"Papua New Guinea","name_adm1":"Gulf","name_en":"Mariki","iso":"PG"},"geometry":{"type":"Point","coordinates":[144.88333,-7.78333]}},{"type":"Feature","properties":{"country_en":"Papua New Guinea","name":"Mari","name_adm0":"Papua New Guinea","name_adm1":"Morobe","name_en":"Mari","iso":"PG"},"geometry":{"type":"Point","coordinates":[146.68812,-6.65439]}},{"type":"Feature","properties":{"country_en":"Papua New Guinea","name":"Marea","name_adm0":"Papua New Guinea","name_adm1":"Gulf","name_en":"Marea","iso":"PG"},"geometry":{"type":"Point","coordinates":[145.26755,-7.85275]}},{"type":"Feature","properties":{"country_en":"Papua New Guinea","name":"Mapamoiwa","name_adm0":"Papua New Guinea","name_adm1":"Milne Bay","name_en":"Mapamoiwa","iso":"PG"},"geometry":{"type":"Point","coordinates":[150.43545,-9.60776]}},{"type":"Feature","properties":{"country_en":"Papua New Guinea","name":"Manugoro","name_adm0":"Papua New Guinea","name_adm1":"Central","name_en":"Manugoro","iso":"PG"},"geometry":{"type":"Point","coordinates":[147.46145999999996,-9.71125]}},{"type":"Feature","properties":{"country_en":"Papua New Guinea","name":"Manau","name_adm0":"Papua New Guinea","name_adm1":"Northern","name_en":"Manau","iso":"PG"},"geometry":{"type":"Point","coordinates":[147.98086,-8.07402]}},{"type":"Feature","properties":{"country_en":"Papua New Guinea","name":"Mambel","name_adm0":"Papua New Guinea","name_adm1":"East Sepik","name_en":"Mambel","iso":"PG"},"geometry":{"type":"Point","coordinates":[144.21667,-4.05]}},{"type":"Feature","properties":{"country_en":"Papua New Guinea","name":"Mambe","name_adm0":"Papua New Guinea","name_adm1":"East Sepik","name_en":"Mambe","iso":"PG"},"geometry":{"type":"Point","coordinates":[143.70928,-3.7452699999999997]}},{"type":"Feature","properties":{"country_en":"Papua New Guinea","name":"Malmal","name_adm0":"Papua New Guinea","name_adm1":"East New Britain","name_en":"Malmal","iso":"PG"},"geometry":{"type":"Point","coordinates":[151.45360999999997,-5.62474]}},{"type":"Feature","properties":{"country_en":"Papua New Guinea","name":"Malakata","name_adm0":"Papua New Guinea","name_adm1":"New Ireland","name_en":"Malakata","iso":"PG"},"geometry":{"type":"Point","coordinates":[149.56129,-1.45956]}},{"type":"Feature","properties":{"country_en":"Papua New Guinea","name":"Laninguap","name_adm0":"Papua New Guinea","name_adm1":"East Sepik","name_en":"Laninguap","iso":"PG"},"geometry":{"type":"Point","coordinates":[142.65,-3.58333]}},{"type":"Feature","properties":{"country_en":"Papua New Guinea","name":"Kworo","name_adm0":"Papua New Guinea","name_adm1":"East Sepik","name_en":"Kworo","iso":"PG"},"geometry":{"type":"Point","coordinates":[143.20035,-3.84456]}},{"type":"Feature","properties":{"country_en":"Papua New Guinea","name":"Kwieftim","name_adm0":"Papua New Guinea","name_adm1":"Sandaun","name_en":"Kwieftim","iso":"PG"},"geometry":{"type":"Point","coordinates":[141.76896,-3.59784]}},{"type":"Feature","properties":{"country_en":"Papua New Guinea","name":"Kwaliangwa","name_adm0":"Papua New Guinea","name_adm1":"East Sepik","name_en":"Kwaliangwa","iso":"PG"},"geometry":{"type":"Point","coordinates":[143.37673,-3.9814600000000007]}},{"type":"Feature","properties":{"country_en":"Papua New Guinea","name":"Kudjip","name_adm0":"Papua New Guinea","name_adm1":"Western Highlands","name_en":"Kudjip","iso":"PG"},"geometry":{"type":"Point","coordinates":[144.5745,-5.84307]}},{"type":"Feature","properties":{"country_en":"Papua New Guinea","name":"Krisa","name_adm0":"Papua New Guinea","name_adm1":"Sandaun","name_en":"Krisa","iso":"PG"},"geometry":{"type":"Point","coordinates":[141.28291,-2.8527099999999996]}},{"type":"Feature","properties":{"country_en":"Papua New Guinea","name":"Koru-Oru","name_adm0":"Papua New Guinea","name_adm1":"Central","name_en":"Koru-Oru","iso":"PG"},"geometry":{"type":"Point","coordinates":[148.06564,-9.72323]}},{"type":"Feature","properties":{"country_en":"Papua New Guinea","name":"Korogopa","name_adm0":"Papua New Guinea","name_adm1":"East Sepik","name_en":"Korogopa","iso":"PG"},"geometry":{"type":"Point","coordinates":[144.13768,-4.3958]}},{"type":"Feature","properties":{"country_en":"Papua New Guinea","name":"Koroba","name_adm0":"Papua New Guinea","name_adm1":"Southern Highlands","name_en":"Koroba","iso":"PG"},"geometry":{"type":"Point","coordinates":[142.74209,-5.78608]}},{"type":"Feature","properties":{"country_en":"Papua New Guinea","name":"Kopi","name_adm0":"Papua New Guinea","name_adm1":"Gulf","name_en":"Kopi","iso":"PG"},"geometry":{"type":"Point","coordinates":[144.16623999999996,-7.31482]}},{"type":"Feature","properties":{"country_en":"Papua New Guinea","name":"Kobia","name_adm0":"Papua New Guinea","name_adm1":"Morobe","name_en":"Kobia","iso":"PG"},"geometry":{"type":"Point","coordinates":[147.21667,-7.499999999999999]}},{"type":"Feature","properties":{"country_en":"Papua New Guinea","name":"Kimoe","name_adm0":"Papua New Guinea","name_adm1":"Chimbu","name_en":"Kimoe","iso":"PG"},"geometry":{"type":"Point","coordinates":[145.22797,-6.17584]}},{"type":"Feature","properties":{"country_en":"Papua New Guinea","name":"Keabunna","name_adm0":"Papua New Guinea","name_adm1":"Western","name_en":"Keabunna","iso":"PG"},"geometry":{"type":"Point","coordinates":[141.86666999999997,-6.56667]}},{"type":"Feature","properties":{"country_en":"Papua New Guinea","name":"Kavianganga","name_adm0":"Papua New Guinea","name_adm1":"Western","name_en":"Kavianganga","iso":"PG"},"geometry":{"type":"Point","coordinates":[141.4,-7.333329999999999]}},{"type":"Feature","properties":{"country_en":"Papua New Guinea","name":"Kaurai","name_adm0":"Papua New Guinea","name_adm1":"Milne Bay","name_en":"Kaurai","iso":"PG"},"geometry":{"type":"Point","coordinates":[152.80225,-9.03873]}},{"type":"Feature","properties":{"country_en":"Papua New Guinea","name":"Katiati","name_adm0":"Papua New Guinea","name_adm1":"Madang","name_en":"Katiati","iso":"PG"},"geometry":{"type":"Point","coordinates":[145.05096,-4.8235]}},{"type":"Feature","properties":{"country_en":"Papua New Guinea","name":"Kasanombe","name_adm0":"Papua New Guinea","name_adm1":"Morobe","name_en":"Kasanombe","iso":"PG"},"geometry":{"type":"Point","coordinates":[147.01693999999998,-6.37313]}},{"type":"Feature","properties":{"country_en":"Papua New Guinea","name":"Karimui","name_adm0":"Papua New Guinea","name_adm1":"Chimbu","name_en":"Karimui","iso":"PG"},"geometry":{"type":"Point","coordinates":[144.84394,-6.497909999999999]}},{"type":"Feature","properties":{"country_en":"Papua New Guinea","name":"Karauwi","name_adm0":"Papua New Guinea","name_adm1":"Gulf","name_en":"Karauwi","iso":"PG"},"geometry":{"type":"Point","coordinates":[145.68333,-7.63333]}},{"type":"Feature","properties":{"country_en":"Papua New Guinea","name":"Kami Number 1","name_adm0":"Papua New Guinea","name_adm1":"Eastern Highlands","name_en":"Kami Number 1","iso":"PG"},"geometry":{"type":"Point","coordinates":[145.43729,-6.246819999999999]}},{"type":"Feature","properties":{"country_en":"Papua New Guinea","name":"Kamangaui","name_adm0":"Papua New Guinea","name_adm1":"East Sepik","name_en":"Kamangaui","iso":"PG"},"geometry":{"type":"Point","coordinates":[143.63514,-4.13492]}},{"type":"Feature","properties":{"country_en":"Papua New Guinea","name":"Kabori","name_adm0":"Papua New Guinea","name_adm1":"Sandaun","name_en":"Kabori","iso":"PG"},"geometry":{"type":"Point","coordinates":[141.85408,-3.3270199999999996]}},{"type":"Feature","properties":{"country_en":"Papua New Guinea","name":"Iwatebu","name_adm0":"Papua New Guinea","name_adm1":"Southern Highlands","name_en":"Iwatebu","iso":"PG"},"geometry":{"type":"Point","coordinates":[142.91666999999998,-6.75]}},{"type":"Feature","properties":{"country_en":"Papua New Guinea","name":"Iriba","name_adm0":"Papua New Guinea","name_adm1":"Enga","name_en":"Iriba","iso":"PG"},"geometry":{"type":"Point","coordinates":[143.63333,-5.83333]}},{"type":"Feature","properties":{"country_en":"Papua New Guinea","name":"Imbrinis","name_adm0":"Papua New Guinea","name_adm1":"Sandaun","name_en":"Imbrinis","iso":"PG"},"geometry":{"type":"Point","coordinates":[141.37773,-2.96249]}},{"type":"Feature","properties":{"country_en":"Papua New Guinea","name":"Igibira","name_adm0":"Papua New Guinea","name_adm1":"Western","name_en":"Igibira","iso":"PG"},"geometry":{"type":"Point","coordinates":[142.02964,-6.2775799999999995]}},{"type":"Feature","properties":{"country_en":"Papua New Guinea","name":"Idam","name_adm0":"Papua New Guinea","name_adm1":"Sandaun","name_en":"Idam","iso":"PG"},"geometry":{"type":"Point","coordinates":[141.24224,-4.12525]}},{"type":"Feature","properties":{"country_en":"Papua New Guinea","name":"Old Iari","name_adm0":"Papua New Guinea","name_adm1":"Gulf","name_en":"Old Iari","iso":"PG"},"geometry":{"type":"Point","coordinates":[145.15,-7.666670000000001]}},{"type":"Feature","properties":{"country_en":"Papua New Guinea","name":"Iak","name_adm0":"Papua New Guinea","name_adm1":"Enga","name_en":"Iak","iso":"PG"},"geometry":{"type":"Point","coordinates":[143.44999999999996,-5.7]}},{"type":"Feature","properties":{"country_en":"Papua New Guinea","name":"Honinabi","name_adm0":"Papua New Guinea","name_adm1":"Western","name_en":"Honinabi","iso":"PG"},"geometry":{"type":"Point","coordinates":[142.18333,-6.25]}},{"type":"Feature","properties":{"country_en":"Papua New Guinea","name":"Hawenai","name_adm0":"Papua New Guinea","name_adm1":"Western","name_en":"Hawenai","iso":"PG"},"geometry":{"type":"Point","coordinates":[141.32342,-5.7099]}},{"type":"Feature","properties":{"country_en":"Papua New Guinea","name":"Hahei","name_adm0":"Papua New Guinea","name_adm1":"Manus","name_en":"Hahei","iso":"PG"},"geometry":{"type":"Point","coordinates":[147.63333,-2.08333]}},{"type":"Feature","properties":{"country_en":"Papua New Guinea","name":"Gilibwa","name_adm0":"Papua New Guinea","name_adm1":"Milne Bay","name_en":"Gilibwa","iso":"PG"},"geometry":{"type":"Point","coordinates":[151.12823999999998,-8.7972]}},{"type":"Feature","properties":{"country_en":"Papua New Guinea","name":"Garari","name_adm0":"Papua New Guinea","name_adm1":"Northern","name_en":"Garari","iso":"PG"},"geometry":{"type":"Point","coordinates":[147.88333,-8.91667]}},