{"type":"FeatureCollection","features":[{"type":"Feature","properties":{"country_en":"Serbia","name":"Klenak","name_adm0":"Serbia","name_adm1":"Srem","name_en":"Klenak","iso":"RS"},"geometry":{"type":"Point","coordinates":[19.71004,44.78846]}},{"type":"Feature","properties":{"country_en":"Serbia","name":"Krnjača","name_adm0":"Serbia","name_adm1":"Zlatibor","name_en":"Granica","iso":"RS"},"geometry":{"type":"Point","coordinates":[19.40718,43.42016]}},{"type":"Feature","properties":{"country_en":"Serbia","name":"Vitomirica","name_adm0":"Serbia","name_adm1":"Pech","name_en":"Vitomirica","iso":"RS"},"geometry":{"type":"Point","coordinates":[20.322666,42.698305]}},{"type":"Feature","properties":{"country_en":"Serbia","name":"Aµanja","name_adm0":"Serbia","name_adm1":"Srem","name_en":"Aµanja","iso":"RS"},"geometry":{"type":"Point","coordinates":[20.87972,44.43306]}},{"type":"Feature","properties":{"country_en":"Serbia","name":"Čenta","name_adm0":"Serbia","name_adm1":"Beograd","name_en":"Csenta","iso":"RS"},"geometry":{"type":"Point","coordinates":[20.389459999999996,45.10814]}},{"type":"Feature","properties":{"country_en":"Serbia","name":"Moµorin","name_adm0":"Serbia","name_adm1":"Juzhna Bachka","name_en":"Moµorin","iso":"RS"},"geometry":{"type":"Point","coordinates":[20.16919,45.301959999999994]}},{"type":"Feature","properties":{"country_en":"Serbia","name":"Meða","name_adm0":"Serbia","name_adm1":"Srednji Banat","name_en":"Pardanj","iso":"RS"},"geometry":{"type":"Point","coordinates":[20.80677,45.53815]}},{"type":"Feature","properties":{"country_en":"Serbia","name":"Porodin","name_adm0":"Serbia","name_adm1":"Branichevo","name_en":"Porodin","iso":"RS"},"geometry":{"type":"Point","coordinates":[21.220959999999998,44.31713]}},{"type":"Feature","properties":{"country_en":"Serbia","name":"Planinica","name_adm0":"Serbia","name_adm1":"Zajechar","name_en":"Planinica","iso":"RS"},"geometry":{"type":"Point","coordinates":[22.11771,43.83629]}},{"type":"Feature","properties":{"country_en":"Serbia","name":"Stubline","name_adm0":"Serbia","name_adm1":"Beograd","name_en":"Stubline","iso":"RS"},"geometry":{"type":"Point","coordinates":[20.13477,44.57476]}},{"type":"Feature","properties":{"country_en":"Serbia","name":"Strojkovce","name_adm0":"Serbia","name_adm1":"Jablanica","name_en":"Strojkovac","iso":"RS"},"geometry":{"type":"Point","coordinates":[21.92194,42.90388999999999]}},{"type":"Feature","properties":{"country_en":"Serbia","name":"Velika Greda","name_adm0":"Serbia","name_adm1":"Juzhni Banat","name_en":"Velika Greda","iso":"RS"},"geometry":{"type":"Point","coordinates":[21.03498,45.24376]}},{"type":"Feature","properties":{"country_en":"Serbia","name":"Velika Drenova","name_adm0":"Serbia","name_adm1":"Rasina","name_en":"Velika Drenova","iso":"RS"},"geometry":{"type":"Point","coordinates":[21.12995,43.62691]}},{"type":"Feature","properties":{"country_en":"Serbia","name":"Tulare","name_adm0":"Serbia","name_adm1":"Jablanica","name_en":"Tulari","iso":"RS"},"geometry":{"type":"Point","coordinates":[21.460539999999998,42.79417]}},{"type":"Feature","properties":{"country_en":"Serbia","name":"Vojvoda Stepa","name_adm0":"Serbia","name_adm1":"Srednji Banat","name_en":"Vojvoda Stepa","iso":"RS"},"geometry":{"type":"Point","coordinates":[20.65536,45.68537]}},{"type":"Feature","properties":{"country_en":"Serbia","name":"Gornja Lisina","name_adm0":"Serbia","name_adm1":"Pchinja","name_en":"Gornja Lisina","iso":"RS"},"geometry":{"type":"Point","coordinates":[22.035819999999998,43.03218]}},{"type":"Feature","properties":{"country_en":"Serbia","name":"Veliki Popović","name_adm0":"Serbia","name_adm1":"Pomoravlje","name_en":"Veliki Popović","iso":"RS"},"geometry":{"type":"Point","coordinates":[21.3573,44.11788]}},{"type":"Feature","properties":{"country_en":"Serbia","name":"Bavaniµte","name_adm0":"Serbia","name_adm1":"Juzhni Banat","name_en":"Bavaniµte","iso":"RS"},"geometry":{"type":"Point","coordinates":[20.87654,44.819069999999996]}},{"type":"Feature","properties":{"country_en":"Serbia","name":"Belaje","name_adm0":"Serbia","name_adm1":"Pech","name_en":"Belaje","iso":"RS"},"geometry":{"type":"Point","coordinates":[20.26051,43.10741]}},{"type":"Feature","properties":{"country_en":"Serbia","name":"Belanovica","name_adm0":"Serbia","name_adm1":"Kolubara","name_en":"Belanovica","iso":"RS"},"geometry":{"type":"Point","coordinates":[20.39613,44.24947]}},{"type":"Feature","properties":{"country_en":"Serbia","name":"Drlače","name_adm0":"Serbia","name_adm1":"Machva","name_en":"Drlače","iso":"RS"},"geometry":{"type":"Point","coordinates":[19.48887,44.14324]}},{"type":"Feature","properties":{"country_en":"Serbia","name":"Duboka","name_adm0":"Serbia","name_adm1":"Branichevo","name_en":"Donja Duboka","iso":"RS"},"geometry":{"type":"Point","coordinates":[21.275329999999997,44.07092]}},{"type":"Feature","properties":{"country_en":"Serbia","name":"Dubravica","name_adm0":"Serbia","name_adm1":"Podunavlje","name_en":"Dubravica","iso":"RS"},"geometry":{"type":"Point","coordinates":[21.08017,44.69636]}},{"type":"Feature","properties":{"country_en":"Serbia","name":"Kosjeric","name_adm0":"Serbia","name_adm1":"Zlatibor","name_en":"Kosjeric","iso":"RS"},"geometry":{"type":"Point","coordinates":[19.37528,42.74611]}},{"type":"Feature","properties":{"country_en":"Serbia","name":"Jabuka","name_adm0":"Serbia","name_adm1":"Juzhni Banat","name_en":"Jabuka","iso":"RS"},"geometry":{"type":"Point","coordinates":[20.59981,44.94921999999999]}},{"type":"Feature","properties":{"country_en":"Serbia","name":"Korenita","name_adm0":"Serbia","name_adm1":"Machva","name_en":"Korenita","iso":"RS"},"geometry":{"type":"Point","coordinates":[19.289049999999996,44.51215]}},{"type":"Feature","properties":{"country_en":"Serbia","name":"Konak","name_adm0":"Serbia","name_adm1":"Juzhni Banat","name_en":"Kanak","iso":"RS"},"geometry":{"type":"Point","coordinates":[20.914679999999997,45.31575]}},{"type":"Feature","properties":{"country_en":"Serbia","name":"Novo Brdo","name_adm0":"Serbia","name_adm1":"Kosovo","name_en":"Novo Brdo","iso":"RS"},"geometry":{"type":"Point","coordinates":[21.434049999999996,42.6159]}},{"type":"Feature","properties":{"country_en":"Serbia","name":"Novo Selo","name_adm0":"Serbia","name_adm1":"Pech","name_en":"Novo Selo","iso":"RS"},"geometry":{"type":"Point","coordinates":[20.795559999999995,42.73528]}},{"type":"Feature","properties":{"country_en":"Serbia","name":"Ogoµte","name_adm0":"Serbia","name_adm1":"Kosovsko Pomoravlje","name_en":"Ogoµte","iso":"RS"},"geometry":{"type":"Point","coordinates":[22.20833,42.30833]}},{"type":"Feature","properties":{"country_en":"Serbia","name":"Petlovača","name_adm0":"Serbia","name_adm1":"Machva","name_en":"Petlovača","iso":"RS"},"geometry":{"type":"Point","coordinates":[19.44673,44.72223999999999]}},{"type":"Feature","properties":{"country_en":"Serbia","name":"Skivjane","name_adm0":"Serbia","name_adm1":"Pech","name_en":"Skivljane","iso":"RS"},"geometry":{"type":"Point","coordinates":[20.38306,42.43082999999999]}},{"type":"Feature","properties":{"country_en":"Serbia","name":"Orlovat","name_adm0":"Serbia","name_adm1":"Srednji Banat","name_en":"Orlovat","iso":"RS"},"geometry":{"type":"Point","coordinates":[20.580889999999997,45.24171]}},{"type":"Feature","properties":{"country_en":"Serbia","name":"Kopaonik","name_adm0":"Serbia","name_adm1":"Rashka","name_adm2":"Raška","name_en":"Kopaonik","iso":"RS"},"geometry":{"type":"Point","coordinates":[20.80918,43.28602]}},{"type":"Feature","properties":{"country_en":"Serbia","name":"Dobrica","name_adm0":"Serbia","name_adm1":"Juzhni Banat","name_en":"Dobrica","iso":"RS"},"geometry":{"type":"Point","coordinates":[20.84995,45.21339]}},{"type":"Feature","properties":{"country_en":"Serbia","name":"Medveða","name_adm0":"Serbia","name_adm1":"Pomoravlje","name_en":"Medvedja","iso":"RS"},"geometry":{"type":"Point","coordinates":[21.342959999999998,44.150879999999994]}},{"type":"Feature","properties":{"country_en":"Serbia","name":"Kolut","name_adm0":"Serbia","name_adm1":"Zapadna Bachka","name_en":"Kolut","iso":"RS"},"geometry":{"type":"Point","coordinates":[18.9276,45.89292]}},{"type":"Feature","properties":{"country_en":"Serbia","name":"Banjica","name_adm0":"Serbia","name_adm1":"Beograd","name_en":"Banjica","iso":"RS"},"geometry":{"type":"Point","coordinates":[20.469,44.75375]}},{"type":"Feature","properties":{"country_en":"Serbia","name":"Shumadija","name_adm0":"Serbia","name_adm1":"Shumadija","name_en":"Shumadija","iso":"RS"},"geometry":{"type":"Point","coordinates":[20.731039,44.020560999999994]}},{"type":"Feature","properties":{"country_en":"Serbia","name":"Dobanovci","name_adm0":"Serbia","name_adm1":"Beograd","name_en":"Dobanovci","iso":"RS"},"geometry":{"type":"Point","coordinates":[20.22487,44.82630999999999]}},{"type":"Feature","properties":{"country_en":"Serbia","name":"Pocerski Pricinovic","name_adm0":"Serbia","name_adm1":"Machva","name_en":"Pocerski Pricinovic","iso":"RS"},"geometry":{"type":"Point","coordinates":[19.70722,44.72222]}},{"type":"Feature","properties":{"country_en":"Serbia","name":"Ajnovce","name_adm0":"Serbia","name_adm1":"Kosovsko Pomoravlje","name_en":"Harnovce","iso":"RS"},"geometry":{"type":"Point","coordinates":[21.546669999999995,42.62917]}},{"type":"Feature","properties":{"country_en":"Serbia","name":"Vrnjačka Banja","name_adm0":"Serbia","name_adm1":"Rashka","name_en":"Vrnjačka Banja","iso":"RS"},"geometry":{"type":"Point","coordinates":[20.912132,43.61397199999999]}},{"type":"Feature","properties":{"country_en":"Serbia","name":"Vrµac","name_adm0":"Serbia","name_adm1":"Juzhni Banat","name_en":"Werschetz","iso":"RS"},"geometry":{"type":"Point","coordinates":[21.295452,45.117476]}},{"type":"Feature","properties":{"country_en":"Serbia","name":"Kalenić","name_adm0":"Serbia","name_adm1":"Pomoravlje","name_en":"Kalenić","iso":"RS"},"geometry":{"type":"Point","coordinates":[21.60328,43.44919]}},{"type":"Feature","properties":{"country_en":"Serbia","name":"Orom","name_adm0":"Serbia","name_adm1":"Severni Banat","name_en":"Orom","iso":"RS"},"geometry":{"type":"Point","coordinates":[19.83458,45.97714]}},{"type":"Feature","properties":{"country_en":"Serbia","name":"Popučke","name_adm0":"Serbia","name_adm1":"Kolubara","name_en":"Popučke","iso":"RS"},"geometry":{"type":"Point","coordinates":[19.954159999999998,44.29284]}},{"type":"Feature","properties":{"country_en":"Serbia","name":"Treµnjevac","name_adm0":"Serbia","name_adm1":"Severni Banat","name_en":"Treµnjevac","iso":"RS"},"geometry":{"type":"Point","coordinates":[19.986329999999995,45.978899999999996]}},{"type":"Feature","properties":{"country_en":"Serbia","name":"Treµnjevica","name_adm0":"Serbia","name_adm1":"Pomoravlje","name_en":"Treµnjevica","iso":"RS"},"geometry":{"type":"Point","coordinates":[21.32512,43.86999]}},{"type":"Feature","properties":{"country_en":"Serbia","name":"Prizren","name_adm0":"Serbia","name_adm1":"Prizren","name_en":"Prizren","iso":"RS"},"geometry":{"type":"Point","coordinates":[20.7511135,42.232076]}},{"type":"Feature","properties":{"country_en":"Serbia","name":"Novi Pazar","name_adm0":"Serbia","name_adm1":"Rashka","name_en":"Yeni Pazar","iso":"RS"},"geometry":{"type":"Point","coordinates":[20.516939,43.144835]}},{"type":"Feature","properties":{"country_en":"Serbia","name":"Batajnica","name_adm0":"Serbia","name_adm1":"Beograd","name_en":"Batajnica","iso":"RS"},"geometry":{"type":"Point","coordinates":[20.28019,44.90319]}},{"type":"Feature","properties":{"country_en":"Serbia","name":"Blace","name_adm0":"Serbia","name_adm1":"Prizren","name_en":"Blace","iso":"RS"},"geometry":{"type":"Point","coordinates":[21.332779999999996,42.15222]}},{"type":"Feature","properties":{"country_en":"Serbia","name":"Magura","name_adm0":"Serbia","name_adm1":"Kosovo","name_en":"Magura","iso":"RS"},"geometry":{"type":"Point","coordinates":[21.010229999999996,42.53936]}},{"type":"Feature","properties":{"country_en":"Serbia","name":"Ždrelo","name_adm0":"Serbia","name_adm1":"Branichevo","name_en":"Ždrelo","iso":"RS"},"geometry":{"type":"Point","coordinates":[21.50376,44.29536999999999]}},{"type":"Feature","properties":{"country_en":"Serbia","name":"Toplica","name_adm0":"Serbia","name_adm1":"Toplica","name_en":"Toplica","iso":"RS"},"geometry":{"type":"Point","coordinates":[21.400508,43.020713]}},{"type":"Feature","properties":{"country_en":"Serbia","name":"Pomoravlje","name_adm0":"Serbia","name_adm1":"Pomoravlje","name_en":"Pomoravlje","iso":"RS"},"geometry":{"type":"Point","coordinates":[21.563414999999996,43.992814]}},{"type":"Feature","properties":{"country_en":"Serbia","name":"Lubnica","name_adm0":"Serbia","name_adm1":"Zajechar","name_en":"Lubnica","iso":"RS"},"geometry":{"type":"Point","coordinates":[22.19723,43.86734]}},{"type":"Feature","properties":{"country_en":"Serbia","name":"Luka","name_adm0":"Serbia","name_adm1":"Bor","name_en":"Luke","iso":"RS"},"geometry":{"type":"Point","coordinates":[22.18357,44.17028]}},{"type":"Feature","properties":{"country_en":"Serbia","name":"Klupci","name_adm0":"Serbia","name_adm1":"Machva","name_en":"Klupci","iso":"RS"},"geometry":{"type":"Point","coordinates":[19.24549,44.5385]}},{"type":"Feature","properties":{"country_en":"Serbia","name":"Vranje","name_adm0":"Serbia","name_adm1":"Pchinja","name_en":"Vranya","iso":"RS"},"geometry":{"type":"Point","coordinates":[21.58582,42.9983]}},{"type":"Feature","properties":{"country_en":"Serbia","name":"Zaječar","name_adm0":"Serbia","name_adm1":"Zajechar","name_en":"Zaječar","iso":"RS"},"geometry":{"type":"Point","coordinates":[22.273149,43.902801]}},{"type":"Feature","properties":{"country_en":"Serbia","name":"Požarevac","name_adm0":"Serbia","name_adm1":"Branichevo","name_adm2":"Požarevac","name_en":"Požarevac","iso":"RS"},"geometry":{"type":"Point","coordinates":[21.18782,44.62133]}},{"type":"Feature","properties":{"country_en":"Serbia","name":"Priµtina","name_adm0":"Serbia","name_adm1":"Kosovo","name_en":"Pristina","iso":"RS"},"geometry":{"type":"Point","coordinates":[21.16688,42.67272]}},{"type":"Feature","properties":{"country_en":"Serbia","name":"Žur","name_adm0":"Serbia","name_adm1":"Prizren","name_en":"Žur","iso":"RS"},"geometry":{"type":"Point","coordinates":[20.62111,42.16389]}},{"type":"Feature","properties":{"country_en":"Serbia","name":"Perlez","name_adm0":"Serbia","name_adm1":"Srednji Banat","name_en":"Perlasz","iso":"RS"},"geometry":{"type":"Point","coordinates":[20.38197,45.20813]}},{"type":"Feature","properties":{"country_en":"Serbia","name":"Azanja","name_adm0":"Serbia","name_adm1":"Podunavlje","name_en":"Azanja","iso":"RS"},"geometry":{"type":"Point","coordinates":[20.87972,44.43306]}},{"type":"Feature","properties":{"country_en":"Serbia","name":"Vranjska Banja","name_adm0":"Serbia","name_adm1":"Pchinja","name_en":"Banja","iso":"RS"},"geometry":{"type":"Point","coordinates":[22.333609999999997,41.91139]}},{"type":"Feature","properties":{"country_en":"Serbia","name":"Boµnjane","name_adm0":"Serbia","name_adm1":"Pomoravlje","name_en":"Boµnjane","iso":"RS"},"geometry":{"type":"Point","coordinates":[21.47615,43.88981]}},{"type":"Feature","properties":{"country_en":"Serbia","name":"Krajkovac","name_adm0":"Serbia","name_adm1":"Nishava","name_en":"Krajkovac","iso":"RS"},"geometry":{"type":"Point","coordinates":[21.65296,43.34207]}},{"type":"Feature","properties":{"country_en":"Serbia","name":"Krivi Vir","name_adm0":"Serbia","name_adm1":"Zajechar","name_en":"Krivi Vir","iso":"RS"},"geometry":{"type":"Point","coordinates":[21.74898,43.82306]}},{"type":"Feature","properties":{"country_en":"Serbia","name":"Kusić","name_adm0":"Serbia","name_adm1":"Juzhni Banat","name_en":"Kusić","iso":"RS"},"geometry":{"type":"Point","coordinates":[21.47919,44.87671]}},{"type":"Feature","properties":{"country_en":"Serbia","name":"Sjenica","name_adm0":"Serbia","name_adm1":"Zlatibor","name_en":"Sjenica","iso":"RS"},"geometry":{"type":"Point","coordinates":[19.41944,42.73667]}},{"type":"Feature","properties":{"country_en":"Serbia","name":"Ub","name_adm0":"Serbia","name_adm1":"Kolubara","name_en":"Ub","iso":"RS"},"geometry":{"type":"Point","coordinates":[19.673789999999997,43.954319999999996]}},{"type":"Feature","properties":{"country_en":"Serbia","name":"Å imanovci","name_adm0":"Serbia","name_adm1":"Srem","name_en":"Å imanovci","iso":"RS"},"geometry":{"type":"Point","coordinates":[20.09175,44.87393]}},{"type":"Feature","properties":{"country_en":"Serbia","name":"Kladovo","name_adm0":"Serbia","name_adm1":"Bor","name_en":"Kladovo","iso":"RS"},"geometry":{"type":"Point","coordinates":[22.653036,44.623447]}},{"type":"Feature","properties":{"country_en":"Serbia","name":"Vrbnica","name_adm0":"Serbia","name_adm1":"Prizren","name_en":"Vrbnica","iso":"RS"},"geometry":{"type":"Point","coordinates":[20.84083,42.83278]}},{"type":"Feature","properties":{"country_en":"Serbia","name":"Gornji Streoc","name_adm0":"Serbia","name_adm1":"Pech","name_en":"Gornji Streoci","iso":"RS"},"geometry":{"type":"Point","coordinates":[20.72361,42.87417]}},{"type":"Feature","properties":{"country_en":"Serbia","name":"Gradac","name_adm0":"Serbia","name_adm1":"Rashka","name_en":"Gradac","iso":"RS"},"geometry":{"type":"Point","coordinates":[20.31876,43.38293]}},{"type":"Feature","properties":{"country_en":"Serbia","name":"Groµnica","name_adm0":"Serbia","name_adm1":"Shumadija","name_en":"Groµnica","iso":"RS"},"geometry":{"type":"Point","coordinates":[20.875969999999995,43.95401999999999]}},{"type":"Feature","properties":{"country_en":"Serbia","name":"Jabučje","name_adm0":"Serbia","name_adm1":"Kolubara","name_en":"Jabučje","iso":"RS"},"geometry":{"type":"Point","coordinates":[20.20164,44.40252]}},{"type":"Feature","properties":{"country_en":"Serbia","name":"Rakova Bara","name_adm0":"Serbia","name_adm1":"Branichevo","name_en":"Raka Bara","iso":"RS"},"geometry":{"type":"Point","coordinates":[21.670229999999997,44.55669]}},{"type":"Feature","properties":{"country_en":"Serbia","name":"Ralja","name_adm0":"Serbia","name_adm1":"Beograd","name_en":"Ralja","iso":"RS"},"geometry":{"type":"Point","coordinates":[20.56222,44.57222]}},{"type":"Feature","properties":{"country_en":"Serbia","name":"Ratkovac","name_adm0":"Serbia","name_adm1":"Prizren","name_en":"Ratkovce","iso":"RS"},"geometry":{"type":"Point","coordinates":[20.53972,42.40944]}},{"type":"Feature","properties":{"country_en":"Serbia","name":"Saraorci","name_adm0":"Serbia","name_adm1":"Podunavlje","name_en":"Saraorci","iso":"RS"},"geometry":{"type":"Point","coordinates":[21.08156,44.49051]}},{"type":"Feature","properties":{"country_en":"Serbia","name":"Savino Selo","name_adm0":"Serbia","name_adm1":"Juzhna Bachka","name_en":"Savino Selo","iso":"RS"},"geometry":{"type":"Point","coordinates":[19.52234,45.50657]}},{"type":"Feature","properties":{"country_en":"Serbia","name":"Vlasotince","name_adm0":"Serbia","name_adm1":"Jablanica","name_en":"Vlasotinci","iso":"RS"},"geometry":{"type":"Point","coordinates":[21.7859,43.02325]}},{"type":"Feature","properties":{"country_en":"Serbia","name":"Mosna","name_adm0":"Serbia","name_adm1":"Bor","name_en":"Mosna","iso":"RS"},"geometry":{"type":"Point","coordinates":[22.18056,44.44694]}},{"type":"Feature","properties":{"country_en":"Serbia","name":"Ruski Krstur","name_adm0":"Serbia","name_adm1":"Zapadna Bachka","name_en":"Ruski Krstur","iso":"RS"},"geometry":{"type":"Point","coordinates":[19.42002,45.56392]}},{"type":"Feature","properties":{"country_en":"Serbia","name":"Žitni Potok","name_adm0":"Serbia","name_adm1":"Toplica","name_en":"Žitni Potok","iso":"RS"},"geometry":{"type":"Point","coordinates":[21.57476,43.09021]}},{"type":"Feature","properties":{"country_en":"Serbia","name":"Biljača","name_adm0":"Serbia","name_adm1":"Pchinja","name_en":"Biljača","iso":"RS"},"geometry":{"type":"Point","coordinates":[21.74782,42.35518]}},{"type":"Feature","properties":{"country_en":"Serbia","name":"Duga Poljana","name_adm0":"Serbia","name_adm1":"Rashka","name_en":"Duga Poljana","iso":"RS"},"geometry":{"type":"Point","coordinates":[20.22778,43.25151999999999]}},{"type":"Feature","properties":{"country_en":"Serbia","name":"Boka","name_adm0":"Serbia","name_adm1":"Srednji Banat","name_en":"Boka","iso":"RS"},"geometry":{"type":"Point","coordinates":[20.82987,45.3554]}},{"type":"Feature","properties":{"country_en":"Serbia","name":"Jaša Tomić","name_adm0":"Serbia","name_adm1":"Srednji Banat","name_en":"Jaša Tomić","iso":"RS"},"geometry":{"type":"Point","coordinates":[20.85546,45.44725]}},{"type":"Feature","properties":{"country_en":"Serbia","name":"Kamenica","name_adm0":"Serbia","name_adm1":"Kolubara","name_en":"Ravno Brdo","iso":"RS"},"geometry":{"type":"Point","coordinates":[20.17389,43.93455]}},{"type":"Feature","properties":{"country_en":"Serbia","name":"Klina","name_adm0":"Serbia","name_adm1":"Pech","name_en":"Kliha","iso":"RS"},"geometry":{"type":"Point","coordinates":[20.6,42.63472]}},{"type":"Feature","properties":{"country_en":"Serbia","name":"Rumenka","name_adm0":"Serbia","name_adm1":"Juzhna Bachka","name_en":"Rumenka","iso":"RS"},"geometry":{"type":"Point","coordinates":[19.74306,45.294]}},{"type":"Feature","properties":{"country_en":"Serbia","name":"Ratkovo","name_adm0":"Serbia","name_adm1":"Zapadna Bachka","name_en":"Dubrave","iso":"RS"},"geometry":{"type":"Point","coordinates":[19.33728,45.45566]}},{"type":"Feature","properties":{"country_en":"Serbia","name":"Morović","name_adm0":"Serbia","name_adm1":"Srem","name_en":"Morović","iso":"RS"},"geometry":{"type":"Point","coordinates":[19.21509,45.00986999999999]}},{"type":"Feature","properties":{"country_en":"Serbia","name":"Srpski Itebej","name_adm0":"Serbia","name_adm1":"Srednji Banat","name_en":"Itebej","iso":"RS"},"geometry":{"type":"Point","coordinates":[20.7135,45.56716]}},{"type":"Feature","properties":{"country_en":"Serbia","name":"Sebečevo","name_adm0":"Serbia","name_adm1":"Rashka","name_en":"Sebečevo","iso":"RS"},"geometry":{"type":"Point","coordinates":[20.42444,43.09914]}},{"type":"Feature","properties":{"country_en":"Serbia","name":"Grocka","name_adm0":"Serbia","name_adm1":"Beograd","name_en":"Grocka","iso":"RS"},"geometry":{"type":"Point","coordinates":[20.716781,44.670423]}},{"type":"Feature","properties":{"country_en":"Serbia","name":"Indjija","name_adm0":"Serbia","name_adm1":"Srem","name_en":"Jndjija","iso":"RS"},"geometry":{"type":"Point","coordinates":[20.127639,45.074186499999996]}},{"type":"Feature","properties":{"country_en":"Serbia","name":"Topola","name_adm0":"Serbia","name_adm1":"Shumadija","name_en":"Topola","iso":"RS"},"geometry":{"type":"Point","coordinates":[20.65694,44.84861]}},{"type":"Feature","properties":{"country_en":"Serbia","name":"Drača","name_adm0":"Serbia","name_adm1":"Shumadija","name_en":"Drača","iso":"RS"},"geometry":{"type":"Point","coordinates":[20.80783,44.03257]}},{"type":"Feature","properties":{"country_en":"Serbia","name":"Dragaµ","name_adm0":"Serbia","name_adm1":"Prizren","name_en":"Dragaµ","iso":"RS"},"geometry":{"type":"Point","coordinates":[20.37048,42.9027]}},{"type":"Feature","properties":{"country_en":"Serbia","name":"Drenovac","name_adm0":"Serbia","name_adm1":"Kosovo","name_en":"Drenovce","iso":"RS"},"geometry":{"type":"Point","coordinates":[21.10917,42.74381]}},{"type":"Feature","properties":{"country_en":"Serbia","name":"Gajdobra","name_adm0":"Serbia","name_adm1":"Juzhna Bachka","name_en":"Gajdobra","iso":"RS"},"geometry":{"type":"Point","coordinates":[19.44577,45.3506]}},{"type":"Feature","properties":{"country_en":"Serbia","name":"Glavnik","name_adm0":"Serbia","name_adm1":"Kosovo","name_en":"Glavnik","iso":"RS"},"geometry":{"type":"Point","coordinates":[21.185369999999995,42.8713]}},{"type":"Feature","properties":{"country_en":"Serbia","name":"Požaranje","name_adm0":"Serbia","name_adm1":"Kosovsko Pomoravlje","name_en":"Požaranje","iso":"RS"},"geometry":{"type":"Point","coordinates":[21.34028,42.36583]}},{"type":"Feature","properties":{"country_en":"Serbia","name":"Radalj","name_adm0":"Serbia","name_adm1":"Machva","name_en":"Radalj","iso":"RS"},"geometry":{"type":"Point","coordinates":[19.1832,44.40398]}},{"type":"Feature","properties":{"country_en":"Serbia","name":"Ribare","name_adm0":"Serbia","name_adm1":"Nishava","name_en":"Ribare","iso":"RS"},"geometry":{"type":"Point","coordinates":[22.14579,43.39253999999999]}},{"type":"Feature","properties":{"country_en":"Serbia","name":"Drenovac","name_adm0":"Serbia","name_adm1":"Pchinja","name_en":"Drenovac","iso":"RS"},"geometry":{"type":"Point","coordinates":[21.883189999999995,42.63113]}},{"type":"Feature","properties":{"country_en":"Serbia","name":"Suva Reka","name_adm0":"Serbia","name_adm1":"Prizren","name_en":"Suha Reka","iso":"RS"},"geometry":{"type":"Point","coordinates":[20.821666,42.356514]}},{"type":"Feature","properties":{"country_en":"Serbia","name":"Brestovac","name_adm0":"Serbia","name_adm1":"Bor","name_en":"Brestovac","iso":"RS"},"geometry":{"type":"Point","coordinates":[22.40538,44.1836]}},{"type":"Feature","properties":{"country_en":"Serbia","name":"Vojka","name_adm0":"Serbia","name_adm1":"Srem","name_en":"Vojka","iso":"RS"},"geometry":{"type":"Point","coordinates":[20.15236,44.937129999999996]}},{"type":"Feature","properties":{"country_en":"Serbia","name":"Mataruµka Banja","name_adm0":"Serbia","name_adm1":"Rashka","name_en":"Banja Mataruge","iso":"RS"},"geometry":{"type":"Point","coordinates":[20.61007,43.68816]}},{"type":"Feature","properties":{"country_en":"Serbia","name":"Cacak","name_adm0":"Serbia","name_adm1":"Moravica","name_adm2":"Cacak","name_en":"Cacak","iso":"RS"},"geometry":{"type":"Point","coordinates":[20.34972,43.89139]}},{"type":"Feature","properties":{"country_en":"Serbia","name":"Hrtkovci","name_adm0":"Serbia","name_adm1":"Srem","name_en":"Srbislavci","iso":"RS"},"geometry":{"type":"Point","coordinates":[19.76374,44.88154999999999]}},{"type":"Feature","properties":{"country_en":"Serbia","name":"Surdulica","name_adm0":"Serbia","name_adm1":"Pchinja","name_en":"Surdulica","iso":"RS"},"geometry":{"type":"Point","coordinates":[21.28806,42.84944]}},{"type":"Feature","properties":{"country_en":"Serbia","name":"Platičevo","name_adm0":"Serbia","name_adm1":"Srem","name_en":"Platičevo","iso":"RS"},"geometry":{"type":"Point","coordinates":[19.79487,44.82213]}},{"type":"Feature","properties":{"country_en":"Serbia","name":"Kragujevac","name_adm0":"Serbia","name_adm1":"Shumadija","name_en":"Kragiyevac","iso":"RS"},"geometry":{"type":"Point","coordinates":[20.91667,44.01666999999999]}},{"type":"Feature","properties":{"country_en":"Serbia","name":"Banjska","name_adm0":"Serbia","name_adm1":"Kosovska Mitrovica","name_en":"Banjska","iso":"RS"},"geometry":{"type":"Point","coordinates":[20.95389,42.85860999999999]}},{"type":"Feature","properties":{"country_en":"Serbia","name":"Ravna Banja","name_adm0":"Serbia","name_adm1":"Jablanica","name_en":"Ravna Banja","iso":"RS"},"geometry":{"type":"Point","coordinates":[21.65701,42.74645]}},{"type":"Feature","properties":{"country_en":"Serbia","name":"Simićevo","name_adm0":"Serbia","name_adm1":"Branichevo","name_en":"Rakinac","iso":"RS"},"geometry":{"type":"Point","coordinates":[21.21072,44.39331]}},{"type":"Feature","properties":{"country_en":"Serbia","name":"Zapadna Bachka","name_adm0":"Serbia","name_adm1":"Zapadna Bachka","name_en":"Zapadna Bachka","iso":"RS"},"geometry":{"type":"Point","coordinates":[19.13269,45.71385]}},{"type":"Feature","properties":{"country_en":"Serbia","name":"Brodarevo","name_adm0":"Serbia","name_adm1":"Zlatibor","name_en":"Brodarevo","iso":"RS"},"geometry":{"type":"Point","coordinates":[19.71958,43.22897]}},{"type":"Feature","properties":{"country_en":"Serbia","name":"Debeljača","name_adm0":"Serbia","name_adm1":"Juzhni Banat","name_en":"Debeljača","iso":"RS"},"geometry":{"type":"Point","coordinates":[20.60153,45.070699999999995]}},{"type":"Feature","properties":{"country_en":"Serbia","name":"Jarak","name_adm0":"Serbia","name_adm1":"Machva","name_en":"Jarak","iso":"RS"},"geometry":{"type":"Point","coordinates":[19.75477,44.91843]}},{"type":"Feature","properties":{"country_en":"Serbia","name":"Vranić","name_adm0":"Serbia","name_adm1":"Prizren","name_en":"Vranić","iso":"RS"},"geometry":{"type":"Point","coordinates":[20.96778,42.78833]}},{"type":"Feature","properties":{"country_en":"Serbia","name":"Klek","name_adm0":"Serbia","name_adm1":"Srednji Banat","name_en":"Klek","iso":"RS"},"geometry":{"type":"Point","coordinates":[20.48049,45.42254]}},{"type":"Feature","properties":{"country_en":"Serbia","name":"Futog","name_adm0":"Serbia","name_adm1":"Juzhna Bachka","name_en":"Futak","iso":"RS"},"geometry":{"type":"Point","coordinates":[19.71416,45.23874]}},{"type":"Feature","properties":{"country_en":"Serbia","name":"Bačko Petrovo Selo","name_adm0":"Serbia","name_adm1":"Juzhna Bachka","name_en":"Bačko Petrovo Selo","iso":"RS"},"geometry":{"type":"Point","coordinates":[20.079279999999997,45.70682]}},{"type":"Feature","properties":{"country_en":"Serbia","name":"Gračanica","name_adm0":"Serbia","name_adm1":"Machva","name_en":"Gračanica","iso":"RS"},"geometry":{"type":"Point","coordinates":[19.37987,44.49208]}},{"type":"Feature","properties":{"country_en":"Serbia","name":"Gaj","name_adm0":"Serbia","name_adm1":"Juzhni Banat","name_en":"Gaj","iso":"RS"},"geometry":{"type":"Point","coordinates":[21.065879999999996,44.79526]}},{"type":"Feature","properties":{"country_en":"Serbia","name":"Gnjilane","name_adm0":"Serbia","name_adm1":"Kosovsko Pomoravlje","name_en":"Gilan","iso":"RS"},"geometry":{"type":"Point","coordinates":[21.475181,42.469374]}},{"type":"Feature","properties":{"country_en":"Serbia","name":"Lipljan","name_adm0":"Serbia","name_adm1":"Kosovo","name_en":"Lipljane","iso":"RS"},"geometry":{"type":"Point","coordinates":[21.140097999999995,42.520446]}},{"type":"Feature","properties":{"country_en":"Serbia","name":"Ljig","name_adm0":"Serbia","name_adm1":"Kolubara","name_en":"Ljig","iso":"RS"},"geometry":{"type":"Point","coordinates":[20.22789,44.220721999999995]}},{"type":"Feature","properties":{"country_en":"Serbia","name":"Kotraža","name_adm0":"Serbia","name_adm1":"Moravica","name_en":"Kotraža","iso":"RS"},"geometry":{"type":"Point","coordinates":[20.52555,43.33748]}},{"type":"Feature","properties":{"country_en":"Serbia","name":"Kovačevac","name_adm0":"Serbia","name_adm1":"Beograd","name_en":"Kovačevac","iso":"RS"},"geometry":{"type":"Point","coordinates":[20.73998,44.43995]}},{"type":"Feature","properties":{"country_en":"Serbia","name":"Kruµevac","name_adm0":"Serbia","name_adm1":"Pech","name_en":"Kruµevac","iso":"RS"},"geometry":{"type":"Point","coordinates":[21.08298,42.66897999999999]}},{"type":"Feature","properties":{"country_en":"Serbia","name":"Omoljica","name_adm0":"Serbia","name_adm1":"Juzhni Banat","name_en":"Omoljica","iso":"RS"},"geometry":{"type":"Point","coordinates":[20.73407,44.75892]}},{"type":"Feature","properties":{"country_en":"Serbia","name":"Bučje","name_adm0":"Serbia","name_adm1":"Zajechar","name_en":"Bučje","iso":"RS"},"geometry":{"type":"Point","coordinates":[22.14904,44.13811]}},{"type":"Feature","properties":{"country_en":"Serbia","name":"Dobro Polje","name_adm0":"Serbia","name_adm1":"Zajechar","name_en":"Dobro Polje","iso":"RS"},"geometry":{"type":"Point","coordinates":[22.02858,43.77157999999999]}},{"type":"Feature","properties":{"country_en":"Serbia","name":"Negbina","name_adm0":"Serbia","name_adm1":"Zlatibor","name_en":"Negbina","iso":"RS"},"geometry":{"type":"Point","coordinates":[19.79069,43.54177]}},{"type":"Feature","properties":{"country_en":"Serbia","name":"Orlate","name_adm0":"Serbia","name_adm1":"Kosovo","name_en":"Orlat","iso":"RS"},"geometry":{"type":"Point","coordinates":[21.34333,42.81778]}},{"type":"Feature","properties":{"country_en":"Serbia","name":"Radovnica","name_adm0":"Serbia","name_adm1":"Pchinja","name_en":"Radovnica","iso":"RS"},"geometry":{"type":"Point","coordinates":[21.89376,42.89407]}},{"type":"Feature","properties":{"country_en":"Serbia","name":"Ravniste","name_adm0":"Serbia","name_adm1":"Toplica","name_en":"Ravniste","iso":"RS"},"geometry":{"type":"Point","coordinates":[21.559169999999998,42.65749999999999]}},{"type":"Feature","properties":{"country_en":"Serbia","name":"Plavna","name_adm0":"Serbia","name_adm1":"Juzhna Bachka","name_en":"Plavna","iso":"RS"},"geometry":{"type":"Point","coordinates":[19.12687,45.34911]}},{"type":"Feature","properties":{"country_en":"Serbia","name":"Poljna","name_adm0":"Serbia","name_adm1":"Rasina","name_en":"Poljna","iso":"RS"},"geometry":{"type":"Point","coordinates":[21.10723,43.71013]}},{"type":"Feature","properties":{"country_en":"Serbia","name":"Brodica","name_adm0":"Serbia","name_adm1":"Branichevo","name_en":"Brodica","iso":"RS"},"geometry":{"type":"Point","coordinates":[21.82001,44.48987]}},{"type":"Feature","properties":{"country_en":"Serbia","name":"Burovac","name_adm0":"Serbia","name_adm1":"Branichevo","name_en":"Burovac","iso":"RS"},"geometry":{"type":"Point","coordinates":[21.35778,44.27278]}},{"type":"Feature","properties":{"country_en":"Serbia","name":"Popovac","name_adm0":"Serbia","name_adm1":"Pomoravlje","name_en":"Popovac","iso":"RS"},"geometry":{"type":"Point","coordinates":[21.50346,43.90946]}},{"type":"Feature","properties":{"country_en":"Serbia","name":"Čitluk","name_adm0":"Serbia","name_adm1":"Zajechar","name_en":"Čitluk","iso":"RS"},"geometry":{"type":"Point","coordinates":[22.025,43.645]}},{"type":"Feature","properties":{"country_en":"Serbia","name":"Crni Vrh","name_adm0":"Serbia","name_adm1":"Pchinja","name_en":"Crni Vrh","iso":"RS"},"geometry":{"type":"Point","coordinates":[22.133819999999996,42.5187]}},{"type":"Feature","properties":{"country_en":"Serbia","name":"Brestač","name_adm0":"Serbia","name_adm1":"Srem","name_en":"Brestač","iso":"RS"},"geometry":{"type":"Point","coordinates":[19.904469999999996,44.86077]}},{"type":"Feature","properties":{"country_en":"Serbia","name":"Bački Brestovac","name_adm0":"Serbia","name_adm1":"Zapadna Bachka","name_en":"Bački Brestovac","iso":"RS"},"geometry":{"type":"Point","coordinates":[19.27095,45.61822999999999]}},{"type":"Feature","properties":{"country_en":"Serbia","name":"Bačko Novo Selo","name_adm0":"Serbia","name_adm1":"Juzhna Bachka","name_en":"Bačko Novo Selo","iso":"RS"},"geometry":{"type":"Point","coordinates":[19.14109,45.29337]}},{"type":"Feature","properties":{"country_en":"Serbia","name":"Banatsko Aranðelovo","name_adm0":"Serbia","name_adm1":"Severni Banat","name_en":"Banat Aranaelovo","iso":"RS"},"geometry":{"type":"Point","coordinates":[20.24243,46.06446]}},{"type":"Feature","properties":{"country_en":"Serbia","name":"Beli Potok","name_adm0":"Serbia","name_adm1":"Nishava","name_en":"Beli Potok","iso":"RS"},"geometry":{"type":"Point","coordinates":[22.08327,43.53281]}},{"type":"Feature","properties":{"country_en":"Serbia","name":"Boževac","name_adm0":"Serbia","name_adm1":"Branichevo","name_en":"Boževac","iso":"RS"},"geometry":{"type":"Point","coordinates":[21.394279999999995,44.54182]}},{"type":"Feature","properties":{"country_en":"Serbia","name":"Brðani","name_adm0":"Serbia","name_adm1":"Moravica","name_en":"Brgjani","iso":"RS"},"geometry":{"type":"Point","coordinates":[20.16056,43.65389]}},{"type":"Feature","properties":{"country_en":"Serbia","name":"Donje Brijanje","name_adm0":"Serbia","name_adm1":"Jablanica","name_en":"Donje Brijanje","iso":"RS"},"geometry":{"type":"Point","coordinates":[21.817229999999995,43.10054]}},{"type":"Feature","properties":{"country_en":"Serbia","name":"Donje Ljupče","name_adm0":"Serbia","name_adm1":"Kosovo","name_en":"Donje Ljupče","iso":"RS"},"geometry":{"type":"Point","coordinates":[21.09444,42.85417]}},{"type":"Feature","properties":{"country_en":"Serbia","name":"Donji Krivodol","name_adm0":"Serbia","name_adm1":"Pirot","name_en":"Donji Krivodol","iso":"RS"},"geometry":{"type":"Point","coordinates":[22.935839999999995,43.10152]}},{"type":"Feature","properties":{"country_en":"Serbia","name":"Dragocvet","name_adm0":"Serbia","name_adm1":"Pomoravlje","name_en":"Dragocvet","iso":"RS"},"geometry":{"type":"Point","coordinates":[21.213939999999997,43.94036]}},{"type":"Feature","properties":{"country_en":"Serbia","name":"Draževac","name_adm0":"Serbia","name_adm1":"Beograd","name_en":"Draževac","iso":"RS"},"geometry":{"type":"Point","coordinates":[20.249999999999996,44.59306]}},{"type":"Feature","properties":{"country_en":"Serbia","name":"Ðunis","name_adm0":"Serbia","name_adm1":"Rasina","name_en":"Ðunis","iso":"RS"},"geometry":{"type":"Point","coordinates":[21.510839999999998,43.59251999999999]}},{"type":"Feature","properties":{"country_en":"Serbia","name":"Golemo Selo","name_adm0":"Serbia","name_adm1":"Pchinja","name_en":"Golemo Selo","iso":"RS"},"geometry":{"type":"Point","coordinates":[21.86229,42.71327]}},{"type":"Feature","properties":{"country_en":"Serbia","name":"Lipar","name_adm0":"Serbia","name_adm1":"Zapadna Bachka","name_en":"Emusitz","iso":"RS"},"geometry":{"type":"Point","coordinates":[19.55418,45.70625]}},{"type":"Feature","properties":{"country_en":"Serbia","name":"Gornja Treµnjevica","name_adm0":"Serbia","name_adm1":"Shumadija","name_en":"Gornja Treµnjevica","iso":"RS"},"geometry":{"type":"Point","coordinates":[20.52963,44.21621]}},{"type":"Feature","properties":{"country_en":"Serbia","name":"Grabovac","name_adm0":"Serbia","name_adm1":"Beograd","name_en":"Grabovac","iso":"RS"},"geometry":{"type":"Point","coordinates":[20.458409999999997,44.55985999999999]}},{"type":"Feature","properties":{"country_en":"Serbia","name":"Jalovik","name_adm0":"Serbia","name_adm1":"Machva","name_en":"Jalovik","iso":"RS"},"geometry":{"type":"Point","coordinates":[19.83083,44.62139]}},{"type":"Feature","properties":{"country_en":"Serbia","name":"Jelakci","name_adm0":"Serbia","name_adm1":"Rashka","name_en":"Jelakci","iso":"RS"},"geometry":{"type":"Point","coordinates":[20.9025,43.13611]}},{"type":"Feature","properties":{"country_en":"Serbia","name":"Kaonik","name_adm0":"Serbia","name_adm1":"Rasina","name_en":"Kaonik","iso":"RS"},"geometry":{"type":"Point","coordinates":[21.49614,43.56006]}},{"type":"Feature","properties":{"country_en":"Serbia","name":"Končulj","name_adm0":"Serbia","name_adm1":"Kosovsko Pomoravlje","name_en":"Končulj","iso":"RS"},"geometry":{"type":"Point","coordinates":[21.68738,42.47494]}},{"type":"Feature","properties":{"country_en":"Serbia","name":"Korbevac","name_adm0":"Serbia","name_adm1":"Pchinja","name_en":"Korbevac","iso":"RS"},"geometry":{"type":"Point","coordinates":[22.11797,42.84587]}},{"type":"Feature","properties":{"country_en":"Serbia","name":"Koretin","name_adm0":"Serbia","name_adm1":"Kosovsko Pomoravlje","name_en":"Koretin","iso":"RS"},"geometry":{"type":"Point","coordinates":[21.59306,42.55694]}},{"type":"Feature","properties":{"country_en":"Serbia","name":"Lepenac","name_adm0":"Serbia","name_adm1":"Rasina","name_en":"Lepenac","iso":"RS"},"geometry":{"type":"Point","coordinates":[21.09163,43.34468]}},{"type":"Feature","properties":{"country_en":"Serbia","name":"Male Pijace","name_adm0":"Serbia","name_adm1":"Severni Banat","name_en":"Mala Pijaca","iso":"RS"},"geometry":{"type":"Point","coordinates":[19.92168,46.06736]}},{"type":"Feature","properties":{"country_en":"Serbia","name":"Miločaj","name_adm0":"Serbia","name_adm1":"Rashka","name_en":"Miločaj","iso":"RS"},"geometry":{"type":"Point","coordinates":[20.64627,43.79536]}},{"type":"Feature","properties":{"country_en":"Serbia","name":"Njegoµevo","name_adm0":"Serbia","name_adm1":"Severna Bachka","name_en":"Njegoµevo","iso":"RS"},"geometry":{"type":"Point","coordinates":[19.75348,45.76229]}},{"type":"Feature","properties":{"country_en":"Serbia","name":"Pačir","name_adm0":"Serbia","name_adm1":"Severna Bachka","name_en":"Pačir","iso":"RS"},"geometry":{"type":"Point","coordinates":[19.44174,45.90024]}},{"type":"Feature","properties":{"country_en":"Serbia","name":"Paralovo","name_adm0":"Serbia","name_adm1":"Kosovsko Pomoravlje","name_en":"Paralovo","iso":"RS"},"geometry":{"type":"Point","coordinates":[21.353399999999997,43.181459999999994]}},{"type":"Feature","properties":{"country_en":"Serbia","name":"Ranovac","name_adm0":"Serbia","name_adm1":"Branichevo","name_en":"Ranovac","iso":"RS"},"geometry":{"type":"Point","coordinates":[21.47622,44.44405]}},{"type":"Feature","properties":{"country_en":"Serbia","name":"Rudnik","name_adm0":"Serbia","name_adm1":"Kosovska Mitrovica","name_en":"Rudnik","iso":"RS"},"geometry":{"type":"Point","coordinates":[20.68972,42.797219999999996]}},{"type":"Feature","properties":{"country_en":"Serbia","name":"Salakovac","name_adm0":"Serbia","name_adm1":"Branichevo","name_en":"Salakovac","iso":"RS"},"geometry":{"type":"Point","coordinates":[21.270869999999995,44.58832]}},{"type":"Feature","properties":{"country_en":"Serbia","name":"Saranovo","name_adm0":"Serbia","name_adm1":"Shumadija","name_en":"Saranovo","iso":"RS"},"geometry":{"type":"Point","coordinates":[20.84673,44.22847999999999]}},{"type":"Feature","properties":{"country_en":"Serbia","name":"Senjski Rudnik","name_adm0":"Serbia","name_adm1":"Pomoravlje","name_en":"Senjski Rudnici","iso":"RS"},"geometry":{"type":"Point","coordinates":[21.569719999999997,43.99582999999999]}},{"type":"Feature","properties":{"country_en":"Serbia","name":"Sočanica","name_adm0":"Serbia","name_adm1":"Kosovska Mitrovica","name_en":"Sočanica","iso":"RS"},"geometry":{"type":"Point","coordinates":[20.64388,43.58058]}},{"type":"Feature","properties":{"country_en":"Serbia","name":"Spance","name_adm0":"Serbia","name_adm1":"Toplica","name_en":"Spanci","iso":"RS"},"geometry":{"type":"Point","coordinates":[21.268789999999996,43.19889]}},{"type":"Feature","properties":{"country_en":"Serbia","name":"Tovariµevo","name_adm0":"Serbia","name_adm1":"Juzhna Bachka","name_en":"Tovariµevo","iso":"RS"},"geometry":{"type":"Point","coordinates":[19.32428,45.35498]}},{"type":"Feature","properties":{"country_en":"Serbia","name":"Trbuµani","name_adm0":"Serbia","name_adm1":"Moravica","name_en":"Trbuµani","iso":"RS"},"geometry":{"type":"Point","coordinates":[20.31183,43.90802]}},{"type":"Feature","properties":{"country_en":"Serbia","name":"Veliki Å iljegovac","name_adm0":"Serbia","name_adm1":"Rasina","name_en":"Veliki Å iljegovac","iso":"RS"},"geometry":{"type":"Point","coordinates":[21.529689999999995,43.51901]}},{"type":"Feature","properties":{"country_en":"Serbia","name":"Veliko Krčmare","name_adm0":"Serbia","name_adm1":"Shumadija","name_en":"Veliko Krčmare","iso":"RS"},"geometry":{"type":"Point","coordinates":[20.90539,44.15765]}},{"type":"Feature","properties":{"country_en":"Serbia","name":"Žirovnica","name_adm0":"Serbia","name_adm1":"Shumadija","name_en":"Žirovnica","iso":"RS"},"geometry":{"type":"Point","coordinates":[21.026109999999996,44.11785]}},{"type":"Feature","properties":{"country_en":"Serbia","name":"Jagodina","name_adm0":"Serbia","name_adm1":"Pomoravlje","name_en":"Svetozarevo","iso":"RS"},"geometry":{"type":"Point","coordinates":[21.2628485,43.9804935]}},{"type":"Feature","properties":{"country_en":"Serbia","name":"Raška","name_adm0":"Serbia","name_adm1":"Rashka","name_adm2":"Raška","name_en":"Raška","iso":"RS"},"geometry":{"type":"Point","coordinates":[20.580825499999996,43.312188]}},{"type":"Feature","properties":{"country_en":"Serbia","name":"Bor","name_adm0":"Serbia","name_adm1":"Bor","name_en":"Bor","iso":"RS"},"geometry":{"type":"Point","coordinates":[22.314605,44.627007]}},{"type":"Feature","properties":{"country_en":"Serbia","name":"Kosovska Mitrovica","name_adm0":"Serbia","name_adm1":"Kosovska Mitrovica","name_en":"Kosovska Mitrovica","iso":"RS"},"geometry":{"type":"Point","coordinates":[20.863036999999995,42.8908375]}},{"type":"Feature","properties":{"country_en":"Serbia","name":"Jablanica","name_adm0":"Serbia","name_adm1":"Jablanica","name_en":"Jablanica","iso":"RS"},"geometry":{"type":"Point","coordinates":[21.8985895,42.9754525]}},{"type":"Feature","properties":{"country_en":"Serbia","name":"Podujevo","name_adm0":"Serbia","name_adm1":"Kosovo","name_en":"Podujevo","iso":"RS"},"geometry":{"type":"Point","coordinates":[21.193059999999996,42.91055999999999]}},{"type":"Feature","properties":{"country_en":"Serbia","name":"Novo Selo","name_adm0":"Serbia","name_adm1":"Rashka","name_en":"Novo Selo","iso":"RS"},"geometry":{"type":"Point","coordinates":[20.70706,43.2454]}},{"type":"Feature","properties":{"country_en":"Serbia","name":"Gornji Milanovac","name_adm0":"Serbia","name_adm1":"Moravica","name_en":"Gornji Milanovac","iso":"RS"},"geometry":{"type":"Point","coordinates":[20.07234,44.16123999999999]}},{"type":"Feature","properties":{"country_en":"Serbia","name":"Kostolac","name_adm0":"Serbia","name_adm1":"Branichevo","name_en":"Kostolac","iso":"RS"},"geometry":{"type":"Point","coordinates":[21.16929,44.71356]}},{"type":"Feature","properties":{"country_en":"Serbia","name":"Padina","name_adm0":"Serbia","name_adm1":"Juzhni Banat","name_en":"Naglajosfalva","iso":"RS"},"geometry":{"type":"Point","coordinates":[20.7286,45.11988]}},{"type":"Feature","properties":{"country_en":"Serbia","name":"Resnik","name_adm0":"Serbia","name_adm1":"Beograd","name_en":"Resnik","iso":"RS"},"geometry":{"type":"Point","coordinates":[20.454859999999996,44.714569999999995]}},{"type":"Feature","properties":{"country_en":"Serbia","name":"Lučani","name_adm0":"Serbia","name_adm1":"Moravica","name_en":"Lučani","iso":"RS"},"geometry":{"type":"Point","coordinates":[20.191227,43.881438]}},{"type":"Feature","properties":{"country_en":"Serbia","name":"Crnajka","name_adm0":"Serbia","name_adm1":"Bor","name_en":"Crnajka","iso":"RS"},"geometry":{"type":"Point","coordinates":[22.14228,44.28706]}},{"type":"Feature","properties":{"country_en":"Serbia","name":"Peka","name_adm0":"Serbia","name_adm1":"Kolubara","name_en":"Peka","iso":"RS"},"geometry":{"type":"Point","coordinates":[20.23511,44.37364]}},{"type":"Feature","properties":{"country_en":"Serbia","name":"Aleksandrovac","name_adm0":"Serbia","name_adm1":"Branichevo","name_en":"Prhovo","iso":"RS"},"geometry":{"type":"Point","coordinates":[21.2131,44.44925]}},{"type":"Feature","properties":{"country_en":"Serbia","name":"Čonoplja","name_adm0":"Serbia","name_adm1":"Zapadna Bachka","name_en":"Csonoplya","iso":"RS"},"geometry":{"type":"Point","coordinates":[19.25132,45.81128]}},{"type":"Feature","properties":{"country_en":"Serbia","name":"Crna Bara","name_adm0":"Serbia","name_adm1":"Severni Banat","name_en":"Crna Bara","iso":"RS"},"geometry":{"type":"Point","coordinates":[20.27614,45.97326]}},{"type":"Feature","properties":{"country_en":"Serbia","name":"Crnča","name_adm0":"Serbia","name_adm1":"Machva","name_en":"Crnča","iso":"RS"},"geometry":{"type":"Point","coordinates":[19.283589999999997,44.28543]}},{"type":"Feature","properties":{"country_en":"Serbia","name":"Stopanja","name_adm0":"Serbia","name_adm1":"Rasina","name_en":"Stopanja","iso":"RS"},"geometry":{"type":"Point","coordinates":[21.15016,43.58021999999999]}},{"type":"Feature","properties":{"country_en":"Serbia","name":"Varna","name_adm0":"Serbia","name_adm1":"Machva","name_en":"Varna","iso":"RS"},"geometry":{"type":"Point","coordinates":[19.7513,44.04362]}},{"type":"Feature","properties":{"country_en":"Serbia","name":"Venčane","name_adm0":"Serbia","name_adm1":"Beograd","name_en":"Venčane","iso":"RS"},"geometry":{"type":"Point","coordinates":[20.46778,44.40666999999999]}},{"type":"Feature","properties":{"country_en":"Serbia","name":"Vitkovac","name_adm0":"Serbia","name_adm1":"Rashka","name_en":"Vitkovac","iso":"RS"},"geometry":{"type":"Point","coordinates":[20.78364,43.79479]}},{"type":"Feature","properties":{"country_en":"Serbia","name":"Bačka Palanka","name_adm0":"Serbia","name_adm1":"Juzhna Bachka","name_en":"Bačka Palanka","iso":"RS"},"geometry":{"type":"Point","coordinates":[19.381942,45.24226099999999]}},{"type":"Feature","properties":{"country_en":"Serbia","name":"Duµanovac","name_adm0":"Serbia","name_adm1":"Beograd","name_en":"Duµanovac","iso":"RS"},"geometry":{"type":"Point","coordinates":[20.488386,44.7905]}},{"type":"Feature","properties":{"country_en":"Serbia","name":"Vračar","name_adm0":"Serbia","name_adm1":"Beograd","name_en":"Vračar","iso":"RS"},"geometry":{"type":"Point","coordinates":[20.466699,44.802499]}},{"type":"Feature","properties":{"country_en":"Serbia","name":"Čoka","name_adm0":"Serbia","name_adm1":"Severni Banat","name_en":"Čoka","iso":"RS"},"geometry":{"type":"Point","coordinates":[20.137252,45.94351]}},{"type":"Feature","properties":{"country_en":"Serbia","name":"Despotovac","name_adm0":"Serbia","name_adm1":"Pomoravlje","name_en":"Despotovac","iso":"RS"},"geometry":{"type":"Point","coordinates":[21.464624,44.100345]}},{"type":"Feature","properties":{"country_en":"Serbia","name":"Kovačica","name_adm0":"Serbia","name_adm1":"Juzhni Banat","name_en":"Antalfalva","iso":"RS"},"geometry":{"type":"Point","coordinates":[20.619277,45.111694]}},{"type":"Feature","properties":{"country_en":"Serbia","name":"Majdanpek","name_adm0":"Serbia","name_adm1":"Bor","name_en":"Majdanpek","iso":"RS"},"geometry":{"type":"Point","coordinates":[21.93754,44.42089]}},{"type":"Feature","properties":{"country_en":"Serbia","name":"Nova Varoµ","name_adm0":"Serbia","name_adm1":"Zlatibor","name_en":"Nova Varoµ","iso":"RS"},"geometry":{"type":"Point","coordinates":[19.8126405,43.46070649999999]}},{"type":"Feature","properties":{"country_en":"Serbia","name":"Smederevska Palanka","name_adm0":"Serbia","name_adm1":"Podunavlje","name_en":"Palanka Smederevska","iso":"RS"},"geometry":{"type":"Point","coordinates":[20.96127,44.369652]}},{"type":"Feature","properties":{"country_en":"Serbia","name":"Jasenovo","name_adm0":"Serbia","name_adm1":"Zlatibor","name_en":"Jasenovo","iso":"RS"},"geometry":{"type":"Point","coordinates":[19.29354,44.05224]}},{"type":"Feature","properties":{"country_en":"Serbia","name":"Kačanik","name_adm0":"Serbia","name_adm1":"Kosovo","name_en":"Orhanye","iso":"RS"},"geometry":{"type":"Point","coordinates":[21.814519999999998,42.48605]}},{"type":"Feature","properties":{"country_en":"Serbia","name":"Kačarevo","name_adm0":"Serbia","name_adm1":"Juzhni Banat","name_en":"Francfeld","iso":"RS"},"geometry":{"type":"Point","coordinates":[20.69957,44.96721]}},{"type":"Feature","properties":{"country_en":"Serbia","name":"Leµnica","name_adm0":"Serbia","name_adm1":"Machva","name_en":"Leµnica","iso":"RS"},"geometry":{"type":"Point","coordinates":[18.70304,44.97135999999999]}},{"type":"Feature","properties":{"country_en":"Serbia","name":"Severna Bachka","name_adm0":"Serbia","name_adm1":"Severna Bachka","name_en":"Severna Bachka","iso":"RS"},"geometry":{"type":"Point","coordinates":[19.8983,45.674642]}},{"type":"Feature","properties":{"country_en":"Serbia","name":"Moravica","name_adm0":"Serbia","name_adm1":"Moravica","name_en":"Moravica","iso":"RS"},"geometry":{"type":"Point","coordinates":[20.215187,43.904447]}},{"type":"Feature","properties":{"country_en":"Serbia","name":"Podunavlje","name_adm0":"Serbia","name_adm1":"Podunavlje","name_en":"Podunavlje","iso":"RS"},"geometry":{"type":"Point","coordinates":[21.0758965,44.59939649999999]}},{"type":"Feature","properties":{"country_en":"Serbia","name":"Kosovsko Pomoravlje","name_adm0":"Serbia","name_adm1":"Kosovsko Pomoravlje","name_en":"Kosovsko Pomoravlje","iso":"RS"},"geometry":{"type":"Point","coordinates":[21.465911,42.480571]}},{"type":"Feature","properties":{"country_en":"Serbia","name":"Pirot","name_adm0":"Serbia","name_adm1":"Pirot","name_adm2":"Pirot","name_en":"Pirot","iso":"RS"},"geometry":{"type":"Point","coordinates":[22.58611,43.15306]}},{"type":"Feature","properties":{"country_en":"Serbia","name":"Leskovac","name_adm0":"Serbia","name_adm1":"Jablanica","name_adm2":"Leskovac","name_en":"Leskovac","iso":"RS"},"geometry":{"type":"Point","coordinates":[21.94611,42.99806]}},{"type":"Feature","properties":{"country_en":"Serbia","name":"Bački Breg","name_adm0":"Serbia","name_adm1":"Zapadna Bachka","name_en":"Bereg","iso":"RS"},"geometry":{"type":"Point","coordinates":[18.92944,45.92034]}},{"type":"Feature","properties":{"country_en":"Serbia","name":"Uroµevac","name_adm0":"Serbia","name_adm1":"Kosovo","name_en":"Ferizovik","iso":"RS"},"geometry":{"type":"Point","coordinates":[21.206358999999996,42.402164]}},{"type":"Feature","properties":{"country_en":"Serbia","name":"Banatski Dvor","name_adm0":"Serbia","name_adm1":"Srednji Banat","name_en":"Banatski Dvor","iso":"RS"},"geometry":{"type":"Point","coordinates":[20.51146,45.51866]}},{"type":"Feature","properties":{"country_en":"Serbia","name":"Lazarevo","name_adm0":"Serbia","name_adm1":"Srednji Banat","name_en":"Lazarevo","iso":"RS"},"geometry":{"type":"Point","coordinates":[20.539989999999996,45.38893]}},{"type":"Feature","properties":{"country_en":"Serbia","name":"Dobri Do","name_adm0":"Serbia","name_adm1":"Toplica","name_en":"Dobri Do","iso":"RS"},"geometry":{"type":"Point","coordinates":[21.39036,42.92604]}},{"type":"Feature","properties":{"country_en":"Serbia","name":"Kladnica","name_adm0":"Serbia","name_adm1":"Zlatibor","name_en":"Kladnica","iso":"RS"},"geometry":{"type":"Point","coordinates":[20.029199999999996,43.39972]}},{"type":"Feature","properties":{"country_en":"Serbia","name":"Krµevica","name_adm0":"Serbia","name_adm1":"Pchinja","name_en":"Krµevica","iso":"RS"},"geometry":{"type":"Point","coordinates":[22.17738,42.99614]}},{"type":"Feature","properties":{"country_en":"Serbia","name":"Petrovac","name_adm0":"Serbia","name_adm1":"Pirot","name_en":"Smrdan","iso":"RS"},"geometry":{"type":"Point","coordinates":[22.61763,43.0779]}},{"type":"Feature","properties":{"country_en":"Serbia","name":"Istok","name_adm0":"Serbia","name_adm1":"Pech","name_en":"Istok","iso":"RS"},"geometry":{"type":"Point","coordinates":[20.483632,42.7809365]}},{"type":"Feature","properties":{"country_en":"Serbia","name":"Borča","name_adm0":"Serbia","name_adm1":"Beograd","name_en":"Borča","iso":"RS"},"geometry":{"type":"Point","coordinates":[20.45413,44.86969]}},{"type":"Feature","properties":{"country_en":"Serbia","name":"Jajinci","name_adm0":"Serbia","name_adm1":"Beograd","name_en":"Jajince","iso":"RS"},"geometry":{"type":"Point","coordinates":[20.48634,44.74061]}},{"type":"Feature","properties":{"country_en":"Serbia","name":"Vranje","name_adm0":"Serbia","name_adm1":"Pchinja","name_adm2":"Vranje","name_en":"Vranje","iso":"RS"},"geometry":{"type":"Point","coordinates":[21.90028,42.55139]}},{"type":"Feature","properties":{"country_en":"Serbia","name":"Vlajkovac","name_adm0":"Serbia","name_adm1":"Juzhni Banat","name_en":"Vlajkovac","iso":"RS"},"geometry":{"type":"Point","coordinates":[21.199449999999995,45.07207]}},{"type":"Feature","properties":{"country_en":"Serbia","name":"Turija","name_adm0":"Serbia","name_adm1":"Branichevo","name_en":"Turija","iso":"RS"},"geometry":{"type":"Point","coordinates":[21.639449999999997,44.522729999999996]}},{"type":"Feature","properties":{"country_en":"Serbia","name":"Prokuplje","name_adm0":"Serbia","name_adm1":"Toplica","name_adm2":"Prokuplje","name_en":"Prokuplje","iso":"RS"},"geometry":{"type":"Point","coordinates":[21.58806,43.23417]}},{"type":"Feature","properties":{"country_en":"Serbia","name":"Kraljevo","name_adm0":"Serbia","name_adm1":"Rashka","name_adm2":"Kraljevo","name_en":"Kraljevo","iso":"RS"},"geometry":{"type":"Point","coordinates":[20.68944,43.725829999999995]}},{"type":"Feature","properties":{"country_en":"Serbia","name":"Deronje","name_adm0":"Serbia","name_adm1":"Zapadna Bachka","name_en":"Deronje","iso":"RS"},"geometry":{"type":"Point","coordinates":[19.22027,45.45534]}},{"type":"Feature","properties":{"country_en":"Serbia","name":"Lalinac","name_adm0":"Serbia","name_adm1":"Nishava","name_en":"Lalinac","iso":"RS"},"geometry":{"type":"Point","coordinates":[21.78662,43.34183]}},{"type":"Feature","properties":{"country_en":"Serbia","name":"Mala Bosna","name_adm0":"Serbia","name_adm1":"Severna Bachka","name_en":"Mala Bosna","iso":"RS"},"geometry":{"type":"Point","coordinates":[19.57247,46.039469999999994]}},{"type":"Feature","properties":{"country_en":"Serbia","name":"Rabrovo","name_adm0":"Serbia","name_adm1":"Branichevo","name_en":"Rabrovo","iso":"RS"},"geometry":{"type":"Point","coordinates":[21.51375,44.576409999999996]}},{"type":"Feature","properties":{"country_en":"Serbia","name":"Rudnik","name_adm0":"Serbia","name_adm1":"Moravica","name_en":"Rudnik","iso":"RS"},"geometry":{"type":"Point","coordinates":[20.493979999999997,44.13982]}},{"type":"Feature","properties":{"country_en":"Serbia","name":"Staro Selo","name_adm0":"Serbia","name_adm1":"Podunavlje","name_en":"Staro Selo","iso":"RS"},"geometry":{"type":"Point","coordinates":[21.088669999999997,44.29426]}},{"type":"Feature","properties":{"country_en":"Serbia","name":"Prigrevica","name_adm0":"Serbia","name_adm1":"Zapadna Bachka","name_en":"Prigrevica Sveti Ivan","iso":"RS"},"geometry":{"type":"Point","coordinates":[19.088089999999998,45.67636]}},{"type":"Feature","properties":{"country_en":"Serbia","name":"Zajechar","name_adm0":"Serbia","name_adm1":"Zajechar","name_en":"Zajechar","iso":"RS"},"geometry":{"type":"Point","coordinates":[22.261047,43.910755]}},{"type":"Feature","properties":{"country_en":"Serbia","name":"Zajecar","name_adm0":"Serbia","name_adm1":"Zajechar","name_adm2":"Zajecar","name_en":"Zajecar","iso":"RS"},"geometry":{"type":"Point","coordinates":[22.26405,43.90358]}},{"type":"Feature","properties":{"country_en":"Serbia","name":"Veliko Srediµte","name_adm0":"Serbia","name_adm1":"Juzhni Banat","name_en":"Veliko Srediµte","iso":"RS"},"geometry":{"type":"Point","coordinates":[21.40353,45.17919]}},{"type":"Feature","properties":{"country_en":"Serbia","name":"Stalać","name_adm0":"Serbia","name_adm1":"Rasina","name_en":"Stalać","iso":"RS"},"geometry":{"type":"Point","coordinates":[21.41328,43.677389999999995]}},{"type":"Feature","properties":{"country_en":"Serbia","name":"Smederevo","name_adm0":"Serbia","name_adm1":"Podunavlje","name_adm2":"Smederevo","name_en":"Smederevo","iso":"RS"},"geometry":{"type":"Point","coordinates":[20.93,44.66278]}},{"type":"Feature","properties":{"country_en":"Serbia","name":"Pancevo","name_adm0":"Serbia","name_adm1":"Juzhni Banat","name_adm2":"Pancevo","name_en":"Pancevo","iso":"RS"},"geometry":{"type":"Point","coordinates":[20.64028,44.87083]}},{"type":"Feature","properties":{"country_en":"Serbia","name":"Kruševac","name_adm0":"Serbia","name_adm1":"Rasina","name_adm2":"Kruševac","name_en":"Kruševac","iso":"RS"},"geometry":{"type":"Point","coordinates":[21.33389,43.57999999999999]}},{"type":"Feature","properties":{"country_en":"Serbia","name":"Crepaja","name_adm0":"Serbia","name_adm1":"Juzhni Banat","name_en":"Crepaja","iso":"RS"},"geometry":{"type":"Point","coordinates":[20.63702,45.00984]}},{"type":"Feature","properties":{"country_en":"Serbia","name":"Bor","name_adm0":"Serbia","name_adm1":"Bor","name_adm2":"Bor","name_en":"Bor","iso":"RS"},"geometry":{"type":"Point","coordinates":[22.09591,44.07488]}},{"type":"Feature","properties":{"country_en":"Serbia","name":"Stanišić","name_adm0":"Serbia","name_adm1":"Zapadna Bachka","name_en":"Stanišić","iso":"RS"},"geometry":{"type":"Point","coordinates":[19.167089999999998,45.93895]}},{"type":"Feature","properties":{"country_en":"Serbia","name":"Belotić","name_adm0":"Serbia","name_adm1":"Machva","name_en":"Belotić","iso":"RS"},"geometry":{"type":"Point","coordinates":[19.54801,44.81781999999999]}},{"type":"Feature","properties":{"country_en":"Serbia","name":"Begaljica","name_adm0":"Serbia","name_adm1":"Beograd","name_en":"Begaljica","iso":"RS"},"geometry":{"type":"Point","coordinates":[20.695,44.63361]}},{"type":"Feature","properties":{"country_en":"Serbia","name":"Dučina","name_adm0":"Serbia","name_adm1":"Beograd","name_en":"Dučina","iso":"RS"},"geometry":{"type":"Point","coordinates":[20.49752,44.4864]}},{"type":"Feature","properties":{"country_en":"Serbia","name":"Hetin","name_adm0":"Serbia","name_adm1":"Srednji Banat","name_en":"Hetin","iso":"RS"},"geometry":{"type":"Point","coordinates":[20.791379999999997,45.66202]}},{"type":"Feature","properties":{"country_en":"Serbia","name":"Gornja Ljubata","name_adm0":"Serbia","name_adm1":"Pchinja","name_en":"Gornja Lljubata","iso":"RS"},"geometry":{"type":"Point","coordinates":[22.34081,42.50273]}},{"type":"Feature","properties":{"country_en":"Serbia","name":"Janjevo","name_adm0":"Serbia","name_adm1":"Kosovo","name_en":"Janjevo","iso":"RS"},"geometry":{"type":"Point","coordinates":[21.24889,42.57389]}},{"type":"Feature","properties":{"country_en":"Serbia","name":"Maglić","name_adm0":"Serbia","name_adm1":"Juzhna Bachka","name_en":"Buljkes","iso":"RS"},"geometry":{"type":"Point","coordinates":[19.53211,45.36248]}},{"type":"Feature","properties":{"country_en":"Serbia","name":"Pečenjevce","name_adm0":"Serbia","name_adm1":"Jablanica","name_en":"Pečenjevce","iso":"RS"},"geometry":{"type":"Point","coordinates":[21.91431,43.09862]}},{"type":"Feature","properties":{"country_en":"Serbia","name":"Padej","name_adm0":"Serbia","name_adm1":"Severni Banat","name_en":"Srpski Padej","iso":"RS"},"geometry":{"type":"Point","coordinates":[20.16279,45.82756]}},{"type":"Feature","properties":{"country_en":"Serbia","name":"Ratari","name_adm0":"Serbia","name_adm1":"Podunavlje","name_en":"Ratare","iso":"RS"},"geometry":{"type":"Point","coordinates":[20.82977,44.35372]}},{"type":"Feature","properties":{"country_en":"Serbia","name":"Sajkas","name_adm0":"Serbia","name_adm1":"Juzhna Bachka","name_en":"Sajkas","iso":"RS"},"geometry":{"type":"Point","coordinates":[20.09051,45.273149999999994]}},{"type":"Feature","properties":{"country_en":"Serbia","name":"Dorćol","name_adm0":"Serbia","name_adm1":"Beograd","name_en":"Dorćol","iso":"RS"},"geometry":{"type":"Point","coordinates":[20.450406,44.821348]}},{"type":"Feature","properties":{"country_en":"Serbia","name":"Valjevo","name_adm0":"Serbia","name_adm1":"Kolubara","name_adm2":"Valjevo","name_en":"Valjevo","iso":"RS"},"geometry":{"type":"Point","coordinates":[19.898209999999995,44.27513]}},{"type":"Feature","properties":{"country_en":"Serbia","name":"Užice","name_adm0":"Serbia","name_adm1":"Zlatibor","name_adm2":"Užice","name_en":"Užice","iso":"RS"},"geometry":{"type":"Point","coordinates":[19.84878,43.85861]}},{"type":"Feature","properties":{"country_en":"Serbia","name":"Crna Bara","name_adm0":"Serbia","name_adm1":"Machva","name_en":"Crna Bara","iso":"RS"},"geometry":{"type":"Point","coordinates":[19.3948,44.87374]}},{"type":"Feature","properties":{"country_en":"Serbia","name":"Ruma","name_adm0":"Serbia","name_adm1":"Srem","name_en":"Ruma","iso":"RS"},"geometry":{"type":"Point","coordinates":[19.58988,44.572599999999994]}},{"type":"Feature","properties":{"country_en":"Serbia","name":"Čukarica","name_adm0":"Serbia","name_adm1":"Beograd","name_en":"Čukarica","iso":"RS"},"geometry":{"type":"Point","coordinates":[20.40675,44.786586]}},{"type":"Feature","properties":{"country_en":"Serbia","name":"Soko Banja","name_adm0":"Serbia","name_adm1":"Zajechar","name_en":"Banja Aleksinacka","iso":"RS"},"geometry":{"type":"Point","coordinates":[21.864509,43.64175]}},{"type":"Feature","properties":{"country_en":"Serbia","name":"Janja","name_adm0":"Serbia","name_adm1":"Zajechar","name_en":"Janja","iso":"RS"},"geometry":{"type":"Point","coordinates":[22.51886,43.42907]}},{"type":"Feature","properties":{"country_en":"Serbia","name":"Sremska Mitrovica","name_adm0":"Serbia","name_adm1":"Srem","name_en":"Strema Mitrovica","iso":"RS"},"geometry":{"type":"Point","coordinates":[19.612741,44.983299]}},{"type":"Feature","properties":{"country_en":"Serbia","name":"Vrbas","name_adm0":"Serbia","name_adm1":"Juzhna Bachka","name_en":"Titov Vrbas","iso":"RS"},"geometry":{"type":"Point","coordinates":[19.642868,45.569999]}},{"type":"Feature","properties":{"country_en":"Serbia","name":"Jelaµnica","name_adm0":"Serbia","name_adm1":"Nishava","name_en":"Jelaµnica","iso":"RS"},"geometry":{"type":"Point","coordinates":[22.051439999999996,43.28971]}},{"type":"Feature","properties":{"country_en":"Serbia","name":"Mladenovac","name_adm0":"Serbia","name_adm1":"Beograd","name_en":"Selo-Mladenovac","iso":"RS"},"geometry":{"type":"Point","coordinates":[21.5969,44.196239999999996]}},{"type":"Feature","properties":{"country_en":"Serbia","name":"Stepojevac","name_adm0":"Serbia","name_adm1":"Beograd","name_en":"Stepajevac","iso":"RS"},"geometry":{"type":"Point","coordinates":[20.295,44.51278]}},{"type":"Feature","properties":{"country_en":"Serbia","name":"Sumrakovac","name_adm0":"Serbia","name_adm1":"Zajechar","name_en":"Sumrakovac","iso":"RS"},"geometry":{"type":"Point","coordinates":[22.03053,43.93988]}},{"type":"Feature","properties":{"country_en":"Serbia","name":"Veliki Kupci","name_adm0":"Serbia","name_adm1":"Rasina","name_en":"Veliki Kupci","iso":"RS"},"geometry":{"type":"Point","coordinates":[21.23313,43.45516]}},{"type":"Feature","properties":{"country_en":"Serbia","name":"Pec","name_adm0":"Serbia","name_adm1":"Pech","name_en":"Ipek","iso":"RS"},"geometry":{"type":"Point","coordinates":[20.300331,42.659577]}},{"type":"Feature","properties":{"country_en":"Serbia","name":"Sige","name_adm0":"Serbia","name_adm1":"Branichevo","name_en":"Sige","iso":"RS"},"geometry":{"type":"Point","coordinates":[21.59858,44.21894]}},{"type":"Feature","properties":{"country_en":"Serbia","name":"Vojlovica","name_adm0":"Serbia","name_adm1":"Juzhni Banat","name_en":"Vojlovica","iso":"RS"},"geometry":{"type":"Point","coordinates":[20.67042,44.84726]}},{"type":"Feature","properties":{"country_en":"Serbia","name":"Starčevo","name_adm0":"Serbia","name_adm1":"Juzhni Banat","name_en":"Starčevo","iso":"RS"},"geometry":{"type":"Point","coordinates":[20.70546,44.807289999999995]}},{"type":"Feature","properties":{"country_en":"Serbia","name":"Velika Krsna","name_adm0":"Serbia","name_adm1":"Beograd","name_en":"Velika Krsna","iso":"RS"},"geometry":{"type":"Point","coordinates":[20.80521,44.47841]}},{"type":"Feature","properties":{"country_en":"Serbia","name":"Orahovac","name_adm0":"Serbia","name_adm1":"Prizren","name_en":"Orahovac","iso":"RS"},"geometry":{"type":"Point","coordinates":[21.103529999999996,43.23028999999999]}},{"type":"Feature","properties":{"country_en":"Serbia","name":"Velika Plana","name_adm0":"Serbia","name_adm1":"Podunavlje","name_en":"Velika Plana","iso":"RS"},"geometry":{"type":"Point","coordinates":[20.487219999999997,44.64139]}},{"type":"Feature","properties":{"country_en":"Serbia","name":"Juzhna Bachka","name_adm0":"Serbia","name_adm1":"Juzhna Bachka","name_en":"Juzhna Bachka","iso":"RS"},"geometry":{"type":"Point","coordinates":[19.830322,45.309605]}},{"type":"Feature","properties":{"country_en":"Serbia","name":"Prijepolje","name_adm0":"Serbia","name_adm1":"Zlatibor","name_adm2":"Prijepolje","name_en":"Prijepolje","iso":"RS"},"geometry":{"type":"Point","coordinates":[19.782943,43.643404]}},{"type":"Feature","properties":{"country_en":"Serbia","name":"Zlatibor","name_adm0":"Serbia","name_adm1":"Zlatibor","name_en":"Zlatibor","iso":"RS"},"geometry":{"type":"Point","coordinates":[19.70029,43.729]}},{"type":"Feature","properties":{"country_en":"Serbia","name":"Bezdam","name_adm0":"Serbia","name_adm1":"Zapadna Bachka","name_en":"Bezdam","iso":"RS"},"geometry":{"type":"Point","coordinates":[18.93021,45.85141]}},{"type":"Feature","properties":{"country_en":"Serbia","name":"Aleksinac","name_adm0":"Serbia","name_adm1":"Nishava","name_en":"Aleksinac","iso":"RS"},"geometry":{"type":"Point","coordinates":[21.40917,43.05444]}},{"type":"Feature","properties":{"country_en":"Serbia","name":"Arilje","name_adm0":"Serbia","name_adm1":"Zlatibor","name_en":"Arilje","iso":"RS"},"geometry":{"type":"Point","coordinates":[19.37417,42.78027999999999]}},{"type":"Feature","properties":{"country_en":"Serbia","name":"Bački Sokolac","name_adm0":"Serbia","name_adm1":"Severna Bachka","name_en":"Bački Sokolac","iso":"RS"},"geometry":{"type":"Point","coordinates":[19.54019,45.84961]}},{"type":"Feature","properties":{"country_en":"Serbia","name":"Banatski Brestovac","name_adm0":"Serbia","name_adm1":"Juzhni Banat","name_en":"Brestovac","iso":"RS"},"geometry":{"type":"Point","coordinates":[20.80904,44.72735999999999]}},{"type":"Feature","properties":{"country_en":"Serbia","name":"Kukujevci","name_adm0":"Serbia","name_adm1":"Srem","name_en":"Kukujevci","iso":"RS"},"geometry":{"type":"Point","coordinates":[19.34072,45.06971]}},{"type":"Feature","properties":{"country_en":"Serbia","name":"Mala Krsna","name_adm0":"Serbia","name_adm1":"Podunavlje","name_en":"Mala Krsna","iso":"RS"},"geometry":{"type":"Point","coordinates":[21.00744,44.58617]}},{"type":"Feature","properties":{"country_en":"Serbia","name":"Mala Plana","name_adm0":"Serbia","name_adm1":"Toplica","name_en":"Mala Plana","iso":"RS"},"geometry":{"type":"Point","coordinates":[21.47606,43.25348]}},{"type":"Feature","properties":{"country_en":"Serbia","name":"Neresnica","name_adm0":"Serbia","name_adm1":"Branichevo","name_en":"Neresnica","iso":"RS"},"geometry":{"type":"Point","coordinates":[21.72622,44.44252]}},{"type":"Feature","properties":{"country_en":"Serbia","name":"Nova Crnja","name_adm0":"Serbia","name_adm1":"Srednji Banat","name_en":"Nova Crnja","iso":"RS"},"geometry":{"type":"Point","coordinates":[19.48772,45.69564]}},{"type":"Feature","properties":{"country_en":"Serbia","name":"Sremska Rača","name_adm0":"Serbia","name_adm1":"Srem","name_en":"Raca","iso":"RS"},"geometry":{"type":"Point","coordinates":[19.28577,44.92077]}},{"type":"Feature","properties":{"country_en":"Serbia","name":"Susara","name_adm0":"Serbia","name_adm1":"Juzhni Banat","name_en":"Susara","iso":"RS"},"geometry":{"type":"Point","coordinates":[21.12379,44.941289999999995]}},{"type":"Feature","properties":{"country_en":"Serbia","name":"Takovo","name_adm0":"Serbia","name_adm1":"Moravica","name_en":"Takova","iso":"RS"},"geometry":{"type":"Point","coordinates":[20.3875,44.04278]}},{"type":"Feature","properties":{"country_en":"Serbia","name":"Vračev Gaj","name_adm0":"Serbia","name_adm1":"Juzhni Banat","name_en":"Vračev Gaj","iso":"RS"},"geometry":{"type":"Point","coordinates":[21.36738,44.87868999999999]}},{"type":"Feature","properties":{"country_en":"Serbia","name":"Grgurevci","name_adm0":"Serbia","name_adm1":"Srem","name_en":"Grgurevci","iso":"RS"},"geometry":{"type":"Point","coordinates":[19.64639,45.10434]}},{"type":"Feature","properties":{"country_en":"Serbia","name":"Džep","name_adm0":"Serbia","name_adm1":"Pchinja","name_en":"Džep","iso":"RS"},"geometry":{"type":"Point","coordinates":[22.08834,42.76822]}},{"type":"Feature","properties":{"country_en":"Serbia","name":"Batlava","name_adm0":"Serbia","name_adm1":"Kosovo","name_en":"Batlava","iso":"RS"},"geometry":{"type":"Point","coordinates":[21.23771,42.83505]}},{"type":"Feature","properties":{"country_en":"Serbia","name":"Bistrica","name_adm0":"Serbia","name_adm1":"Zlatibor","name_en":"Bistrica","iso":"RS"},"geometry":{"type":"Point","coordinates":[19.656179999999996,43.46919]}},{"type":"Feature","properties":{"country_en":"Serbia","name":"Banja","name_adm0":"Serbia","name_adm1":"Zlatibor","name_en":"Banja","iso":"RS"},"geometry":{"type":"Point","coordinates":[19.676259999999996,43.85119]}},{"type":"Feature","properties":{"country_en":"Serbia","name":"Baranda","name_adm0":"Serbia","name_adm1":"Juzhni Banat","name_en":"Baranda","iso":"RS"},"geometry":{"type":"Point","coordinates":[20.442639999999997,45.08459]}},{"type":"Feature","properties":{"country_en":"Serbia","name":"Banja","name_adm0":"Serbia","name_adm1":"Prizren","name_en":"Banja","iso":"RS"},"geometry":{"type":"Point","coordinates":[20.6725,42.81417]}},{"type":"Feature","properties":{"country_en":"Serbia","name":"Banja Koviljača","name_adm0":"Serbia","name_adm1":"Machva","name_en":"Banja Koviljača","iso":"RS"},"geometry":{"type":"Point","coordinates":[19.15278,44.51464]}},{"type":"Feature","properties":{"country_en":"Serbia","name":"Banjani","name_adm0":"Serbia","name_adm1":"Kolubara","name_en":"Banjane","iso":"RS"},"geometry":{"type":"Point","coordinates":[19.980329999999995,44.53774]}},{"type":"Feature","properties":{"country_en":"Serbia","name":"Donja Å atornja","name_adm0":"Serbia","name_adm1":"Shumadija","name_en":"Donja Å atornja","iso":"RS"},"geometry":{"type":"Point","coordinates":[20.60205,44.19407999999999]}},{"type":"Feature","properties":{"country_en":"Serbia","name":"Ðurakovac","name_adm0":"Serbia","name_adm1":"Pech","name_en":"Ðurakovac","iso":"RS"},"geometry":{"type":"Point","coordinates":[20.33416,43.21176]}},{"type":"Feature","properties":{"country_en":"Serbia","name":"Erdevik","name_adm0":"Serbia","name_adm1":"Srem","name_en":"Ervenik","iso":"RS"},"geometry":{"type":"Point","coordinates":[19.40881,45.11721]}},{"type":"Feature","properties":{"country_en":"Serbia","name":"Gornja Gorevnica","name_adm0":"Serbia","name_adm1":"Moravica","name_en":"Gornja Gorijevnica","iso":"RS"},"geometry":{"type":"Point","coordinates":[20.288689999999995,43.96341]}},{"type":"Feature","properties":{"country_en":"Serbia","name":"Gornja Klina","name_adm0":"Serbia","name_adm1":"Kosovska Mitrovica","name_en":"Gornja Klina","iso":"RS"},"geometry":{"type":"Point","coordinates":[20.78333,42.79222]}},{"type":"Feature","properties":{"country_en":"Serbia","name":"Ilandža","name_adm0":"Serbia","name_adm1":"Juzhni Banat","name_en":"Iloncz","iso":"RS"},"geometry":{"type":"Point","coordinates":[20.92008,45.16897]}},{"type":"Feature","properties":{"country_en":"Serbia","name":"Idvor","name_adm0":"Serbia","name_adm1":"Juzhni Banat","name_en":"Idvor","iso":"RS"},"geometry":{"type":"Point","coordinates":[20.51442,45.18896]}},{"type":"Feature","properties":{"country_en":"Serbia","name":"Golubinci","name_adm0":"Serbia","name_adm1":"Srem","name_en":"Golubinci","iso":"RS"},"geometry":{"type":"Point","coordinates":[20.06338,44.98533]}},{"type":"Feature","properties":{"country_en":"Serbia","name":"Ivanjica","name_adm0":"Serbia","name_adm1":"Moravica","name_en":"Ivanjica","iso":"RS"},"geometry":{"type":"Point","coordinates":[19.63219,43.47672]}},{"type":"Feature","properties":{"country_en":"Serbia","name":"Kljajićevo","name_adm0":"Serbia","name_adm1":"Zapadna Bachka","name_en":"Kernyaja","iso":"RS"},"geometry":{"type":"Point","coordinates":[19.27696,45.77036]}},{"type":"Feature","properties":{"country_en":"Serbia","name":"Kupinovo","name_adm0":"Serbia","name_adm1":"Srem","name_en":"Kupinovo","iso":"RS"},"geometry":{"type":"Point","coordinates":[20.04958,44.70707999999999]}},{"type":"Feature","properties":{"country_en":"Serbia","name":"Kumane","name_adm0":"Serbia","name_adm1":"Srednji Banat","name_en":"Kumani","iso":"RS"},"geometry":{"type":"Point","coordinates":[20.22902,45.53946]}},{"type":"Feature","properties":{"country_en":"Serbia","name":"Krstur","name_adm0":"Serbia","name_adm1":"Severni Banat","name_en":"Srpski Krstur","iso":"RS"},"geometry":{"type":"Point","coordinates":[20.09268,46.12836]}},{"type":"Feature","properties":{"country_en":"Serbia","name":"Klenje","name_adm0":"Serbia","name_adm1":"Machva","name_en":"Klenje","iso":"RS"},"geometry":{"type":"Point","coordinates":[19.43508,44.80794]}},{"type":"Feature","properties":{"country_en":"Serbia","name":"Kupci","name_adm0":"Serbia","name_adm1":"Rasina","name_en":"Kupci","iso":"RS"},"geometry":{"type":"Point","coordinates":[21.1396,43.34396]}},{"type":"Feature","properties":{"country_en":"Serbia","name":"Ležimir","name_adm0":"Serbia","name_adm1":"Srem","name_en":"Ležimir","iso":"RS"},"geometry":{"type":"Point","coordinates":[19.57068,45.12315]}},{"type":"Feature","properties":{"country_en":"Serbia","name":"Lozovik","name_adm0":"Serbia","name_adm1":"Podunavlje","name_en":"Lozovik","iso":"RS"},"geometry":{"type":"Point","coordinates":[21.10154,44.46731]}},{"type":"Feature","properties":{"country_en":"Serbia","name":"Lukovo","name_adm0":"Serbia","name_adm1":"Toplica","name_en":"Lukovo","iso":"RS"},"geometry":{"type":"Point","coordinates":[21.04496,43.17227999999999]}},{"type":"Feature","properties":{"country_en":"Serbia","name":"Mihajlovac","name_adm0":"Serbia","name_adm1":"Podunavlje","name_en":"Mihajlovac","iso":"RS"},"geometry":{"type":"Point","coordinates":[20.97315,44.54377]}},{"type":"Feature","properties":{"country_en":"Serbia","name":"Miroµevce","name_adm0":"Serbia","name_adm1":"Jablanica","name_en":"Miroµevce","iso":"RS"},"geometry":{"type":"Point","coordinates":[21.8381,42.86552]}},{"type":"Feature","properties":{"country_en":"Serbia","name":"Rekovac","name_adm0":"Serbia","name_adm1":"Pomoravlje","name_en":"Rekovac","iso":"RS"},"geometry":{"type":"Point","coordinates":[20.81389,44.43389]}},{"type":"Feature","properties":{"country_en":"Serbia","name":"Ribare","name_adm0":"Serbia","name_adm1":"Pomoravlje","name_en":"Ribare","iso":"RS"},"geometry":{"type":"Point","coordinates":[21.67122,44.234669999999994]}},{"type":"Feature","properties":{"country_en":"Serbia","name":"Sefkerin","name_adm0":"Serbia","name_adm1":"Juzhni Banat","name_en":"Sevkerin","iso":"RS"},"geometry":{"type":"Point","coordinates":[20.48256,45.00501]}},{"type":"Feature","properties":{"country_en":"Serbia","name":"Selenča","name_adm0":"Serbia","name_adm1":"Juzhna Bachka","name_en":"Selenča","iso":"RS"},"geometry":{"type":"Point","coordinates":[19.30022,45.40957999999999]}},{"type":"Feature","properties":{"country_en":"Serbia","name":"Senje","name_adm0":"Serbia","name_adm1":"Pomoravlje","name_en":"Senj","iso":"RS"},"geometry":{"type":"Point","coordinates":[21.483589999999996,43.96506999999999]}},{"type":"Feature","properties":{"country_en":"Serbia","name":"Slatina","name_adm0":"Serbia","name_adm1":"Bor","name_en":"Slatina","iso":"RS"},"geometry":{"type":"Point","coordinates":[22.45517,44.41214]}},{"type":"Feature","properties":{"country_en":"Serbia","name":"Sliµane","name_adm0":"Serbia","name_adm1":"Jablanica","name_en":"Sliµane","iso":"RS"},"geometry":{"type":"Point","coordinates":[21.593699999999995,42.956739999999996]}},{"type":"Feature","properties":{"country_en":"Serbia","name":"Srpski Miletić","name_adm0":"Serbia","name_adm1":"Zapadna Bachka","name_en":"Srpski Miletić","iso":"RS"},"geometry":{"type":"Point","coordinates":[19.20378,45.55942]}},{"type":"Feature","properties":{"country_en":"Serbia","name":"Studenčane","name_adm0":"Serbia","name_adm1":"Prizren","name_en":"Studenčane","iso":"RS"},"geometry":{"type":"Point","coordinates":[20.75861,42.35860999999999]}},{"type":"Feature","properties":{"country_en":"Serbia","name":"Kanjiža","name_adm0":"Serbia","name_adm1":"Severni Banat","name_en":"Magyarkanizsa","iso":"RS"},"geometry":{"type":"Point","coordinates":[20.054119,46.060009]}},{"type":"Feature","properties":{"country_en":"Serbia","name":"Kikinda","name_adm0":"Serbia","name_adm1":"Severni Banat","name_en":"Chichinda Mare","iso":"RS"},"geometry":{"type":"Point","coordinates":[20.405069,45.8567]}},{"type":"Feature","properties":{"country_en":"Serbia","name":"Niµka Banja","name_adm0":"Serbia","name_adm1":"Nishava","name_en":"Niµka Banja","iso":"RS"},"geometry":{"type":"Point","coordinates":[21.993254999999998,43.282141]}},{"type":"Feature","properties":{"country_en":"Serbia","name":"Paraćin","name_adm0":"Serbia","name_adm1":"Pomoravlje","name_en":"Paraćin","iso":"RS"},"geometry":{"type":"Point","coordinates":[21.411752,43.869435]}},{"type":"Feature","properties":{"country_en":"Serbia","name":"Prijepolje","name_adm0":"Serbia","name_adm1":"Zlatibor","name_en":"Prijepolje","iso":"RS"},"geometry":{"type":"Point","coordinates":[19.643554,43.390079]}},{"type":"Feature","properties":{"country_en":"Serbia","name":"Raµka","name_adm0":"Serbia","name_adm1":"Rashka","name_en":"Raµka","iso":"RS"},"geometry":{"type":"Point","coordinates":[20.619878,43.29631]}},{"type":"Feature","properties":{"country_en":"Serbia","name":"Bački Monoštor","name_adm0":"Serbia","name_adm1":"Zapadna Bachka","name_en":"Bački Monoštor","iso":"RS"},"geometry":{"type":"Point","coordinates":[18.93402,45.79441]}},{"type":"Feature","properties":{"country_en":"Serbia","name":"Sombor","name_adm0":"Serbia","name_adm1":"Zapadna Bachka","name_adm2":"Sombor","name_en":"Sombor","iso":"RS"},"geometry":{"type":"Point","coordinates":[19.112219999999997,45.77417]}},{"type":"Feature","properties":{"country_en":"Serbia","name":"Riðica","name_adm0":"Serbia","name_adm1":"Zapadna Bachka","name_en":"Ridjica","iso":"RS"},"geometry":{"type":"Point","coordinates":[19.10635,45.99088]}},{"type":"Feature","properties":{"country_en":"Serbia","name":"Bač","name_adm0":"Serbia","name_adm1":"Juzhna Bachka","name_en":"Bač","iso":"RS"},"geometry":{"type":"Point","coordinates":[19.241352,45.3913975]}},{"type":"Feature","properties":{"country_en":"Serbia","name":"Hum","name_adm0":"Serbia","name_adm1":"Nishava","name_en":"Hum","iso":"RS"},"geometry":{"type":"Point","coordinates":[21.89976,43.37442999999999]}},{"type":"Feature","properties":{"country_en":"Serbia","name":"Sićevo","name_adm0":"Serbia","name_adm1":"Nishava","name_en":"Sićevo","iso":"RS"},"geometry":{"type":"Point","coordinates":[22.0841,43.34093]}},{"type":"Feature","properties":{"country_en":"Serbia","name":"Boðani","name_adm0":"Serbia","name_adm1":"Juzhna Bachka","name_en":"Bodjani","iso":"RS"},"geometry":{"type":"Point","coordinates":[19.10665,45.38958]}},{"type":"Feature","properties":{"country_en":"Serbia","name":"Boljkovci","name_adm0":"Serbia","name_adm1":"Moravica","name_en":"Boljkovci","iso":"RS"},"geometry":{"type":"Point","coordinates":[20.34556,44.14355]}},{"type":"Feature","properties":{"country_en":"Serbia","name":"Boµnjace","name_adm0":"Serbia","name_adm1":"Jablanica","name_en":"Boµnjace","iso":"RS"},"geometry":{"type":"Point","coordinates":[21.827149999999996,42.94635]}},{"type":"Feature","properties":{"country_en":"Serbia","name":"Bresaljce","name_adm0":"Serbia","name_adm1":"Kosovsko Pomoravlje","name_en":"Bresaljce","iso":"RS"},"geometry":{"type":"Point","coordinates":[21.40431,42.50152]}},{"type":"Feature","properties":{"country_en":"Serbia","name":"Brestovac","name_adm0":"Serbia","name_adm1":"Jablanica","name_en":"Brestovac","iso":"RS"},"geometry":{"type":"Point","coordinates":[21.87772,43.15319]}},{"type":"Feature","properties":{"country_en":"Serbia","name":"Gleðica","name_adm0":"Serbia","name_adm1":"Moravica","name_en":"Gledjica","iso":"RS"},"geometry":{"type":"Point","coordinates":[19.74089,43.88527]}},{"type":"Feature","properties":{"country_en":"Serbia","name":"Glogonj","name_adm0":"Serbia","name_adm1":"Juzhni Banat","name_en":"Glogonj","iso":"RS"},"geometry":{"type":"Point","coordinates":[20.52753,44.98644]}},{"type":"Feature","properties":{"country_en":"Serbia","name":"Glogovac","name_adm0":"Serbia","name_adm1":"Pomoravlje","name_en":"Glogovac","iso":"RS"},"geometry":{"type":"Point","coordinates":[21.3134,44.04213]}},{"type":"Feature","properties":{"country_en":"Serbia","name":"Gojna Gora","name_adm0":"Serbia","name_adm1":"Zlatibor","name_en":"Gojna Gora","iso":"RS"},"geometry":{"type":"Point","coordinates":[19.66889,43.03111]}},{"type":"Feature","properties":{"country_en":"Serbia","name":"Kamenica","name_adm0":"Serbia","name_adm1":"Kosovsko Pomoravlje","name_en":"Kamenica","iso":"RS"},"geometry":{"type":"Point","coordinates":[21.216389999999997,42.26417]}},{"type":"Feature","properties":{"country_en":"Serbia","name":"Kočane","name_adm0":"Serbia","name_adm1":"Nishava","name_en":"Kočane","iso":"RS"},"geometry":{"type":"Point","coordinates":[21.83486,43.1862]}},{"type":"Feature","properties":{"country_en":"Serbia","name":"Malča","name_adm0":"Serbia","name_adm1":"Nishava","name_en":"Malča","iso":"RS"},"geometry":{"type":"Point","coordinates":[22.03122,43.33428]}},{"type":"Feature","properties":{"country_en":"Serbia","name":"Markovac","name_adm0":"Serbia","name_adm1":"Juzhni Banat","name_en":"Markovac","iso":"RS"},"geometry":{"type":"Point","coordinates":[21.47242,45.14963999999999]}},{"type":"Feature","properties":{"country_en":"Serbia","name":"Mramorak","name_adm0":"Serbia","name_adm1":"Juzhni Banat","name_en":"Mtamorak","iso":"RS"},"geometry":{"type":"Point","coordinates":[20.97088,44.88021]}},{"type":"Feature","properties":{"country_en":"Serbia","name":"Mustapić","name_adm0":"Serbia","name_adm1":"Branichevo","name_en":"Mustapić","iso":"RS"},"geometry":{"type":"Point","coordinates":[21.53808,44.53116]}},{"type":"Feature","properties":{"country_en":"Serbia","name":"Ribariće","name_adm0":"Serbia","name_adm1":"Rashka","name_en":"Ribariće","iso":"RS"},"geometry":{"type":"Point","coordinates":[20.4697,42.97072]}},{"type":"Feature","properties":{"country_en":"Serbia","name":"Ribnica","name_adm0":"Serbia","name_adm1":"Rashka","name_en":"Ribnica","iso":"RS"},"geometry":{"type":"Point","coordinates":[20.68986,43.7132]}},{"type":"Feature","properties":{"country_en":"Serbia","name":"Sevojno","name_adm0":"Serbia","name_adm1":"Zlatibor","name_en":"Sevojno","iso":"RS"},"geometry":{"type":"Point","coordinates":[19.910749999999997,43.8496]}},{"type":"Feature","properties":{"country_en":"Serbia","name":"Stara Moravica","name_adm0":"Serbia","name_adm1":"Severna Bachka","name_en":"Staro Moravice","iso":"RS"},"geometry":{"type":"Point","coordinates":[19.46719,45.86954]}},{"type":"Feature","properties":{"country_en":"Serbia","name":"Stragari","name_adm0":"Serbia","name_adm1":"Shumadija","name_en":"Stragari","iso":"RS"},"geometry":{"type":"Point","coordinates":[20.66126,44.153349999999996]}},{"type":"Feature","properties":{"country_en":"Serbia","name":"Straža","name_adm0":"Serbia","name_adm1":"Juzhni Banat","name_en":"Temes-Strazsa","iso":"RS"},"geometry":{"type":"Point","coordinates":[21.30193,44.97513]}},{"type":"Feature","properties":{"country_en":"Serbia","name":"Strezovce","name_adm0":"Serbia","name_adm1":"Pchinja","name_en":"Strezovce","iso":"RS"},"geometry":{"type":"Point","coordinates":[21.889169999999996,42.14667]}},{"type":"Feature","properties":{"country_en":"Serbia","name":"Strmosten","name_adm0":"Serbia","name_adm1":"Pomoravlje","name_en":"Strmosten","iso":"RS"},"geometry":{"type":"Point","coordinates":[21.59037,44.10399]}},{"type":"Feature","properties":{"country_en":"Serbia","name":"Trstenik","name_adm0":"Serbia","name_adm1":"Kosovo","name_en":"Trstenik","iso":"RS"},"geometry":{"type":"Point","coordinates":[21.25472,42.34638999999999]}},{"type":"Feature","properties":{"country_en":"Serbia","name":"Ušće","name_adm0":"Serbia","name_adm1":"Rashka","name_en":"Ušće","iso":"RS"},"geometry":{"type":"Point","coordinates":[20.61465,43.4675]}},{"type":"Feature","properties":{"country_en":"Serbia","name":"Veliko Selo","name_adm0":"Serbia","name_adm1":"Branichevo","name_en":"Veliko Selo","iso":"RS"},"geometry":{"type":"Point","coordinates":[21.29407,44.49192]}},{"type":"Feature","properties":{"country_en":"Serbia","name":"Bovan","name_adm0":"Serbia","name_adm1":"Nishava","name_en":"Bovan","iso":"RS"},"geometry":{"type":"Point","coordinates":[21.719339999999995,43.63464]}},{"type":"Feature","properties":{"country_en":"Serbia","name":"Vitanovac","name_adm0":"Serbia","name_adm1":"Rashka","name_en":"Vitanovac","iso":"RS"},"geometry":{"type":"Point","coordinates":[20.79944,43.726389999999995]}},{"type":"Feature","properties":{"country_en":"Serbia","name":"Vodanj","name_adm0":"Serbia","name_adm1":"Podunavlje","name_en":"Vodanj","iso":"RS"},"geometry":{"type":"Point","coordinates":[20.85263,44.60963]}},{"type":"Feature","properties":{"country_en":"Serbia","name":"Zaglavak","name_adm0":"Serbia","name_adm1":"Zlatibor","name_en":"Zaglavak","iso":"RS"},"geometry":{"type":"Point","coordinates":[19.71638,43.94156]}},{"type":"Feature","properties":{"country_en":"Serbia","name":"Zagraðe","name_adm0":"Serbia","name_adm1":"Moravica","name_en":"Zagraðe","iso":"RS"},"geometry":{"type":"Point","coordinates":[20.43812,44.169]}},{"type":"Feature","properties":{"country_en":"Serbia","name":"Zdravinje","name_adm0":"Serbia","name_adm1":"Rasina","name_en":"Zdravinje","iso":"RS"},"geometry":{"type":"Point","coordinates":[21.446029999999997,43.4982]}},{"type":"Feature","properties":{"country_en":"Serbia","name":"Žegra","name_adm0":"Serbia","name_adm1":"Kosovsko Pomoravlje","name_en":"Žegra","iso":"RS"},"geometry":{"type":"Point","coordinates":[21.484999999999996,42.37056]}},{"type":"Feature","properties":{"country_en":"Serbia","name":"Zjum","name_adm0":"Serbia","name_adm1":"Prizren","name_en":"Zimbi","iso":"RS"},"geometry":{"type":"Point","coordinates":[20.62556,42.2725]}},{"type":"Feature","properties":{"country_en":"Serbia","name":"Zlot","name_adm0":"Serbia","name_adm1":"Bor","name_en":"Zlot","iso":"RS"},"geometry":{"type":"Point","coordinates":[21.9855,44.00853]}},{"type":"Feature","properties":{"country_en":"Serbia","name":"Srednji Banat","name_adm0":"Serbia","name_adm1":"Srednji Banat","name_en":"Srednji Banat","iso":"RS"},"geometry":{"type":"Point","coordinates":[20.401611,45.367584]}},{"type":"Feature","properties":{"country_en":"Serbia","name":"Branichevo","name_adm0":"Serbia","name_adm1":"Branichevo","name_en":"Branichevo","iso":"RS"},"geometry":{"type":"Point","coordinates":[21.714477,44.656931]}},{"type":"Feature","properties":{"country_en":"Serbia","name":"Pirot","name_adm0":"Serbia","name_adm1":"Pirot","name_en":"Pirot","iso":"RS"},"geometry":{"type":"Point","coordinates":[22.62042,43.137069]}},{"type":"Feature","properties":{"country_en":"Serbia","name":"Kosovo","name_adm0":"Serbia","name_adm1":"Kosovo","name_en":"Kosovo","iso":"RS"},"geometry":{"type":"Point","coordinates":[21.137695,42.654160999999995]}},{"type":"Feature","properties":{"country_en":"Serbia","name":"Machva","name_adm0":"Serbia","name_adm1":"Machva","name_en":"Machva","iso":"RS"},"geometry":{"type":"Point","coordinates":[19.685402,44.932427499999996]}},{"type":"Feature","properties":{"country_en":"Serbia","name":"Umka","name_adm0":"Serbia","name_adm1":"Beograd","name_en":"Umka","iso":"RS"},"geometry":{"type":"Point","coordinates":[20.304719999999996,44.67806]}},{"type":"Feature","properties":{"country_en":"Serbia","name":"Novi Slankamen","name_adm0":"Serbia","name_adm1":"Srem","name_en":"Slankamen","iso":"RS"},"geometry":{"type":"Point","coordinates":[20.23914,45.12554]}},{"type":"Feature","properties":{"country_en":"Serbia","name":"Kikinda","name_adm0":"Serbia","name_adm1":"Severni Banat","name_adm2":"Kikinda","name_en":"Kikinda","iso":"RS"},"geometry":{"type":"Point","coordinates":[20.46528,45.82972]}},{"type":"Feature","properties":{"country_en":"Serbia","name":"Serbia","name_adm0":"Serbia","name_en":"Serbia","iso":"RS"},"geometry":{"type":"Point","coordinates":[20.910789,44.04980799999999]}},{"type":"Feature","properties":{"country_en":"Serbia","name":"Kučevo","name_adm0":"Serbia","name_adm1":"Branichevo","name_en":"Kučevo","iso":"RS"},"geometry":{"type":"Point","coordinates":[21.637229,44.462333]}},{"type":"Feature","properties":{"country_en":"Serbia","name":"Surčin","name_adm0":"Serbia","name_adm1":"Beograd","name_en":"Surčin","iso":"RS"},"geometry":{"type":"Point","coordinates":[20.2847095,44.7995335]}},{"type":"Feature","properties":{"country_en":"Serbia","name":"Beočin","name_adm0":"Serbia","name_adm1":"Juzhna Bachka","name_en":"Beočin","iso":"RS"},"geometry":{"type":"Point","coordinates":[19.773673999999996,45.186271]}},{"type":"Feature","properties":{"country_en":"Serbia","name":"Bajina Baµta","name_adm0":"Serbia","name_adm1":"Zlatibor","name_en":"Bajina Baµta","iso":"RS"},"geometry":{"type":"Point","coordinates":[19.568195,43.955752999999994]}},{"type":"Feature","properties":{"country_en":"Serbia","name":"Apatin","name_adm0":"Serbia","name_adm1":"Zapadna Bachka","name_en":"Apatin","iso":"RS"},"geometry":{"type":"Point","coordinates":[18.973280999999997,45.668285]}},{"type":"Feature","properties":{"country_en":"Serbia","name":"Bečej","name_adm0":"Serbia","name_adm1":"Juzhna Bachka","name_en":"Becse","iso":"RS"},"geometry":{"type":"Point","coordinates":[20.047479,45.61991999999999]}},{"type":"Feature","properties":{"country_en":"Serbia","name":"Petrovaradin","name_adm0":"Serbia","name_adm1":"Juzhna Bachka","name_en":"Peterwardein","iso":"RS"},"geometry":{"type":"Point","coordinates":[19.873065,45.249753999999996]}},{"type":"Feature","properties":{"country_en":"Serbia","name":"Požarevac","name_adm0":"Serbia","name_adm1":"Branichevo","name_en":"Požarevac","iso":"RS"},"geometry":{"type":"Point","coordinates":[21.185759999999995,44.61423899999999]}},{"type":"Feature","properties":{"country_en":"Serbia","name":"Predejane","name_adm0":"Serbia","name_adm1":"Jablanica","name_en":"Predejane","iso":"RS"},"geometry":{"type":"Point","coordinates":[22.12914,42.83284]}},{"type":"Feature","properties":{"country_en":"Serbia","name":"Braničevo","name_adm0":"Serbia","name_adm1":"Branichevo","name_en":"Braničevo","iso":"RS"},"geometry":{"type":"Point","coordinates":[21.53833,44.70499999999999]}},{"type":"Feature","properties":{"country_en":"Serbia","name":"Brankovina","name_adm0":"Serbia","name_adm1":"Kolubara","name_en":"Brankovina","iso":"RS"},"geometry":{"type":"Point","coordinates":[19.89839,44.346619999999994]}},{"type":"Feature","properties":{"country_en":"Serbia","name":"Gornja Sabanta","name_adm0":"Serbia","name_adm1":"Shumadija","name_en":"Gornja Sabanta","iso":"RS"},"geometry":{"type":"Point","coordinates":[21.00373,43.94195]}},{"type":"Feature","properties":{"country_en":"Serbia","name":"Vrčin","name_adm0":"Serbia","name_adm1":"Beograd","name_en":"Vrčin","iso":"RS"},"geometry":{"type":"Point","coordinates":[20.59325,44.66845]}},{"type":"Feature","properties":{"country_en":"Serbia","name":"Vrhpolje","name_adm0":"Serbia","name_adm1":"Machva","name_en":"Vrhpolje","iso":"RS"},"geometry":{"type":"Point","coordinates":[19.44083,44.14524]}},{"type":"Feature","properties":{"country_en":"Serbia","name":"Vrmbaje","name_adm0":"Serbia","name_adm1":"Moravica","name_en":"Vrmbaje","iso":"RS"},"geometry":{"type":"Point","coordinates":[20.35146,43.50701]}},{"type":"Feature","properties":{"country_en":"Serbia","name":"Bački Petrovac","name_adm0":"Serbia","name_adm1":"Juzhna Bachka","name_en":"Petrovac","iso":"RS"},"geometry":{"type":"Point","coordinates":[19.588108,45.361071]}},{"type":"Feature","properties":{"country_en":"Serbia","name":"Blace","name_adm0":"Serbia","name_adm1":"Toplica","name_en":"Blace","iso":"RS"},"geometry":{"type":"Point","coordinates":[21.332779999999996,42.15222]}},{"type":"Feature","properties":{"country_en":"Serbia","name":"Bor","name_adm0":"Serbia","name_adm1":"Bor","name_en":"Bor","iso":"RS"},"geometry":{"type":"Point","coordinates":[22.09591,44.07488]}},{"type":"Feature","properties":{"country_en":"Serbia","name":"Draginje","name_adm0":"Serbia","name_adm1":"Machva","name_en":"Draginje","iso":"RS"},"geometry":{"type":"Point","coordinates":[19.7625,44.53302]}},{"type":"Feature","properties":{"country_en":"Serbia","name":"Čuprija","name_adm0":"Serbia","name_adm1":"Pomoravlje","name_en":"Čuprija","iso":"RS"},"geometry":{"type":"Point","coordinates":[21.369952999999995,43.937523]}},{"type":"Feature","properties":{"country_en":"Serbia","name":"Dub","name_adm0":"Serbia","name_adm1":"Zlatibor","name_en":"Dub","iso":"RS"},"geometry":{"type":"Point","coordinates":[19.673789999999997,43.954319999999996]}},{"type":"Feature","properties":{"country_en":"Serbia","name":"Sirig","name_adm0":"Serbia","name_adm1":"Juzhna Bachka","name_en":"Sirig","iso":"RS"},"geometry":{"type":"Point","coordinates":[19.81044,45.44026]}},{"type":"Feature","properties":{"country_en":"Serbia","name":"Srbobran","name_adm0":"Serbia","name_adm1":"Juzhna Bachka","name_en":"Srbobran","iso":"RS"},"geometry":{"type":"Point","coordinates":[19.792385,45.551231]}},{"type":"Feature","properties":{"country_en":"Serbia","name":"Niµ","name_adm0":"Serbia","name_adm1":"Nishava","name_en":"Nish","iso":"RS"},"geometry":{"type":"Point","coordinates":[21.895751,43.321805]}},{"type":"Feature","properties":{"country_en":"Serbia","name":"Čačak","name_adm0":"Serbia","name_adm1":"Moravica","name_en":"Čačak","iso":"RS"},"geometry":{"type":"Point","coordinates":[20.344553,43.887825]}},{"type":"Feature","properties":{"country_en":"Serbia","name":"Djakovica","name_adm0":"Serbia","name_adm1":"Pech","name_en":"Djakovo","iso":"RS"},"geometry":{"type":"Point","coordinates":[20.427532,42.395365]}},{"type":"Feature","properties":{"country_en":"Serbia","name":"Knjaževac","name_adm0":"Serbia","name_adm1":"Zajechar","name_en":"Knjaževac","iso":"RS"},"geometry":{"type":"Point","coordinates":[22.256949999999996,43.568451]}},{"type":"Feature","properties":{"country_en":"Serbia","name":"Kosovska Mitrovica","name_adm0":"Serbia","name_adm1":"Kosovska Mitrovica","name_en":"Titova Mitrovica","iso":"RS"},"geometry":{"type":"Point","coordinates":[20.871019,42.895585]}},{"type":"Feature","properties":{"country_en":"Serbia","name":"Nova Pazova","name_adm0":"Serbia","name_adm1":"Srem","name_en":"Nova Pazova","iso":"RS"},"geometry":{"type":"Point","coordinates":[20.246558,44.932891]}},{"type":"Feature","properties":{"country_en":"Serbia","name":"Pančevo","name_adm0":"Serbia","name_adm1":"Juzhni Banat","name_en":"Pantschowa","iso":"RS"},"geometry":{"type":"Point","coordinates":[20.646797,44.873457]}},{"type":"Feature","properties":{"country_en":"Serbia","name":"Prizren","name_adm0":"Serbia","name_adm1":"Prizren","name_en":"Perzerin","iso":"RS"},"geometry":{"type":"Point","coordinates":[20.739719,42.219873]}},{"type":"Feature","properties":{"country_en":"Serbia","name":"Å Abac","name_adm0":"Serbia","name_adm1":"Machva","name_en":"Chabats","iso":"RS"},"geometry":{"type":"Point","coordinates":[19.699001,44.750512]}},{"type":"Feature","properties":{"country_en":"Serbia","name":"Smederevo","name_adm0":"Serbia","name_adm1":"Podunavlje","name_en":"Smedere","iso":"RS"},"geometry":{"type":"Point","coordinates":[20.931336499999997,44.6673705]}},{"type":"Feature","properties":{"country_en":"Serbia","name":"Sombor","name_adm0":"Serbia","name_adm1":"Zapadna Bachka","name_en":"Zombor","iso":"RS"},"geometry":{"type":"Point","coordinates":[19.092199,45.7708155]}},{"type":"Feature","properties":{"country_en":"Serbia","name":"Sremski Karlovci","name_adm0":"Serbia","name_adm1":"Juzhna Bachka","name_en":"Karlowitz","iso":"RS"},"geometry":{"type":"Point","coordinates":[19.934778,45.20175499999999]}},{"type":"Feature","properties":{"country_en":"Serbia","name":"Subotica","name_adm0":"Serbia","name_adm1":"Severna Bachka","name_en":"Zubotica","iso":"RS"},"geometry":{"type":"Point","coordinates":[19.672908,46.098412]}},{"type":"Feature","properties":{"country_en":"Serbia","name":"Temerin","name_adm0":"Serbia","name_adm1":"Juzhna Bachka","name_en":"Temerin","iso":"RS"},"geometry":{"type":"Point","coordinates":[19.833759,45.38451]}},{"type":"Feature","properties":{"country_en":"Serbia","name":"Titovo Užice","name_adm0":"Serbia","name_adm1":"Zlatibor","name_en":"Oujiste","iso":"RS"},"geometry":{"type":"Point","coordinates":[19.841736999999995,43.854861]}},{"type":"Feature","properties":{"country_en":"Serbia","name":"Topčidersko Brdo","name_adm0":"Serbia","name_adm1":"Beograd","name_en":"Topchi Dere","iso":"RS"},"geometry":{"type":"Point","coordinates":[20.459547,44.781758]}},{"type":"Feature","properties":{"country_en":"Serbia","name":"Palić","name_adm0":"Serbia","name_adm1":"Severna Bachka","name_en":"Palics","iso":"RS"},"geometry":{"type":"Point","coordinates":[19.75647,46.10646]}},{"type":"Feature","properties":{"country_en":"Serbia","name":"Rashka","name_adm0":"Serbia","name_adm1":"Rashka","name_en":"Rashka","iso":"RS"},"geometry":{"type":"Point","coordinates":[20.580825499999996,43.312188]}},{"type":"Feature","properties":{"country_en":"Serbia","name":"Kolubara","name_adm0":"Serbia","name_adm1":"Kolubara","name_en":"Kolubara","iso":"RS"},"geometry":{"type":"Point","coordinates":[19.97447,44.112876]}},{"type":"Feature","properties":{"country_en":"Serbia","name":"Zlatibor","name_adm0":"Serbia","name_adm1":"Zlatibor","name_en":"Zlatibor","iso":"RS"},"geometry":{"type":"Point","coordinates":[19.782943,43.643404]}},{"type":"Feature","properties":{"country_en":"Serbia","name":"Rasina","name_adm0":"Serbia","name_adm1":"Rasina","name_en":"Rasina","iso":"RS"},"geometry":{"type":"Point","coordinates":[21.203613,43.504238]}},