{"type":"FeatureCollection","features":[{"type":"Feature","properties":{"country_en":"Slovenia","name":"Čiginj","name_adm0":"Slovenija","name_adm1":"Tolmin","name_adm2":"Tolmin","name_en":"Čiginj","iso":"SI"},"geometry":{"type":"Point","coordinates":[13.716669999999999,46.13333]}},{"type":"Feature","properties":{"country_en":"Slovenia","name":"Lože","name_adm0":"Slovenija","name_adm1":"Ajdovscina","name_adm2":"Vipava","name_en":"Lože","iso":"SI"},"geometry":{"type":"Point","coordinates":[13.938889999999999,45.82778]}},{"type":"Feature","properties":{"country_en":"Slovenia","name":"Lozice","name_adm0":"Slovenija","name_adm1":"Ajdovscina","name_adm2":"Vipava","name_en":"Lozice","iso":"SI"},"geometry":{"type":"Point","coordinates":[13.99778,45.7825]}},{"type":"Feature","properties":{"country_en":"Slovenia","name":"Brežice","name_adm0":"Slovenija","name_adm1":"Brezice","name_adm2":"Brežice","name_en":"Brežice","iso":"SI"},"geometry":{"type":"Point","coordinates":[15.586617,45.938239]}},{"type":"Feature","properties":{"country_en":"Slovenia","name":"Crnomelj","name_adm0":"Slovenija","name_adm1":"Crnomelj","name_adm2":"Crnomelj","name_en":"Crnomelj","iso":"SI"},"geometry":{"type":"Point","coordinates":[15.199583999999998,45.573677]}},{"type":"Feature","properties":{"country_en":"Slovenia","name":"Selo","name_adm0":"Slovenija","name_adm1":"Ljubljana","name_adm2":"Dobrova-Polhov Gradec","name_en":"Selo","iso":"SI"},"geometry":{"type":"Point","coordinates":[14.1,46.06667]}},{"type":"Feature","properties":{"country_en":"Slovenia","name":"Odolina","name_adm0":"Slovenija","name_adm1":"Sezana","name_adm2":"Hrpelje-Kozina","name_en":"Odolina","iso":"SI"},"geometry":{"type":"Point","coordinates":[14.333329999999998,46.4]}},{"type":"Feature","properties":{"country_en":"Slovenia","name":"Petrina","name_adm0":"Slovenija","name_adm1":"Kocevje","name_adm2":"Kostel","name_en":"Petrina","iso":"SI"},"geometry":{"type":"Point","coordinates":[15.58333,45.68333]}},{"type":"Feature","properties":{"country_en":"Slovenia","name":"Kocice","name_adm0":"Slovenija","name_adm1":"Ptuj","name_adm2":"Žetale","name_en":"Kocice","iso":"SI"},"geometry":{"type":"Point","coordinates":[16.29777,44.80137]}},{"type":"Feature","properties":{"country_en":"Slovenia","name":"Belica","name_adm0":"Slovenija","name_adm1":"Ljubljana","name_adm2":"Dobrova-Polhov Gradec","name_en":"Belica","iso":"SI"},"geometry":{"type":"Point","coordinates":[13.915,46.47833]}},{"type":"Feature","properties":{"country_en":"Slovenia","name":"Šmartno ob Paki","name_adm0":"Slovenija","name_adm1":"Velenje","name_adm2":"Šmartno ob Paki","name_en":"Šmartno ob Paki","iso":"SI"},"geometry":{"type":"Point","coordinates":[15.095213999999999,46.370828]}},{"type":"Feature","properties":{"country_en":"Slovenia","name":"Kobarid","name_adm0":"Slovenija","name_adm1":"Tolmin","name_adm2":"Kobarid","name_en":"Kobarid","iso":"SI"},"geometry":{"type":"Point","coordinates":[13.705444,46.29761]}},{"type":"Feature","properties":{"country_en":"Slovenia","name":"Lokovica","name_adm0":"Slovenija","name_adm1":"Ravne Na Koroskem","name_adm2":"Prevalje","name_en":"Lokovica","iso":"SI"},"geometry":{"type":"Point","coordinates":[14.08333,46.15]}},{"type":"Feature","properties":{"country_en":"Slovenia","name":"Podrecje","name_adm0":"Slovenija","name_adm1":"Domzale","name_adm2":"Domžale","name_en":"Podrecje","iso":"SI"},"geometry":{"type":"Point","coordinates":[14.28333,46.3]}},{"type":"Feature","properties":{"country_en":"Slovenia","name":"Loka Pri Zidanem Mostu","name_adm0":"Slovenija","name_adm1":"Sevnica","name_adm2":"Sevnica","name_en":"Loka Pri Zidanem Mostu","iso":"SI"},"geometry":{"type":"Point","coordinates":[15.207219999999998,46.0575]}},{"type":"Feature","properties":{"country_en":"Slovenia","name":"Golobi","name_adm0":"Slovenija","name_adm1":"Tolmin","name_adm2":"Kobarid","name_en":"Golobi","iso":"SI"},"geometry":{"type":"Point","coordinates":[14.544440000000002,45.90972]}},{"type":"Feature","properties":{"country_en":"Slovenia","name":"Sviscaki","name_adm0":"Slovenija","name_adm1":"Ilirska Bistrica","name_adm2":"Ilirska Bistrica","name_en":"Sviscaki","iso":"SI"},"geometry":{"type":"Point","coordinates":[14.442521999999999,45.58491099999999]}},{"type":"Feature","properties":{"country_en":"Slovenia","name":"Zgornji Log","name_adm0":"Slovenija","name_adm1":"Skofja Loka","name_adm2":"Škofja Loka","name_en":"Zgornji Log","iso":"SI"},"geometry":{"type":"Point","coordinates":[14.833329999999998,46.08333]}},{"type":"Feature","properties":{"country_en":"Slovenia","name":"Kote","name_adm0":"Slovenija","name_adm1":"Grosuplje","name_adm2":"Grosuplje","name_en":"Kote","iso":"SI"},"geometry":{"type":"Point","coordinates":[14.483330000000002,46.43943999999999]}},{"type":"Feature","properties":{"country_en":"Slovenia","name":"Prevalje","name_adm0":"Slovenija","name_adm1":"Ravne Na Koroskem","name_adm2":"Prevalje","name_en":"Prevalje","iso":"SI"},"geometry":{"type":"Point","coordinates":[15.03722,46.0275]}},{"type":"Feature","properties":{"country_en":"Slovenia","name":"Zgornje Zreče","name_adm0":"Slovenija","name_adm1":"Slovenske Konjice","name_adm2":"Zrece","name_en":"Zgornje Zreče","iso":"SI"},"geometry":{"type":"Point","coordinates":[15.133329999999999,46.25]}},{"type":"Feature","properties":{"country_en":"Slovenia","name":"Zagrad","name_adm0":"Slovenija","name_adm1":"Celje","name_adm2":"Celje","name_en":"Zagrad","iso":"SI"},"geometry":{"type":"Point","coordinates":[15.249999999999998,45.93332999999999]}},{"type":"Feature","properties":{"country_en":"Slovenia","name":"Dolenja Vas","name_adm0":"Slovenija","name_adm1":"Zagorje Ob Savi","name_adm2":"Zagorje Ob Savi","name_en":"Dolenja Vas","iso":"SI"},"geometry":{"type":"Point","coordinates":[14.75444,45.70611]}},{"type":"Feature","properties":{"country_en":"Slovenia","name":"Gorica","name_adm0":"Slovenija","name_adm1":"Radovljica","name_adm2":"Radovljica","name_en":"Gorica","iso":"SI"},"geometry":{"type":"Point","coordinates":[14.731939999999998,45.84972]}},{"type":"Feature","properties":{"country_en":"Slovenia","name":"Kobdilj","name_adm0":"Slovenija","name_adm1":"Sezana","name_adm2":"Komen","name_en":"Kobdilj","iso":"SI"},"geometry":{"type":"Point","coordinates":[13.85306,45.81639]}},{"type":"Feature","properties":{"country_en":"Slovenia","name":"Cven","name_adm0":"Slovenija","name_adm1":"Ljutomer","name_adm2":"Ljutomer","name_en":"Cven","iso":"SI"},"geometry":{"type":"Point","coordinates":[16.21917,46.54722]}},{"type":"Feature","properties":{"country_en":"Slovenia","name":"Most Na Soči","name_adm0":"Slovenija","name_adm1":"Tolmin","name_adm2":"Tolmin","name_en":"Most Na Soči","iso":"SI"},"geometry":{"type":"Point","coordinates":[13.73889,46.14694]}},{"type":"Feature","properties":{"country_en":"Slovenia","name":"Lesce","name_adm0":"Slovenija","name_adm1":"Radovljica","name_adm2":"Radovljica","name_en":"Lesce","iso":"SI"},"geometry":{"type":"Point","coordinates":[14.15778,46.36110999999999]}},{"type":"Feature","properties":{"country_en":"Slovenia","name":"Brezovica","name_adm0":"Slovenija","name_adm1":"Radovljica","name_adm2":"Radovljica","name_en":"Brezovica","iso":"SI"},"geometry":{"type":"Point","coordinates":[14.21667,46.3]}},{"type":"Feature","properties":{"country_en":"Slovenia","name":"Cerkljanski Vrh","name_adm0":"Slovenija","name_adm1":"Idrija","name_adm2":"Cerkno","name_en":"Cerkljanski Vrh","iso":"SI"},"geometry":{"type":"Point","coordinates":[14,46.1]}},{"type":"Feature","properties":{"country_en":"Slovenia","name":"Cesta","name_adm0":"Slovenija","name_adm1":"Grosuplje","name_adm2":"Dobrepolje","name_en":"Cesta","iso":"SI"},"geometry":{"type":"Point","coordinates":[14.688610000000002,45.86194]}},{"type":"Feature","properties":{"country_en":"Slovenia","name":"Cirknica","name_adm0":"Slovenija","name_adm1":"Pesnica","name_adm2":"Šentilj","name_en":"Cirknica","iso":"SI"},"geometry":{"type":"Point","coordinates":[15.68333,46.666669999999996]}},{"type":"Feature","properties":{"country_en":"Slovenia","name":"Čolnišče","name_adm0":"Slovenija","name_adm1":"Zagorje Ob Savi","name_adm2":"Zagorje Ob Savi","name_en":"Čolnišče","iso":"SI"},"geometry":{"type":"Point","coordinates":[14.96667,46.11667]}},{"type":"Feature","properties":{"country_en":"Slovenia","name":"Dolnji Zemon","name_adm0":"Slovenija","name_adm1":"Ilirska Bistrica","name_adm2":"Ilirska Bistrica","name_en":"Dolnji Zemon","iso":"SI"},"geometry":{"type":"Point","coordinates":[14.26611,45.54806]}},{"type":"Feature","properties":{"country_en":"Slovenia","name":"Domajinci","name_adm0":"Slovenija","name_adm1":"Murska Sobota","name_adm2":"Cankova","name_en":"Domajinci","iso":"SI"},"geometry":{"type":"Point","coordinates":[16.05056,46.74139]}},{"type":"Feature","properties":{"country_en":"Slovenia","name":"Golišče","name_adm0":"Slovenija","name_adm1":"Litija","name_adm2":"Litija","name_en":"Golišče","iso":"SI"},"geometry":{"type":"Point","coordinates":[14.766670000000001,46.06667]}},{"type":"Feature","properties":{"country_en":"Slovenia","name":"Gornji Ivanjci","name_adm0":"Slovenija","name_adm1":"Gornja Radgona","name_adm2":"Gornja Radgona","name_en":"Gornji Ivanjci","iso":"SI"},"geometry":{"type":"Point","coordinates":[15.966669999999999,46.61667]}},{"type":"Feature","properties":{"country_en":"Slovenia","name":"Kazlje","name_adm0":"Slovenija","name_adm1":"Sezana","name_adm2":"Sežana","name_en":"Kazlje","iso":"SI"},"geometry":{"type":"Point","coordinates":[13.9075,45.76167]}},{"type":"Feature","properties":{"country_en":"Slovenia","name":"Kozjane","name_adm0":"Slovenija","name_adm1":"Sezana","name_adm2":"Divaca","name_en":"Kozjane","iso":"SI"},"geometry":{"type":"Point","coordinates":[14.08111,45.61694]}},{"type":"Feature","properties":{"country_en":"Slovenia","name":"Lahov Graben","name_adm0":"Slovenija","name_adm1":"Lasko","name_adm2":"Laško","name_en":"Lahov Graben","iso":"SI"},"geometry":{"type":"Point","coordinates":[15.28333,46.08333]}},{"type":"Feature","properties":{"country_en":"Slovenia","name":"Lancovo","name_adm0":"Slovenija","name_adm1":"Radovljica","name_adm2":"Radovljica","name_en":"Lancovo","iso":"SI"},"geometry":{"type":"Point","coordinates":[14.16667,46.33333]}},{"type":"Feature","properties":{"country_en":"Slovenia","name":"Manžan","name_adm0":"Slovenija","name_adm1":"Koper","name_adm2":"Koper","name_en":"Manžan","iso":"SI"},"geometry":{"type":"Point","coordinates":[13.75444,45.50861]}},{"type":"Feature","properties":{"country_en":"Slovenia","name":"Mostje","name_adm0":"Slovenija","name_adm1":"Lendava","name_adm2":"Lendava","name_en":"Mostje","iso":"SI"},"geometry":{"type":"Point","coordinates":[16.43333,46.61667]}},{"type":"Feature","properties":{"country_en":"Slovenia","name":"Podbeže","name_adm0":"Slovenija","name_adm1":"Ilirska Bistrica","name_adm2":"Ilirska Bistrica","name_en":"Podbeže","iso":"SI"},"geometry":{"type":"Point","coordinates":[14.15333,45.54833]}},{"type":"Feature","properties":{"country_en":"Slovenia","name":"Podkraj","name_adm0":"Slovenija","name_adm1":"Ravne Na Koroskem","name_adm2":"Ravne na Koroškem","name_en":"Podkraj","iso":"SI"},"geometry":{"type":"Point","coordinates":[14.949999999999998,46.51667]}},{"type":"Feature","properties":{"country_en":"Slovenia","name":"Remµnik","name_adm0":"Slovenija","name_adm1":"Radlje Ob Dravi","name_adm2":"Radlje Ob Dravi","name_en":"Remµnik","iso":"SI"},"geometry":{"type":"Point","coordinates":[15.299999999999999,46.61667]}},{"type":"Feature","properties":{"country_en":"Slovenia","name":"Smečice","name_adm0":"Slovenija","name_adm1":"Krsko","name_adm2":"Krško","name_en":"Smečice","iso":"SI"},"geometry":{"type":"Point","coordinates":[15.383329999999999,45.96667]}},{"type":"Feature","properties":{"country_en":"Slovenia","name":"Spodnje Pobrežje","name_adm0":"Slovenija","name_adm1":"Mozirje","name_adm2":"Mozirje","name_en":"Spodnje Pobrežje","iso":"SI"},"geometry":{"type":"Point","coordinates":[14.900000000000002,46.3]}},{"type":"Feature","properties":{"country_en":"Slovenia","name":"Staje","name_adm0":"Slovenija","name_adm1":"Ljubljana","name_adm2":"Ig","name_en":"Staje","iso":"SI"},"geometry":{"type":"Point","coordinates":[14.51583,45.956109999999995]}},{"type":"Feature","properties":{"country_en":"Slovenia","name":"Staveµinci","name_adm0":"Slovenija","name_adm1":"Gornja Radgona","name_adm2":"Gornja Radgona","name_en":"Staveµinci","iso":"SI"},"geometry":{"type":"Point","coordinates":[15.98333,46.61667]}},{"type":"Feature","properties":{"country_en":"Slovenia","name":"Temenica","name_adm0":"Slovenija","name_adm1":"Grosuplje","name_adm2":"Ivancna Gorica","name_en":"Temenica","iso":"SI"},"geometry":{"type":"Point","coordinates":[14.894169999999999,45.9625]}},{"type":"Feature","properties":{"country_en":"Slovenia","name":"Vidonci","name_adm0":"Slovenija","name_adm1":"Murska Sobota","name_adm2":"Grad","name_en":"Vidonci","iso":"SI"},"geometry":{"type":"Point","coordinates":[16.13611,46.813889999999994]}},{"type":"Feature","properties":{"country_en":"Slovenia","name":"Vrbovec","name_adm0":"Slovenija","name_adm1":"Kocevje","name_adm2":"Kocevje","name_en":"Vrbovec","iso":"SI"},"geometry":{"type":"Point","coordinates":[14.83917,45.72722]}},{"type":"Feature","properties":{"country_en":"Slovenia","name":"Zamostec","name_adm0":"Slovenija","name_adm1":"Ribnica","name_adm2":"Sodražica","name_en":"Zamostec","iso":"SI"},"geometry":{"type":"Point","coordinates":[14.64778,45.75833]}},{"type":"Feature","properties":{"country_en":"Slovenia","name":"Zgornja Pohanca","name_adm0":"Slovenija","name_adm1":"Brezice","name_adm2":"Brežice","name_en":"Zgornja Pohanca","iso":"SI"},"geometry":{"type":"Point","coordinates":[15.566669999999998,45.98333]}},{"type":"Feature","properties":{"country_en":"Slovenia","name":"Zgornje Dobrenje","name_adm0":"Slovenija","name_adm1":"Pesnica","name_adm2":"Šentilj","name_en":"Zgornje Dobrenje","iso":"SI"},"geometry":{"type":"Point","coordinates":[15.666669999999998,46.63333]}},{"type":"Feature","properties":{"country_en":"Slovenia","name":"Borµt","name_adm0":"Slovenija","name_adm1":"Koper","name_adm2":"Koper","name_en":"Borµt","iso":"SI"},"geometry":{"type":"Point","coordinates":[14.05278,45.30694]}},{"type":"Feature","properties":{"country_en":"Slovenia","name":"Brestovica Pri Povirju","name_adm0":"Slovenija","name_adm1":"Sezana","name_adm2":"Sežana","name_en":"Brestovica Pri Povirju","iso":"SI"},"geometry":{"type":"Point","coordinates":[13.945,45.71472]}},{"type":"Feature","properties":{"country_en":"Slovenia","name":"Breze","name_adm0":"Slovenija","name_adm1":"Lasko","name_adm2":"Laško","name_en":"Breze","iso":"SI"},"geometry":{"type":"Point","coordinates":[15.35056,46.165279999999996]}},{"type":"Feature","properties":{"country_en":"Slovenia","name":"Brje Pri Koprivi","name_adm0":"Slovenija","name_adm1":"Sezana","name_adm2":"Sežana","name_en":"Brje Pri Koprivi","iso":"SI"},"geometry":{"type":"Point","coordinates":[13.84194,45.7775]}},{"type":"Feature","properties":{"country_en":"Slovenia","name":"Čelje","name_adm0":"Slovenija","name_adm1":"Ilirska Bistrica","name_adm2":"Ilirska Bistrica","name_en":"Čelje","iso":"SI"},"geometry":{"type":"Point","coordinates":[14.15464,45.59161]}},{"type":"Feature","properties":{"country_en":"Slovenia","name":"Donačka Gora","name_adm0":"Slovenija","name_adm1":"Smarje Pri Jelsah","name_adm2":"Rogatec","name_en":"Donačka Gora","iso":"SI"},"geometry":{"type":"Point","coordinates":[15.73333,46.25]}},{"type":"Feature","properties":{"country_en":"Slovenia","name":"Dražgoše","name_adm0":"Slovenija","name_adm1":"Skofja Loka","name_adm2":"Železniki","name_en":"Dražgoše","iso":"SI"},"geometry":{"type":"Point","coordinates":[14.18333,46.25]}},{"type":"Feature","properties":{"country_en":"Slovenia","name":"Hotavlje","name_adm0":"Slovenija","name_adm1":"Skofja Loka","name_adm2":"Gorenja Vas-Poljane","name_en":"Hotavlje","iso":"SI"},"geometry":{"type":"Point","coordinates":[14.118609999999999,46.11222]}},{"type":"Feature","properties":{"country_en":"Slovenia","name":"Kopačnica","name_adm0":"Slovenija","name_adm1":"Skofja Loka","name_adm2":"Gorenja Vas-Poljane","name_en":"Kopačnica","iso":"SI"},"geometry":{"type":"Point","coordinates":[14.08333,46.13333]}},{"type":"Feature","properties":{"country_en":"Slovenia","name":"Koprivna","name_adm0":"Slovenija","name_adm1":"Ravne Na Koroskem","name_adm2":"Crna na Koroškem","name_en":"Koprivna","iso":"SI"},"geometry":{"type":"Point","coordinates":[14.749999999999998,46.46667]}},{"type":"Feature","properties":{"country_en":"Slovenia","name":"Kokrica","name_adm0":"Slovenija","name_adm1":"Kranj","name_adm2":"Kranj","name_en":"Kokrica","iso":"SI"},"geometry":{"type":"Point","coordinates":[14.36111,46.27028]}},{"type":"Feature","properties":{"country_en":"Slovenia","name":"Neblo","name_adm0":"Slovenija","name_adm1":"Nova Gorica","name_adm2":"Brda","name_en":"Neblo","iso":"SI"},"geometry":{"type":"Point","coordinates":[13.5,45.99999999999999]}},{"type":"Feature","properties":{"country_en":"Slovenia","name":"Olµevek","name_adm0":"Slovenija","name_adm1":"Kranj","name_adm2":"Šencur","name_en":"Olµevek","iso":"SI"},"geometry":{"type":"Point","coordinates":[14.433329999999998,46.28333]}},{"type":"Feature","properties":{"country_en":"Slovenia","name":"Radovna","name_adm0":"Slovenija","name_adm1":"Radovljica","name_adm2":"Bled","name_en":"Radovna","iso":"SI"},"geometry":{"type":"Point","coordinates":[14.03333,46.4]}},{"type":"Feature","properties":{"country_en":"Slovenia","name":"Raduha","name_adm0":"Slovenija","name_adm1":"Mozirje","name_adm2":"Luce","name_en":"Raduha","iso":"SI"},"geometry":{"type":"Point","coordinates":[14.749999999999998,46.36667]}},{"type":"Feature","properties":{"country_en":"Slovenia","name":"Rajhenav","name_adm0":"Slovenija","name_adm1":"Kocevje","name_adm2":"Kocevje","name_en":"Rajhenav","iso":"SI"},"geometry":{"type":"Point","coordinates":[14.996669999999998,45.63444]}},{"type":"Feature","properties":{"country_en":"Slovenia","name":"Selo","name_adm0":"Slovenija","name_adm1":"Murska Sobota","name_adm2":"Moravske Toplice","name_en":"Selo","iso":"SI"},"geometry":{"type":"Point","coordinates":[16.27889,46.70778]}},{"type":"Feature","properties":{"country_en":"Slovenia","name":"Å Enturska Gora","name_adm0":"Slovenija","name_adm1":"Kranj","name_adm2":"Cerklje Na Gorenjskem","name_en":"Å Enturska Gora","iso":"SI"},"geometry":{"type":"Point","coordinates":[14.54639,46.25889]}},{"type":"Feature","properties":{"country_en":"Slovenia","name":"Å Entvid Pri Zavodnju","name_adm0":"Slovenija","name_adm1":"Velenje","name_adm2":"Šoštanj","name_en":"Å Entvid Pri Zavodnju","iso":"SI"},"geometry":{"type":"Point","coordinates":[14.96667,46.45]}},{"type":"Feature","properties":{"country_en":"Slovenia","name":"Skomarje","name_adm0":"Slovenija","name_adm1":"Slovenske Konjice","name_adm2":"Zrece","name_en":"Skomarje","iso":"SI"},"geometry":{"type":"Point","coordinates":[15.349999999999998,46.4]}},{"type":"Feature","properties":{"country_en":"Slovenia","name":"Å Empeter V Savinjski Dolini","name_adm0":"Slovenija","name_adm1":"Zalec","name_adm2":"Žalec","name_en":"Å Empeter V Savinjski Dolini","iso":"SI"},"geometry":{"type":"Point","coordinates":[15.12194,46.256389999999996]}},{"type":"Feature","properties":{"country_en":"Slovenia","name":"Spodnja Lipnica","name_adm0":"Slovenija","name_adm1":"Radovljica","name_adm2":"Radovljica","name_en":"Spodnja Lipnica","iso":"SI"},"geometry":{"type":"Point","coordinates":[14.16667,46.31667]}},{"type":"Feature","properties":{"country_en":"Slovenia","name":"Spodnje Prebukovje","name_adm0":"Slovenija","name_adm1":"Slovenska Bistrica","name_adm2":"Slovenska Bistrica","name_en":"Spodnje Prebukovje","iso":"SI"},"geometry":{"type":"Point","coordinates":[15.566669999999998,46.41667]}},{"type":"Feature","properties":{"country_en":"Slovenia","name":"Stara Vrhnika","name_adm0":"Slovenija","name_adm1":"Vrhnika","name_adm2":"Vrhnika","name_en":"Stara Vrhnika","iso":"SI"},"geometry":{"type":"Point","coordinates":[14.28111,45.97417]}},{"type":"Feature","properties":{"country_en":"Slovenia","name":"Trebelno","name_adm0":"Slovenija","name_adm1":"Trebnje","name_adm2":"Trebnje","name_en":"Trebelno","iso":"SI"},"geometry":{"type":"Point","coordinates":[15.149999999999999,45.91667]}},{"type":"Feature","properties":{"country_en":"Slovenia","name":"Trebižani","name_adm0":"Slovenija","name_adm1":"Sezana","name_adm2":"Komen","name_en":"Trebižani","iso":"SI"},"geometry":{"type":"Point","coordinates":[13.90667,45.81444]}},{"type":"Feature","properties":{"country_en":"Slovenia","name":"Vuhred","name_adm0":"Slovenija","name_adm1":"Radlje Ob Dravi","name_adm2":"Radlje Ob Dravi","name_en":"Vuhred","iso":"SI"},"geometry":{"type":"Point","coordinates":[15.237499999999999,46.59472]}},{"type":"Feature","properties":{"country_en":"Slovenia","name":"Zavrh Pod Å Marno Goro","name_adm0":"Slovenija","name_adm1":"Ljubljana","name_adm2":"Medvode","name_en":"Zavrh Pod Å Marno Goro","iso":"SI"},"geometry":{"type":"Point","coordinates":[14.46667,46.13333]}},{"type":"Feature","properties":{"country_en":"Slovenia","name":"Ženavlje","name_adm0":"Slovenija","name_adm1":"Murska Sobota","name_adm2":"Gornji Petrovci","name_en":"Ženavlje","iso":"SI"},"geometry":{"type":"Point","coordinates":[16.17306,46.84139]}},{"type":"Feature","properties":{"country_en":"Slovenia","name":"Zgornja Voličina","name_adm0":"Slovenija","name_adm1":"Maribor","name_adm2":"Duplek","name_en":"Zgornja Voličina","iso":"SI"},"geometry":{"type":"Point","coordinates":[15.78333,46.53333]}},{"type":"Feature","properties":{"country_en":"Slovenia","name":"Bača Pri Modreju","name_adm0":"Slovenija","name_adm1":"Tolmin","name_adm2":"Tolmin","name_en":"Bača Pri Modreju","iso":"SI"},"geometry":{"type":"Point","coordinates":[13.76667,46.13333]}},{"type":"Feature","properties":{"country_en":"Slovenia","name":"Kambreµko","name_adm0":"Slovenija","name_adm1":"Nova Gorica","name_adm2":"Kanal","name_en":"Kambreµko","iso":"SI"},"geometry":{"type":"Point","coordinates":[13.65278,46.12832999999999]}},{"type":"Feature","properties":{"country_en":"Slovenia","name":"Polhov Gradec","name_adm0":"Slovenija","name_adm1":"Ljubljana","name_adm2":"Dobrova-Polhov Gradec","name_en":"Polhov Gradec","iso":"SI"},"geometry":{"type":"Point","coordinates":[14.31611,46.06694]}},{"type":"Feature","properties":{"country_en":"Slovenia","name":"Poljane Nad Å Kofjo Loko","name_adm0":"Slovenija","name_adm1":"Skofja Loka","name_adm2":"Gorenja Vas-Poljane","name_en":"Poljane Nad Å Kofjo Loko","iso":"SI"},"geometry":{"type":"Point","coordinates":[14.2,46.13333]}},{"type":"Feature","properties":{"country_en":"Slovenia","name":"Urµlja Gora","name_adm0":"Slovenija","name_adm1":"Ravne Na Koroskem","name_adm2":"Ravne na Koroškem","name_en":"Urµlja Gora","iso":"SI"},"geometry":{"type":"Point","coordinates":[14.933329999999998,46.5]}},{"type":"Feature","properties":{"country_en":"Slovenia","name":"Visoko","name_adm0":"Slovenija","name_adm1":"Kranj","name_adm2":"Šencur","name_en":"Visoko","iso":"SI"},"geometry":{"type":"Point","coordinates":[14.41806,46.27111]}},{"type":"Feature","properties":{"country_en":"Slovenia","name":"Razborca","name_adm0":"Slovenija","name_adm1":"Slovenj Gradec","name_adm2":"Mislinja","name_en":"Razborca","iso":"SI"},"geometry":{"type":"Point","coordinates":[15.18333,46.48333]}},{"type":"Feature","properties":{"country_en":"Slovenia","name":"Cerkvenjak","name_adm0":"Slovenija","name_adm1":"Lenart","name_adm2":"Cerkvenjak","name_en":"Cerkvenjak","iso":"SI"},"geometry":{"type":"Point","coordinates":[15.802781,46.701988]}},{"type":"Feature","properties":{"country_en":"Slovenia","name":"Dobje","name_adm0":"Slovenija","name_adm1":"Sentjur Pri Celju","name_adm2":"Dobje","name_en":"Dobje","iso":"SI"},"geometry":{"type":"Point","coordinates":[15.512694999999999,46.103708]}},{"type":"Feature","properties":{"country_en":"Slovenia","name":"Mrtovec","name_adm0":"Slovenija","name_adm1":"Sevnica","name_adm2":"Sevnica","name_en":"Mrtovec","iso":"SI"},"geometry":{"type":"Point","coordinates":[15.724720000000001,45.785]}},{"type":"Feature","properties":{"country_en":"Slovenia","name":"Vrhek","name_adm0":"Slovenija","name_adm1":"Sevnica","name_adm2":"Sevnica","name_en":"Vrhek","iso":"SI"},"geometry":{"type":"Point","coordinates":[15.03333,46.53333]}},{"type":"Feature","properties":{"country_en":"Slovenia","name":"Senožeti","name_adm0":"Slovenija","name_adm1":"Ljubljana","name_adm2":"Dol Pri Ljubljani","name_en":"Senožeti","iso":"SI"},"geometry":{"type":"Point","coordinates":[14.73306,46.09139]}},{"type":"Feature","properties":{"country_en":"Slovenia","name":"Stari Trg","name_adm0":"Slovenija","name_adm1":"Grosuplje","name_adm2":"Ivancna Gorica","name_en":"Stari Trg","iso":"SI"},"geometry":{"type":"Point","coordinates":[15.077189999999998,45.49358999999999]}},{"type":"Feature","properties":{"country_en":"Slovenia","name":"Zaga","name_adm0":"Slovenija","name_adm1":"Kamnik","name_adm2":"Kamnik","name_en":"Zaga","iso":"SI"},"geometry":{"type":"Point","coordinates":[15.419169999999998,46.08944]}},{"type":"Feature","properties":{"country_en":"Slovenia","name":"Lasce","name_adm0":"Slovenija","name_adm1":"Vrhnika","name_adm2":"Borovnica","name_en":"Lasce","iso":"SI"},"geometry":{"type":"Point","coordinates":[14.948610000000002,45.79056]}},{"type":"Feature","properties":{"country_en":"Slovenia","name":"Podklanec","name_adm0":"Slovenija","name_adm1":"Ribnica","name_adm2":"Sodražica","name_en":"Podklanec","iso":"SI"},"geometry":{"type":"Point","coordinates":[14.58056,45.767779999999995]}},{"type":"Feature","properties":{"country_en":"Slovenia","name":"Cerkljanska Dobrava","name_adm0":"Slovenija","name_adm1":"Kranj","name_adm2":"Cerklje Na Gorenjskem","name_en":"Cerkljanska Dobrava","iso":"SI"},"geometry":{"type":"Point","coordinates":[14.541669999999998,46.23444]}},{"type":"Feature","properties":{"country_en":"Slovenia","name":"Poljane Nad Blagovico","name_adm0":"Slovenija","name_adm1":"Domzale","name_adm2":"Lukovica","name_en":"Poljane Nad Blagovico","iso":"SI"},"geometry":{"type":"Point","coordinates":[14.71667,46.25]}},{"type":"Feature","properties":{"country_en":"Slovenia","name":"Ceplje","name_adm0":"Slovenija","name_adm1":"Mozirje","name_adm2":"Gornji Grad","name_en":"Ceplje","iso":"SI"},"geometry":{"type":"Point","coordinates":[15.05,45.55]}},{"type":"Feature","properties":{"country_en":"Slovenia","name":"Ledinica","name_adm0":"Slovenija","name_adm1":"Skofja Loka","name_adm2":"Žiri","name_en":"Ledinica","iso":"SI"},"geometry":{"type":"Point","coordinates":[15.28333,46.03333]}},{"type":"Feature","properties":{"country_en":"Slovenia","name":"Saksid","name_adm0":"Slovenija","name_adm1":"Nova Gorica","name_adm2":"Nova Gorica","name_en":"Saksid","iso":"SI"},"geometry":{"type":"Point","coordinates":[13.75611,45.87944]}},{"type":"Feature","properties":{"country_en":"Slovenia","name":"Trebija","name_adm0":"Slovenija","name_adm1":"Skofja Loka","name_adm2":"Gorenja Vas-Poljane","name_en":"Trebija","iso":"SI"},"geometry":{"type":"Point","coordinates":[14.10278,46.09806]}},{"type":"Feature","properties":{"country_en":"Slovenia","name":"Slap","name_adm0":"Slovenija","name_adm1":"Trzic","name_adm2":"Tržic","name_en":"Slap","iso":"SI"},"geometry":{"type":"Point","coordinates":[13.93417,45.84082999999999]}},{"type":"Feature","properties":{"country_en":"Slovenia","name":"Koglo","name_adm0":"Slovenija","name_adm1":"Novo Mesto","name_adm2":"Novo Mesto","name_en":"Koglo","iso":"SI"},"geometry":{"type":"Point","coordinates":[15.2,46.71666999999999]}},{"type":"Feature","properties":{"country_en":"Slovenia","name":"Prekorje","name_adm0":"Slovenija","name_adm1":"Celje","name_adm2":"Celje","name_en":"Prekorje","iso":"SI"},"geometry":{"type":"Point","coordinates":[14.81667,46.18333]}},{"type":"Feature","properties":{"country_en":"Slovenia","name":"Vrh","name_adm0":"Slovenija","name_adm1":"Zagorje Ob Savi","name_adm2":"Zagorje Ob Savi","name_en":"Vrh","iso":"SI"},"geometry":{"type":"Point","coordinates":[14.845559999999999,46.15083]}},{"type":"Feature","properties":{"country_en":"Slovenia","name":"Zavrate","name_adm0":"Slovenija","name_adm1":"Lasko","name_adm2":"Radece","name_en":"Zavrate","iso":"SI"},"geometry":{"type":"Point","coordinates":[15.355559999999999,45.94528]}},{"type":"Feature","properties":{"country_en":"Slovenia","name":"Selce","name_adm0":"Slovenija","name_adm1":"Litija","name_adm2":"Litija","name_en":"Selce","iso":"SI"},"geometry":{"type":"Point","coordinates":[14.18944,45.70282]}},{"type":"Feature","properties":{"country_en":"Slovenia","name":"Lipnik","name_adm0":"Slovenija","name_adm1":"Trebnje","name_adm2":"Trebnje","name_en":"Lipnik","iso":"SI"},"geometry":{"type":"Point","coordinates":[15.344719999999999,45.56222]}},{"type":"Feature","properties":{"country_en":"Slovenia","name":"Zakl","name_adm0":"Slovenija","name_adm1":"Zalec","name_adm2":"Braslovce","name_en":"Zakl","iso":"SI"},"geometry":{"type":"Point","coordinates":[15.875559999999998,46.3225]}},{"type":"Feature","properties":{"country_en":"Slovenia","name":"Piresica","name_adm0":"Slovenija","name_adm1":"Velenje","name_adm2":"Velenje","name_en":"Piresica","iso":"SI"},"geometry":{"type":"Point","coordinates":[15.075,45.40056]}},{"type":"Feature","properties":{"country_en":"Slovenia","name":"Gorenje Jesenice","name_adm0":"Slovenija","name_adm1":"Trebnje","name_adm2":"Trebnje","name_en":"Gorenje Jesenice","iso":"SI"},"geometry":{"type":"Point","coordinates":[15.912499999999998,46.20639]}},{"type":"Feature","properties":{"country_en":"Slovenia","name":"Arclin","name_adm0":"Slovenija","name_adm1":"Celje","name_adm2":"Vojnik","name_en":"Arclin","iso":"SI"},"geometry":{"type":"Point","coordinates":[15.303059999999999,46.27444]}},{"type":"Feature","properties":{"country_en":"Slovenia","name":"Vrba","name_adm0":"Slovenija","name_adm1":"Celje","name_adm2":"Dobrna","name_en":"Vrba","iso":"SI"},"geometry":{"type":"Point","coordinates":[15.91964,45.7926]}},{"type":"Feature","properties":{"country_en":"Slovenia","name":"Preveg","name_adm0":"Slovenija","name_adm1":"Litija","name_adm2":"Litija","name_en":"Preveg","iso":"SI"},"geometry":{"type":"Point","coordinates":[15.53361,46.4625]}},{"type":"Feature","properties":{"country_en":"Slovenia","name":"Pavla Vas","name_adm0":"Slovenija","name_adm1":"Sevnica","name_adm2":"Sevnica","name_en":"Pavla Vas","iso":"SI"},"geometry":{"type":"Point","coordinates":[14.583329999999998,46.13333]}},{"type":"Feature","properties":{"country_en":"Slovenia","name":"Ilovca","name_adm0":"Slovenija","name_adm1":"Celje","name_adm2":"Vojnik","name_en":"Ilovca","iso":"SI"},"geometry":{"type":"Point","coordinates":[14.52583,46.02389]}},{"type":"Feature","properties":{"country_en":"Slovenia","name":"Javornik","name_adm0":"Slovenija","name_adm1":"Celje","name_adm2":"Štore","name_en":"Javornik","iso":"SI"},"geometry":{"type":"Point","coordinates":[15.32972,46.191669999999995]}},{"type":"Feature","properties":{"country_en":"Slovenia","name":"Lazina","name_adm0":"Slovenija","name_adm1":"Novo Mesto","name_adm2":"Žužemberk","name_en":"Lazina","iso":"SI"},"geometry":{"type":"Point","coordinates":[15.620279999999998,45.60361]}},{"type":"Feature","properties":{"country_en":"Slovenia","name":"Volcja Jama","name_adm0":"Slovenija","name_adm1":"Litija","name_adm2":"Šmartno pri Litiji","name_en":"Volcja Jama","iso":"SI"},"geometry":{"type":"Point","coordinates":[14.91361,45.86778]}},{"type":"Feature","properties":{"country_en":"Slovenia","name":"Stelnik","name_adm0":"Slovenija","name_adm1":"Kocevje","name_adm2":"Kostel","name_en":"Stelnik","iso":"SI"},"geometry":{"type":"Point","coordinates":[14.460559999999997,45.48417]}},{"type":"Feature","properties":{"country_en":"Slovenia","name":"Cisti Breg","name_adm0":"Slovenija","name_adm1":"Novo Mesto","name_adm2":"Šentjernej","name_en":"Cisti Breg","iso":"SI"},"geometry":{"type":"Point","coordinates":[14.916670000000002,45.68472]}},{"type":"Feature","properties":{"country_en":"Slovenia","name":"Malo Lesce","name_adm0":"Slovenija","name_adm1":"Metlika","name_adm2":"Metlika","name_en":"Malo Lesce","iso":"SI"},"geometry":{"type":"Point","coordinates":[14.815280000000001,45.86861]}},{"type":"Feature","properties":{"country_en":"Slovenia","name":"Hude Ravne","name_adm0":"Slovenija","name_adm1":"Litija","name_adm2":"Litija","name_en":"Hude Ravne","iso":"SI"},"geometry":{"type":"Point","coordinates":[15.038329999999998,46.01221999999999]}},{"type":"Feature","properties":{"country_en":"Slovenia","name":"Repce","name_adm0":"Slovenija","name_adm1":"Trebnje","name_adm2":"Trebnje","name_en":"Repce","iso":"SI"},"geometry":{"type":"Point","coordinates":[14.630829999999998,45.98583]}},{"type":"Feature","properties":{"country_en":"Slovenia","name":"Polana","name_adm0":"Slovenija","name_adm1":"Lasko","name_adm2":"Laško","name_en":"Polana","iso":"SI"},"geometry":{"type":"Point","coordinates":[15.28556,46.084999999999994]}},{"type":"Feature","properties":{"country_en":"Slovenia","name":"Babna Gora","name_adm0":"Slovenija","name_adm1":"Trebnje","name_adm2":"Trebnje","name_en":"Babna Gora","iso":"SI"},"geometry":{"type":"Point","coordinates":[15.499999999999998,46.166669999999996]}},{"type":"Feature","properties":{"country_en":"Slovenia","name":"Ornuska Vas","name_adm0":"Slovenija","name_adm1":"Trebnje","name_adm2":"Trebnje","name_en":"Ornuska Vas","iso":"SI"},"geometry":{"type":"Point","coordinates":[14.635829999999999,45.80971999999999]}},{"type":"Feature","properties":{"country_en":"Slovenia","name":"Radgonica","name_adm0":"Slovenija","name_adm1":"Litija","name_adm2":"Litija","name_en":"Radgonica","iso":"SI"},"geometry":{"type":"Point","coordinates":[15.060829999999997,46.0475]}},{"type":"Feature","properties":{"country_en":"Slovenia","name":"Spodnji Dol","name_adm0":"Slovenija","name_adm1":"Murska Sobota","name_adm2":"Moravske Toplice","name_en":"Spodnji Dol","iso":"SI"},"geometry":{"type":"Point","coordinates":[15.499999999999998,46.58333]}},{"type":"Feature","properties":{"country_en":"Slovenia","name":"Slatina Pri Ponikvi","name_adm0":"Slovenija","name_adm1":"Sentjur Pri Celju","name_adm2":"Šentjur pri Celju","name_en":"Slatina Pri Ponikvi","iso":"SI"},"geometry":{"type":"Point","coordinates":[15.483329999999999,46.28333]}},{"type":"Feature","properties":{"country_en":"Slovenia","name":"Podlipa","name_adm0":"Slovenija","name_adm1":"Krsko","name_adm2":"Krško","name_en":"Podlipa","iso":"SI"},"geometry":{"type":"Point","coordinates":[15.00306,45.84306]}},{"type":"Feature","properties":{"country_en":"Slovenia","name":"Pustike","name_adm0":"Slovenija","name_adm1":"Smarje Pri Jelsah","name_adm2":"Šmarje pri Jelšah","name_en":"Pustike","iso":"SI"},"geometry":{"type":"Point","coordinates":[16.07373,45.59467]}},{"type":"Feature","properties":{"country_en":"Slovenia","name":"Strmec Pri Destrniku","name_adm0":"Slovenija","name_adm1":"Ptuj","name_adm2":"Destrnik","name_en":"Strmec Pri Destrniku","iso":"SI"},"geometry":{"type":"Point","coordinates":[15.88,46.505]}},{"type":"Feature","properties":{"country_en":"Slovenia","name":"Podigrac","name_adm0":"Slovenija","name_adm1":"Pesnica","name_adm2":"Kungota","name_en":"Podigrac","iso":"SI"},"geometry":{"type":"Point","coordinates":[15.133329999999999,46.21667]}},{"type":"Feature","properties":{"country_en":"Slovenia","name":"Dragonja Vas","name_adm0":"Slovenija","name_adm1":"Ptuj","name_adm2":"Kidricevo","name_en":"Dragonja Vas","iso":"SI"},"geometry":{"type":"Point","coordinates":[15.727499999999997,46.38806]}},{"type":"Feature","properties":{"country_en":"Slovenia","name":"Zgornje Gradisce","name_adm0":"Slovenija","name_adm1":"Pesnica","name_adm2":"Šentilj","name_en":"Zgornje Gradisce","iso":"SI"},"geometry":{"type":"Point","coordinates":[15.68611,46.26111]}},{"type":"Feature","properties":{"country_en":"Slovenia","name":"Kamna Gorca","name_adm0":"Slovenija","name_adm1":"Smarje Pri Jelsah","name_adm2":"Rogaška Slatina","name_en":"Kamna Gorca","iso":"SI"},"geometry":{"type":"Point","coordinates":[15.03333,45.9]}},{"type":"Feature","properties":{"country_en":"Slovenia","name":"Pijana Gora","name_adm0":"Slovenija","name_adm1":"Krsko","name_adm2":"Krško","name_en":"Pijana Gora","iso":"SI"},"geometry":{"type":"Point","coordinates":[15.416669999999998,45.1]}},{"type":"Feature","properties":{"country_en":"Slovenia","name":"Moravci V Slov. Goricah","name_adm0":"Slovenija","name_adm1":"Ljutomer","name_adm2":"Ljutomer","name_en":"Moravci V Slov. Goricah","iso":"SI"},"geometry":{"type":"Point","coordinates":[16.02639,46.52222]}},{"type":"Feature","properties":{"country_en":"Slovenia","name":"Mala Gora","name_adm0":"Slovenija","name_adm1":"Slovenske Konjice","name_adm2":"Zrece","name_en":"Mala Gora","iso":"SI"},"geometry":{"type":"Point","coordinates":[14.86833,45.69083]}},{"type":"Feature","properties":{"country_en":"Slovenia","name":"Mihalovci","name_adm0":"Slovenija","name_adm1":"Ormoz","name_adm2":"Ormož","name_en":"Mihalovci","iso":"SI"},"geometry":{"type":"Point","coordinates":[15.649999999999999,45.883329999999994]}},{"type":"Feature","properties":{"country_en":"Slovenia","name":"Brezovec Pri Polju","name_adm0":"Slovenija","name_adm1":"Smarje Pri Jelsah","name_adm2":"Podcetrtek","name_en":"Brezovec Pri Polju","iso":"SI"},"geometry":{"type":"Point","coordinates":[14.996669999999998,46.01139]}},{"type":"Feature","properties":{"country_en":"Slovenia","name":"Gomilci","name_adm0":"Slovenija","name_adm1":"Ptuj","name_adm2":"Destrnik","name_en":"Gomilci","iso":"SI"},"geometry":{"type":"Point","coordinates":[16.31194,46.60333]}},{"type":"Feature","properties":{"country_en":"Slovenia","name":"Celine","name_adm0":"Slovenija","name_adm1":"Krsko","name_adm2":"Krško","name_en":"Celine","iso":"SI"},"geometry":{"type":"Point","coordinates":[16.40472,45.89306]}},{"type":"Feature","properties":{"country_en":"Slovenia","name":"Paridol","name_adm0":"Slovenija","name_adm1":"Sentjur Pri Celju","name_adm2":"Šentjur pri Celju","name_en":"Paridol","iso":"SI"},"geometry":{"type":"Point","coordinates":[15.359169999999999,45.49139]}},{"type":"Feature","properties":{"country_en":"Slovenia","name":"Sentvid Pri Planini","name_adm0":"Slovenija","name_adm1":"Sentjur Pri Celju","name_adm2":"Šentjur pri Celju","name_en":"Sentvid Pri Planini","iso":"SI"},"geometry":{"type":"Point","coordinates":[15.483329999999999,46.23333]}},{"type":"Feature","properties":{"country_en":"Slovenia","name":"Zgornje Jablane","name_adm0":"Slovenija","name_adm1":"Ptuj","name_adm2":"Kidricevo","name_en":"Zgornje Jablane","iso":"SI"},"geometry":{"type":"Point","coordinates":[15.916669999999998,46.56667]}},{"type":"Feature","properties":{"country_en":"Slovenia","name":"Belo","name_adm0":"Slovenija","name_adm1":"Smarje Pri Jelsah","name_adm2":"Šmarje pri Jelšah","name_en":"Belo","iso":"SI"},"geometry":{"type":"Point","coordinates":[15.551939999999998,46.23167]}},{"type":"Feature","properties":{"country_en":"Slovenia","name":"Banuta","name_adm0":"Slovenija","name_adm1":"Lendava","name_adm2":"Lendava","name_en":"Banuta","iso":"SI"},"geometry":{"type":"Point","coordinates":[16.41194,46.6025]}},{"type":"Feature","properties":{"country_en":"Slovenia","name":"Dobje Pri Lesicnem","name_adm0":"Slovenija","name_adm1":"Sentjur Pri Celju","name_adm2":"Šentjur pri Celju","name_en":"Dobje Pri Lesicnem","iso":"SI"},"geometry":{"type":"Point","coordinates":[15.46667,46.11667]}},{"type":"Feature","properties":{"country_en":"Slovenia","name":"Zrnova","name_adm0":"Slovenija","name_adm1":"Gornja Radgona","name_adm2":"Radenci","name_en":"Zrnova","iso":"SI"},"geometry":{"type":"Point","coordinates":[14.63333,46.18333]}},{"type":"Feature","properties":{"country_en":"Slovenia","name":"Strelci","name_adm0":"Slovenija","name_adm1":"Ptuj","name_adm2":"Markovci","name_en":"Strelci","iso":"SI"},"geometry":{"type":"Point","coordinates":[16.560559999999995,46.40167]}},{"type":"Feature","properties":{"country_en":"Slovenia","name":"Varas","name_adm0":"Slovenija","name_adm1":"Murska Sobota","name_adm2":"Rogašovci","name_en":"Varas","iso":"SI"},"geometry":{"type":"Point","coordinates":[15.78333,46.58333]}},{"type":"Feature","properties":{"country_en":"Slovenia","name":"Zlakova","name_adm0":"Slovenija","name_adm1":"Slovenske Konjice","name_adm2":"Zrece","name_en":"Zlakova","iso":"SI"},"geometry":{"type":"Point","coordinates":[15.404169999999999,46.386669999999995]}},{"type":"Feature","properties":{"country_en":"Slovenia","name":"Dolgi Vrh","name_adm0":"Slovenija","name_adm1":"Slovenska Bistrica","name_adm2":"Slovenska Bistrica","name_en":"Dolgi Vrh","iso":"SI"},"geometry":{"type":"Point","coordinates":[14.9325,45.9625]}},{"type":"Feature","properties":{"country_en":"Slovenia","name":"Fost","name_adm0":"Slovenija","name_adm1":"Slovenska Bistrica","name_adm2":"Slovenska Bistrica","name_en":"Fost","iso":"SI"},"geometry":{"type":"Point","coordinates":[15.43333,46.93333]}},{"type":"Feature","properties":{"country_en":"Slovenia","name":"Zgornja Dobrava","name_adm0":"Slovenija","name_adm1":"Celje","name_adm2":"Celje","name_en":"Zgornja Dobrava","iso":"SI"},"geometry":{"type":"Point","coordinates":[14.599999999999998,46.06667]}},{"type":"Feature","properties":{"country_en":"Slovenia","name":"Spodnja Dobrava","name_adm0":"Slovenija","name_adm1":"Celje","name_adm2":"Celje","name_en":"Spodnja Dobrava","iso":"SI"},"geometry":{"type":"Point","coordinates":[14.599999999999998,46.06667]}},{"type":"Feature","properties":{"country_en":"Slovenia","name":"Ravne","name_adm0":"Slovenija","name_adm1":"Sentjur Pri Celju","name_adm2":"Šentjur pri Celju","name_en":"Ravne","iso":"SI"},"geometry":{"type":"Point","coordinates":[15.012779999999998,45.9625]}},{"type":"Feature","properties":{"country_en":"Slovenia","name":"Gorenje Visoko","name_adm0":"Slovenija","name_adm1":"Nova Gorica","name_adm2":"Nova Gorica","name_en":"Gorenje Visoko","iso":"SI"},"geometry":{"type":"Point","coordinates":[13.74778,45.92194]}},{"type":"Feature","properties":{"country_en":"Slovenia","name":"Mocila","name_adm0":"Slovenija","name_adm1":"Nova Gorica","name_adm2":"Kanal","name_en":"Mocila","iso":"SI"},"geometry":{"type":"Point","coordinates":[13.909169999999998,45.59028]}},{"type":"Feature","properties":{"country_en":"Slovenia","name":"Korita","name_adm0":"Slovenija","name_adm1":"Nova Gorica","name_adm2":"Miren-Kostanjevica","name_en":"Korita","iso":"SI"},"geometry":{"type":"Point","coordinates":[13.871109999999998,46.16889]}},{"type":"Feature","properties":{"country_en":"Slovenia","name":"Stari Grad","name_adm0":"Slovenija","name_adm1":"Krsko","name_adm2":"Krško","name_en":"Stari Grad","iso":"SI"},"geometry":{"type":"Point","coordinates":[16.16667,45.48333]}},{"type":"Feature","properties":{"country_en":"Slovenia","name":"Veliki Dol","name_adm0":"Slovenija","name_adm1":"Krsko","name_adm2":"Krško","name_en":"Veliki Dol","iso":"SI"},"geometry":{"type":"Point","coordinates":[15.116669999999997,45.86667]}},{"type":"Feature","properties":{"country_en":"Slovenia","name":"Spodnje Pijavsko","name_adm0":"Slovenija","name_adm1":"Krsko","name_adm2":"Krško","name_en":"Spodnje Pijavsko","iso":"SI"},"geometry":{"type":"Point","coordinates":[15.549999999999999,46.166669999999996]}},{"type":"Feature","properties":{"country_en":"Slovenia","name":"Oresje","name_adm0":"Slovenija","name_adm1":"Litija","name_adm2":"Litija","name_en":"Oresje","iso":"SI"},"geometry":{"type":"Point","coordinates":[15.799999999999999,45.81667]}},{"type":"Feature","properties":{"country_en":"Slovenia","name":"Kurja Vas","name_adm0":"Slovenija","name_adm1":"Litija","name_adm2":"Litija","name_en":"Kurja Vas","iso":"SI"},"geometry":{"type":"Point","coordinates":[15.407780000000002,46.55194]}},{"type":"Feature","properties":{"country_en":"Slovenia","name":"Goricica Pod Krimom","name_adm0":"Slovenija","name_adm1":"Ljubljana","name_adm2":"Brezovica","name_en":"Goricica Pod Krimom","iso":"SI"},"geometry":{"type":"Point","coordinates":[14.379720000000002,45.95194]}},{"type":"Feature","properties":{"country_en":"Slovenia","name":"Podblato","name_adm0":"Slovenija","name_adm1":"Ljubljana","name_adm2":"Škofljica","name_en":"Podblato","iso":"SI"},"geometry":{"type":"Point","coordinates":[14.94056,45.04249999999999]}},{"type":"Feature","properties":{"country_en":"Slovenia","name":"Stuki","name_adm0":"Slovenija","name_adm1":"Ptuj","name_adm2":"Majšperk","name_en":"Stuki","iso":"SI"},"geometry":{"type":"Point","coordinates":[15.765279999999999,45.69971999999999]}},{"type":"Feature","properties":{"country_en":"Slovenia","name":"Oblaki","name_adm0":"Slovenija","name_adm1":"Ptuj","name_adm2":"Juršinci","name_en":"Oblaki","iso":"SI"},"geometry":{"type":"Point","coordinates":[15.47417,45.55778]}},{"type":"Feature","properties":{"country_en":"Slovenia","name":"Pograjena","name_adm0":"Slovenija","name_adm1":"Ptuj","name_adm2":"Videm","name_en":"Pograjena","iso":"SI"},"geometry":{"type":"Point","coordinates":[14.50583,44.62028]}},{"type":"Feature","properties":{"country_en":"Slovenia","name":"Idrija","name_adm0":"Slovenija","name_adm1":"Idrija","name_en":"Idrija","iso":"SI"},"geometry":{"type":"Point","coordinates":[14,45.99999999999999]}},{"type":"Feature","properties":{"country_en":"Slovenia","name":"Dravograd","name_adm0":"Slovenija","name_adm1":"Dravograd","name_en":"Dravograd","iso":"SI"},"geometry":{"type":"Point","coordinates":[15.03333,46.58333]}},{"type":"Feature","properties":{"country_en":"Slovenia","name":"Hrastnik","name_adm0":"Slovenija","name_adm1":"Hrastnik","name_en":"Hrastnik","iso":"SI"},"geometry":{"type":"Point","coordinates":[15.099719999999998,46.13333]}},{"type":"Feature","properties":{"country_en":"Slovenia","name":"Lenart","name_adm0":"Slovenija","name_adm1":"Lenart","name_en":"Lenart","iso":"SI"},"geometry":{"type":"Point","coordinates":[15.81383,46.55799]}},{"type":"Feature","properties":{"country_en":"Slovenia","name":"Kozarsce","name_adm0":"Slovenija","name_adm1":"Tolmin","name_adm2":"Tolmin","name_en":"Kozarsce","iso":"SI"},"geometry":{"type":"Point","coordinates":[14.47083,46.04388999999999]}},{"type":"Feature","properties":{"country_en":"Slovenia","name":"Žalec","name_adm0":"Slovenija","name_adm1":"Zalec","name_adm2":"Žalec","name_en":"Žalec","iso":"SI"},"geometry":{"type":"Point","coordinates":[15.16482,46.25151]}},{"type":"Feature","properties":{"country_en":"Slovenia","name":"Jesenice","name_adm0":"Slovenija","name_adm1":"Jesenice","name_adm2":"Jesenice","name_en":"Jesenice","iso":"SI"},"geometry":{"type":"Point","coordinates":[14.06694,46.43055999999999]}},{"type":"Feature","properties":{"country_en":"Slovenia","name":"Stara Gora","name_adm0":"Slovenija","name_adm1":"Trebnje","name_adm2":"Trebnje","name_en":"Stara Gora","iso":"SI"},"geometry":{"type":"Point","coordinates":[15.149999999999999,45.53333]}},{"type":"Feature","properties":{"country_en":"Slovenia","name":"Grad","name_adm0":"Slovenija","name_adm1":"Murska Sobota","name_adm2":"Grad","name_en":"Grad","iso":"SI"},"geometry":{"type":"Point","coordinates":[16.072096,46.677621]}},{"type":"Feature","properties":{"country_en":"Slovenia","name":"Kozji Vrh","name_adm0":"Slovenija","name_adm1":"Radlje Ob Dravi","name_adm2":"Podvelka","name_en":"Kozji Vrh","iso":"SI"},"geometry":{"type":"Point","coordinates":[14.8,46.4]}},{"type":"Feature","properties":{"country_en":"Slovenia","name":"Matavun","name_adm0":"Slovenija","name_adm1":"Sezana","name_adm2":"Divaca","name_en":"Matavun","iso":"SI"},"geometry":{"type":"Point","coordinates":[13.991669999999997,45.6625]}},{"type":"Feature","properties":{"country_en":"Slovenia","name":"Otok","name_adm0":"Slovenija","name_adm1":"Cerknica","name_adm2":"Cerknica","name_en":"Otok","iso":"SI"},"geometry":{"type":"Point","coordinates":[14.368329999999998,45.72944]}},{"type":"Feature","properties":{"country_en":"Slovenia","name":"Maribor","name_adm0":"Slovenija","name_adm1":"Maribor","name_adm2":"Maribor","name_en":"Maribor","iso":"SI"},"geometry":{"type":"Point","coordinates":[15.64667,46.554719999999996]}},{"type":"Feature","properties":{"country_en":"Slovenia","name":"Lendava","name_adm0":"Slovenija","name_adm1":"Lendava","name_en":"Lendava","iso":"SI"},"geometry":{"type":"Point","coordinates":[16.410398499999996,47.38476899999999]}},{"type":"Feature","properties":{"country_en":"Slovenia","name":"Ljutomer","name_adm0":"Slovenija","name_adm1":"Ljutomer","name_en":"Ljutomer","iso":"SI"},"geometry":{"type":"Point","coordinates":[16.144,46.51347]}},{"type":"Feature","properties":{"country_en":"Slovenia","name":"Ormoz","name_adm0":"Slovenija","name_adm1":"Ormoz","name_en":"Ormoz","iso":"SI"},"geometry":{"type":"Point","coordinates":[16.14099,46.436319999999995]}},{"type":"Feature","properties":{"country_en":"Slovenia","name":"Mozirje","name_adm0":"Slovenija","name_adm1":"Mozirje","name_adm2":"Mozirje","name_en":"Mozirje","iso":"SI"},"geometry":{"type":"Point","coordinates":[14.963330000000001,46.33944]}},{"type":"Feature","properties":{"country_en":"Slovenia","name":"Zgornja Šiška","name_adm0":"Slovenija","name_adm1":"Ljubljana","name_adm2":"Ljubljana","name_en":"Zgornja Šiška","iso":"SI"},"geometry":{"type":"Point","coordinates":[14.500000000000002,46.06667]}},{"type":"Feature","properties":{"country_en":"Slovenia","name":"Podplece","name_adm0":"Slovenija","name_adm1":"Idrija","name_adm2":"Cerkno","name_en":"Podplece","iso":"SI"},"geometry":{"type":"Point","coordinates":[14.81667,46.48333]}},{"type":"Feature","properties":{"country_en":"Slovenia","name":"Lepence","name_adm0":"Slovenija","name_adm1":"Radovljica","name_adm2":"Bohinj","name_en":"Lepence","iso":"SI"},"geometry":{"type":"Point","coordinates":[14.333329999999998,46.31667]}},{"type":"Feature","properties":{"country_en":"Slovenia","name":"Bocaji","name_adm0":"Slovenija","name_adm1":"Koper","name_adm2":"Koper","name_en":"Bocaji","iso":"SI"},"geometry":{"type":"Point","coordinates":[13.83028,45.49472]}},{"type":"Feature","properties":{"country_en":"Slovenia","name":"Zapotok","name_adm0":"Slovenija","name_adm1":"Nova Gorica","name_adm2":"Kanal","name_en":"Zapotok","iso":"SI"},"geometry":{"type":"Point","coordinates":[14.57306,45.87694]}},{"type":"Feature","properties":{"country_en":"Slovenia","name":"Voglje","name_adm0":"Slovenija","name_adm1":"Kranj","name_adm2":"Šencur","name_en":"Voglje","iso":"SI"},"geometry":{"type":"Point","coordinates":[14.43861,46.21556]}},{"type":"Feature","properties":{"country_en":"Slovenia","name":"Rozna Dolina","name_adm0":"Slovenija","name_adm1":"Nova Gorica","name_adm2":"Nova Gorica","name_en":"Rozna Dolina","iso":"SI"},"geometry":{"type":"Point","coordinates":[13.64028,45.93806]}},{"type":"Feature","properties":{"country_en":"Slovenia","name":"Prevoje Pri Sentvidu","name_adm0":"Slovenija","name_adm1":"Domzale","name_adm2":"Lukovica","name_en":"Prevoje Pri Sentvidu","iso":"SI"},"geometry":{"type":"Point","coordinates":[14.66667,46.166669999999996]}},{"type":"Feature","properties":{"country_en":"Slovenia","name":"Rakov Skocjan","name_adm0":"Slovenija","name_adm1":"Cerknica","name_adm2":"Cerknica","name_en":"Rakov Skocjan","iso":"SI"},"geometry":{"type":"Point","coordinates":[14.297933,45.787217]}},{"type":"Feature","properties":{"country_en":"Slovenia","name":"Planinca","name_adm0":"Slovenija","name_adm1":"Ljubljana","name_adm2":"Brezovica","name_en":"Planinca","iso":"SI"},"geometry":{"type":"Point","coordinates":[14.256109999999998,45.83389]}},{"type":"Feature","properties":{"country_en":"Slovenia","name":"Vukovci","name_adm0":"Slovenija","name_adm1":"Crnomelj","name_adm2":"Crnomelj","name_en":"Vukovci","iso":"SI"},"geometry":{"type":"Point","coordinates":[16.11667,45.68333]}},{"type":"Feature","properties":{"country_en":"Slovenia","name":"Radovlja","name_adm0":"Slovenija","name_adm1":"Novo Mesto","name_adm2":"Novo Mesto","name_en":"Radovlja","iso":"SI"},"geometry":{"type":"Point","coordinates":[15.727779999999997,45.31861]}},{"type":"Feature","properties":{"country_en":"Slovenia","name":"Čemšenik","name_adm0":"Slovenija","name_adm1":"Zagorje Ob Savi","name_adm2":"Zagorje Ob Savi","name_en":"Čemšenik","iso":"SI"},"geometry":{"type":"Point","coordinates":[14.944440000000002,46.17917]}},{"type":"Feature","properties":{"country_en":"Slovenia","name":"Čentiba","name_adm0":"Slovenija","name_adm1":"Lendava","name_adm2":"Lendava","name_en":"Čentiba","iso":"SI"},"geometry":{"type":"Point","coordinates":[16.4975,46.55556]}},{"type":"Feature","properties":{"country_en":"Slovenia","name":"Cerklje Ob Krki","name_adm0":"Slovenija","name_adm1":"Brezice","name_adm2":"Brežice","name_en":"Cerklje Ob Krki","iso":"SI"},"geometry":{"type":"Point","coordinates":[15.53,45.88611]}},{"type":"Feature","properties":{"country_en":"Slovenia","name":"Gradišče Pri Vipavi","name_adm0":"Slovenija","name_adm1":"Ajdovscina","name_adm2":"Vipava","name_en":"Gradišče Pri Vipavi","iso":"SI"},"geometry":{"type":"Point","coordinates":[13.9675,45.83556]}},{"type":"Feature","properties":{"country_en":"Slovenia","name":"Hrašče","name_adm0":"Slovenija","name_adm1":"Postojna","name_adm2":"Postojna","name_en":"Hrašče","iso":"SI"},"geometry":{"type":"Point","coordinates":[14.14917,45.7775]}},{"type":"Feature","properties":{"country_en":"Slovenia","name":"Hraµe","name_adm0":"Slovenija","name_adm1":"Radovljica","name_adm2":"Radovljica","name_en":"Hraµe","iso":"SI"},"geometry":{"type":"Point","coordinates":[13.58056,46.14222]}},{"type":"Feature","properties":{"country_en":"Slovenia","name":"Logje","name_adm0":"Slovenija","name_adm1":"Tolmin","name_adm2":"Kobarid","name_en":"Logje","iso":"SI"},"geometry":{"type":"Point","coordinates":[13.437499999999998,46.23528]}},{"type":"Feature","properties":{"country_en":"Slovenia","name":"Loka Pri Žusmu","name_adm0":"Slovenija","name_adm1":"Sentjur Pri Celju","name_adm2":"Šentjur pri Celju","name_en":"Loka Pri Žusmu","iso":"SI"},"geometry":{"type":"Point","coordinates":[15.51472,46.1575]}},{"type":"Feature","properties":{"country_en":"Slovenia","name":"Osojnik","name_adm0":"Slovenija","name_adm1":"Crnomelj","name_adm2":"Semic","name_en":"Osojnik","iso":"SI"},"geometry":{"type":"Point","coordinates":[15.213889999999997,45.67972]}},{"type":"Feature","properties":{"country_en":"Slovenia","name":"Padna","name_adm0":"Slovenija","name_adm1":"Piran","name_adm2":"Piran","name_en":"Padna","iso":"SI"},"geometry":{"type":"Point","coordinates":[13.68472,45.49388999999999]}},{"type":"Feature","properties":{"country_en":"Slovenia","name":"Peče","name_adm0":"Slovenija","name_adm1":"Domzale","name_adm2":"Moravce","name_en":"Peče","iso":"SI"},"geometry":{"type":"Point","coordinates":[14.81667,46.15]}},{"type":"Feature","properties":{"country_en":"Slovenia","name":"Å Martno Na Pohorju","name_adm0":"Slovenija","name_adm1":"Slovenska Bistrica","name_adm2":"Slovenska Bistrica","name_en":"Å Martno Na Pohorju","iso":"SI"},"geometry":{"type":"Point","coordinates":[15.539439999999999,46.44417]}},{"type":"Feature","properties":{"country_en":"Slovenia","name":"Å Martno Pod Å Marno Goro","name_adm0":"Slovenija","name_adm1":"Ljubljana","name_adm2":"Ljubljana","name_en":"Å Martno Pod Å Marno Goro","iso":"SI"},"geometry":{"type":"Point","coordinates":[14.483330000000002,46.13333]}},{"type":"Feature","properties":{"country_en":"Slovenia","name":"Trstenik","name_adm0":"Slovenija","name_adm1":"Kranj","name_adm2":"Kranj","name_en":"Trstenik","iso":"SI"},"geometry":{"type":"Point","coordinates":[14.37,46.31833]}},{"type":"Feature","properties":{"country_en":"Slovenia","name":"Tupaliče","name_adm0":"Slovenija","name_adm1":"Kranj","name_adm2":"Preddvor","name_en":"Tupaliče","iso":"SI"},"geometry":{"type":"Point","coordinates":[14.433329999999998,46.28333]}},{"type":"Feature","properties":{"country_en":"Slovenia","name":"Unec","name_adm0":"Slovenija","name_adm1":"Cerknica","name_adm2":"Cerknica","name_en":"Unec","iso":"SI"},"geometry":{"type":"Point","coordinates":[14.29389,45.81556]}},{"type":"Feature","properties":{"country_en":"Slovenia","name":"Videž","name_adm0":"Slovenija","name_adm1":"Slovenska Bistrica","name_adm2":"Slovenska Bistrica","name_en":"Videž","iso":"SI"},"geometry":{"type":"Point","coordinates":[15.566669999999998,46.36667]}},{"type":"Feature","properties":{"country_en":"Slovenia","name":"Vojnik","name_adm0":"Slovenija","name_adm1":"Celje","name_adm2":"Vojnik","name_en":"Vojnik","iso":"SI"},"geometry":{"type":"Point","coordinates":[14.98056,46.35917]}},{"type":"Feature","properties":{"country_en":"Slovenia","name":"Vojsko","name_adm0":"Slovenija","name_adm1":"Idrija","name_adm2":"Idrija","name_en":"Vojsko","iso":"SI"},"geometry":{"type":"Point","coordinates":[13.90667,46.02499999999999]}},{"type":"Feature","properties":{"country_en":"Slovenia","name":"Zgornje Bitnje","name_adm0":"Slovenija","name_adm1":"Kranj","name_adm2":"Kranj","name_en":"Zgornje Bitnje","iso":"SI"},"geometry":{"type":"Point","coordinates":[14.336669999999998,46.21999999999999]}},{"type":"Feature","properties":{"country_en":"Slovenia","name":"Zgornji Duplek","name_adm0":"Slovenija","name_adm1":"Maribor","name_adm2":"Duplek","name_en":"Zgornji Duplek","iso":"SI"},"geometry":{"type":"Point","coordinates":[15.720829999999998,46.51360999999999]}},{"type":"Feature","properties":{"country_en":"Slovenia","name":"Zgornji Kamenščak","name_adm0":"Slovenija","name_adm1":"Ljutomer","name_adm2":"Ljutomer","name_en":"Zgornji Kamenščak","iso":"SI"},"geometry":{"type":"Point","coordinates":[16.13333,46.5]}},{"type":"Feature","properties":{"country_en":"Slovenia","name":"Žlebič","name_adm0":"Slovenija","name_adm1":"Ribnica","name_adm2":"Ribnica","name_en":"Žlebič","iso":"SI"},"geometry":{"type":"Point","coordinates":[14.69306,45.76528]}},{"type":"Feature","properties":{"country_en":"Slovenia","name":"Zminec","name_adm0":"Slovenija","name_adm1":"Skofja Loka","name_adm2":"Škofja Loka","name_en":"Zminec","iso":"SI"},"geometry":{"type":"Point","coordinates":[14.28333,46.15]}},{"type":"Feature","properties":{"country_en":"Slovenia","name":"Bilje","name_adm0":"Slovenija","name_adm1":"Nova Gorica","name_adm2":"Miren-Kostanjevica","name_en":"Bilje","iso":"SI"},"geometry":{"type":"Point","coordinates":[13.632219999999998,45.89444]}},{"type":"Feature","properties":{"country_en":"Slovenia","name":"Adlešiči","name_adm0":"Slovenija","name_adm1":"Crnomelj","name_adm2":"Crnomelj","name_en":"Adlešiči","iso":"SI"},"geometry":{"type":"Point","coordinates":[15.316670000000002,45.53333]}},{"type":"Feature","properties":{"country_en":"Slovenia","name":"Brege","name_adm0":"Slovenija","name_adm1":"Krsko","name_adm2":"Krško","name_en":"Brege","iso":"SI"},"geometry":{"type":"Point","coordinates":[15.518059999999998,45.91443999999999]}},{"type":"Feature","properties":{"country_en":"Slovenia","name":"Čatež Ob Savi","name_adm0":"Slovenija","name_adm1":"Brezice","name_adm2":"Brežice","name_en":"Čatež Ob Savi","iso":"SI"},"geometry":{"type":"Point","coordinates":[15.6025,45.88943999999999]}},{"type":"Feature","properties":{"country_en":"Slovenia","name":"Drežnica","name_adm0":"Slovenija","name_adm1":"Tolmin","name_adm2":"Kobarid","name_en":"Drežnica","iso":"SI"},"geometry":{"type":"Point","coordinates":[13.62639,46.25417]}},{"type":"Feature","properties":{"country_en":"Slovenia","name":"Drežniške Ravne","name_adm0":"Slovenija","name_adm1":"Tolmin","name_adm2":"Kobarid","name_en":"Drežniške Ravne","iso":"SI"},"geometry":{"type":"Point","coordinates":[13.61083,46.27111]}},{"type":"Feature","properties":{"country_en":"Slovenia","name":"Drskovče","name_adm0":"Slovenija","name_adm1":"Postojna","name_adm2":"Pivka","name_en":"Drskovče","iso":"SI"},"geometry":{"type":"Point","coordinates":[14.22278,45.65083]}},{"type":"Feature","properties":{"country_en":"Slovenia","name":"Dvor Pri Polhovem Gradcu","name_adm0":"Slovenija","name_adm1":"Ljubljana","name_adm2":"Dobrova-Polhov Gradec","name_en":"Dvor Pri Polhovem Gradcu","iso":"SI"},"geometry":{"type":"Point","coordinates":[14.350000000000001,46.06667]}},{"type":"Feature","properties":{"country_en":"Slovenia","name":"Erzelj","name_adm0":"Slovenija","name_adm1":"Ajdovscina","name_adm2":"Vipava","name_en":"Erzelj","iso":"SI"},"geometry":{"type":"Point","coordinates":[13.91028,45.83278]}},{"type":"Feature","properties":{"country_en":"Slovenia","name":"Fala","name_adm0":"Slovenija","name_adm1":"Ruse","name_adm2":"Ruše","name_en":"Fala","iso":"SI"},"geometry":{"type":"Point","coordinates":[15.447219999999998,46.54389]}},{"type":"Feature","properties":{"country_en":"Slovenia","name":"Dragomer","name_adm0":"Slovenija","name_adm1":"Vrhnika","name_adm2":"Vrhnika","name_en":"Dragomer","iso":"SI"},"geometry":{"type":"Point","coordinates":[14.38333,46.01667]}},{"type":"Feature","properties":{"country_en":"Slovenia","name":"Gederovci","name_adm0":"Slovenija","name_adm1":"Murska Sobota","name_adm2":"Tišina","name_en":"Gederovci","iso":"SI"},"geometry":{"type":"Point","coordinates":[16.0525,46.683609999999994]}},{"type":"Feature","properties":{"country_en":"Slovenia","name":"Gerlinci","name_adm0":"Slovenija","name_adm1":"Murska Sobota","name_adm2":"Cankova","name_en":"Gerlinci","iso":"SI"},"geometry":{"type":"Point","coordinates":[16.00944,46.75833]}},{"type":"Feature","properties":{"country_en":"Slovenia","name":"Glina","name_adm0":"Slovenija","name_adm1":"Cerknica","name_adm2":"Bloke","name_en":"Glina","iso":"SI"},"geometry":{"type":"Point","coordinates":[14.495830000000002,45.77167]}},{"type":"Feature","properties":{"country_en":"Slovenia","name":"Gora","name_adm0":"Slovenija","name_adm1":"Cerknica","name_adm2":"Cerknica","name_en":"Gora","iso":"SI"},"geometry":{"type":"Point","coordinates":[14.431669999999999,45.83028]}},{"type":"Feature","properties":{"country_en":"Slovenia","name":"Gorenja Brezovica","name_adm0":"Slovenija","name_adm1":"Ljubljana","name_adm2":"Brezovica","name_en":"Gorenja Brezovica","iso":"SI"},"geometry":{"type":"Point","coordinates":[14.451669999999998,45.949439999999996]}},{"type":"Feature","properties":{"country_en":"Slovenia","name":"Klavže","name_adm0":"Slovenija","name_adm1":"Tolmin","name_adm2":"Tolmin","name_en":"Klavže","iso":"SI"},"geometry":{"type":"Point","coordinates":[13.8,46.166669999999996]}},{"type":"Feature","properties":{"country_en":"Slovenia","name":"Jablanica","name_adm0":"Slovenija","name_adm1":"Ilirska Bistrica","name_adm2":"Ilirska Bistrica","name_en":"Jablanica","iso":"SI"},"geometry":{"type":"Point","coordinates":[14.29361,45.54139]}},{"type":"Feature","properties":{"country_en":"Slovenia","name":"Jagršče","name_adm0":"Slovenija","name_adm1":"Idrija","name_adm2":"Cerkno","name_en":"Jagršče","iso":"SI"},"geometry":{"type":"Point","coordinates":[13.945,46.09056]}},{"type":"Feature","properties":{"country_en":"Slovenia","name":"Jakovica","name_adm0":"Slovenija","name_adm1":"Logatec","name_adm2":"Logatec","name_en":"Jakovica","iso":"SI"},"geometry":{"type":"Point","coordinates":[14.25333,45.86056]}},{"type":"Feature","properties":{"country_en":"Slovenia","name":"Janče","name_adm0":"Slovenija","name_adm1":"Ljubljana","name_adm2":"Ljubljana","name_en":"Janče","iso":"SI"},"geometry":{"type":"Point","coordinates":[14.71667,46.04999999999999]}},{"type":"Feature","properties":{"country_en":"Slovenia","name":"Jevnica","name_adm0":"Slovenija","name_adm1":"Litija","name_adm2":"Litija","name_en":"Jevnica","iso":"SI"},"geometry":{"type":"Point","coordinates":[14.733329999999999,46.08333]}},{"type":"Feature","properties":{"country_en":"Slovenia","name":"Jezerca","name_adm0":"Slovenija","name_adm1":"Tolmin","name_adm2":"Kobarid","name_en":"Jezerca","iso":"SI"},"geometry":{"type":"Point","coordinates":[13.60583,46.26556]}},{"type":"Feature","properties":{"country_en":"Slovenia","name":"Kotlje","name_adm0":"Slovenija","name_adm1":"Ravne Na Koroskem","name_adm2":"Ravne na Koroškem","name_en":"Kotlje","iso":"SI"},"geometry":{"type":"Point","coordinates":[14.986939999999999,46.52139]}},{"type":"Feature","properties":{"country_en":"Slovenia","name":"Koseze","name_adm0":"Slovenija","name_adm1":"Ljubljana","name_adm2":"Vodice","name_en":"Koseze","iso":"SI"},"geometry":{"type":"Point","coordinates":[14.46667,46.06667]}},{"type":"Feature","properties":{"country_en":"Slovenia","name":"Križe","name_adm0":"Slovenija","name_adm1":"Trzic","name_adm2":"Tržic","name_en":"Križe","iso":"SI"},"geometry":{"type":"Point","coordinates":[14.30139,46.34278]}},{"type":"Feature","properties":{"country_en":"Slovenia","name":"Križevci","name_adm0":"Slovenija","name_adm1":"Murska Sobota","name_adm2":"Gornji Petrovci","name_en":"Križevci","iso":"SI"},"geometry":{"type":"Point","coordinates":[16.24694,46.788889999999995]}},{"type":"Feature","properties":{"country_en":"Slovenia","name":"Ledine","name_adm0":"Slovenija","name_adm1":"Idrija","name_adm2":"Idrija","name_en":"Ledine","iso":"SI"},"geometry":{"type":"Point","coordinates":[14.05,46.04999999999999]}},{"type":"Feature","properties":{"country_en":"Slovenia","name":"Nemµki Rovt","name_adm0":"Slovenija","name_adm1":"Radovljica","name_adm2":"Bohinj","name_en":"Nemµki Rovt","iso":"SI"},"geometry":{"type":"Point","coordinates":[13.96667,46.26667]}},{"type":"Feature","properties":{"country_en":"Slovenia","name":"Neradnovci","name_adm0":"Slovenija","name_adm1":"Murska Sobota","name_adm2":"Gornji Petrovci","name_en":"Neradnovci","iso":"SI"},"geometry":{"type":"Point","coordinates":[16.20278,46.8425]}},{"type":"Feature","properties":{"country_en":"Slovenia","name":"Neverke","name_adm0":"Slovenija","name_adm1":"Postojna","name_adm2":"Pivka","name_en":"Neverke","iso":"SI"},"geometry":{"type":"Point","coordinates":[14.135829999999999,45.66583]}},{"type":"Feature","properties":{"country_en":"Slovenia","name":"Pernica","name_adm0":"Slovenija","name_adm1":"Pesnica","name_adm2":"Pesnica","name_en":"Pernica","iso":"SI"},"geometry":{"type":"Point","coordinates":[15.727779999999997,46.58]}},{"type":"Feature","properties":{"country_en":"Slovenia","name":"Petanjci","name_adm0":"Slovenija","name_adm1":"Murska Sobota","name_adm2":"Tišina","name_en":"Petanjci","iso":"SI"},"geometry":{"type":"Point","coordinates":[16.06611,46.65332999999999]}},{"type":"Feature","properties":{"country_en":"Slovenia","name":"Petrovo Brdo","name_adm0":"Slovenija","name_adm1":"Tolmin","name_adm2":"Tolmin","name_en":"Petrovo Brdo","iso":"SI"},"geometry":{"type":"Point","coordinates":[14,46.21667]}},{"type":"Feature","properties":{"country_en":"Slovenia","name":"Podpeč","name_adm0":"Slovenija","name_adm1":"Ljubljana","name_adm2":"Brezovica","name_en":"Podpeč","iso":"SI"},"geometry":{"type":"Point","coordinates":[14.4175,45.969719999999995]}},{"type":"Feature","properties":{"country_en":"Slovenia","name":"Podvrh","name_adm0":"Slovenija","name_adm1":"Zalec","name_adm2":"Braslovce","name_en":"Podvrh","iso":"SI"},"geometry":{"type":"Point","coordinates":[15.016669999999998,46.26667]}},{"type":"Feature","properties":{"country_en":"Slovenia","name":"Podzemelj","name_adm0":"Slovenija","name_adm1":"Metlika","name_adm2":"Metlika","name_en":"Podzemelj","iso":"SI"},"geometry":{"type":"Point","coordinates":[15.28333,45.61666999999999]}},{"type":"Feature","properties":{"country_en":"Slovenia","name":"Polenµak","name_adm0":"Slovenija","name_adm1":"Ptuj","name_adm2":"Dornava","name_en":"Polenµak","iso":"SI"},"geometry":{"type":"Point","coordinates":[16.025,46.46528]}},{"type":"Feature","properties":{"country_en":"Slovenia","name":"Polica","name_adm0":"Slovenija","name_adm1":"Grosuplje","name_adm2":"Grosuplje","name_en":"Polica","iso":"SI"},"geometry":{"type":"Point","coordinates":[14.70972,45.96694]}},{"type":"Feature","properties":{"country_en":"Slovenia","name":"Predoslje","name_adm0":"Slovenija","name_adm1":"Kranj","name_adm2":"Kranj","name_en":"Predoslje","iso":"SI"},"geometry":{"type":"Point","coordinates":[14.38608,46.26582]}},{"type":"Feature","properties":{"country_en":"Slovenia","name":"Pregarje","name_adm0":"Slovenija","name_adm1":"Ilirska Bistrica","name_adm2":"Ilirska Bistrica","name_en":"Pregarje","iso":"SI"},"geometry":{"type":"Point","coordinates":[14.135829999999999,45.57778]}},{"type":"Feature","properties":{"country_en":"Slovenia","name":"Prekopa","name_adm0":"Slovenija","name_adm1":"Zalec","name_adm2":"Vransko","name_en":"Prekopa","iso":"SI"},"geometry":{"type":"Point","coordinates":[14.983329999999999,46.25]}},{"type":"Feature","properties":{"country_en":"Slovenia","name":"Preloge","name_adm0":"Slovenija","name_adm1":"Slovenska Bistrica","name_adm2":"Slovenska Bistrica","name_en":"Preloge","iso":"SI"},"geometry":{"type":"Point","coordinates":[15.516669999999998,46.36667]}},{"type":"Feature","properties":{"country_en":"Slovenia","name":"Prepolje","name_adm0":"Slovenija","name_adm1":"Maribor","name_adm2":"Starše","name_en":"Prepolje","iso":"SI"},"geometry":{"type":"Point","coordinates":[15.763889999999998,46.44417]}},{"type":"Feature","properties":{"country_en":"Slovenia","name":"Preserje Pri Radomljah","name_adm0":"Slovenija","name_adm1":"Domzale","name_adm2":"Domžale","name_en":"Preserje Pri Radomljah","iso":"SI"},"geometry":{"type":"Point","coordinates":[14.583329999999998,46.166669999999996]}},{"type":"Feature","properties":{"country_en":"Slovenia","name":"Presladol","name_adm0":"Slovenija","name_adm1":"Krsko","name_adm2":"Krško","name_en":"Presladol","iso":"SI"},"geometry":{"type":"Point","coordinates":[15.43333,46.01667]}},{"type":"Feature","properties":{"country_en":"Slovenia","name":"Preµnica","name_adm0":"Slovenija","name_adm1":"Sezana","name_adm2":"Hrpelje-Kozina","name_en":"Preµnica","iso":"SI"},"geometry":{"type":"Point","coordinates":[13.93778,45.57056]}},{"type":"Feature","properties":{"country_en":"Slovenia","name":"Sevnica","name_adm0":"Slovenija","name_adm1":"Sevnica","name_adm2":"Sevnica","name_en":"Sevnica","iso":"SI"},"geometry":{"type":"Point","coordinates":[15.315559999999998,46.00778]}},{"type":"Feature","properties":{"country_en":"Slovenia","name":"Šentjanž","name_adm0":"Slovenija","name_adm1":"Sevnica","name_adm2":"Sevnica","name_en":"Šentjanž","iso":"SI"},"geometry":{"type":"Point","coordinates":[15.16722,46.01139]}},{"type":"Feature","properties":{"country_en":"Slovenia","name":"Å Entrupert","name_adm0":"Slovenija","name_adm1":"Zalec","name_adm2":"Braslovce","name_en":"Å Entrupert","iso":"SI"},"geometry":{"type":"Point","coordinates":[15.06667,46.25]}},{"type":"Feature","properties":{"country_en":"Slovenia","name":"Sinji Vrh","name_adm0":"Slovenija","name_adm1":"Crnomelj","name_adm2":"Crnomelj","name_en":"Sinji Vrh","iso":"SI"},"geometry":{"type":"Point","coordinates":[15.17028,45.45361]}},{"type":"Feature","properties":{"country_en":"Slovenia","name":"Å Inkov Turn","name_adm0":"Slovenija","name_adm1":"Ljubljana","name_adm2":"Vodice","name_en":"Å Inkov Turn","iso":"SI"},"geometry":{"type":"Point","coordinates":[14.533329999999998,46.166669999999996]}},{"type":"Feature","properties":{"country_en":"Slovenia","name":"Å Martno Pri Slovenjem Gradcu","name_adm0":"Slovenija","name_adm1":"Slovenj Gradec","name_adm2":"Slovenj Gradec","name_en":"Å Martno Pri Slovenjem Gradcu","iso":"SI"},"geometry":{"type":"Point","coordinates":[15.10667,46.48944]}},{"type":"Feature","properties":{"country_en":"Slovenia","name":"Šmartno v Rožni Dolini","name_adm0":"Slovenija","name_adm1":"Celje","name_adm2":"Celje","name_en":"Šmartno v Rožni Dolini","iso":"SI"},"geometry":{"type":"Point","coordinates":[15.24314,46.29453]}},{"type":"Feature","properties":{"country_en":"Slovenia","name":"Smednik","name_adm0":"Slovenija","name_adm1":"Krsko","name_adm2":"Krško","name_en":"Smednik","iso":"SI"},"geometry":{"type":"Point","coordinates":[15.366669999999997,45.9]}},{"type":"Feature","properties":{"country_en":"Slovenia","name":"Spodnja Voličina","name_adm0":"Slovenija","name_adm1":"Lenart","name_adm2":"Lenart","name_en":"Spodnja Voličina","iso":"SI"},"geometry":{"type":"Point","coordinates":[15.814999999999998,46.54444]}},{"type":"Feature","properties":{"country_en":"Slovenia","name":"Stranice","name_adm0":"Slovenija","name_adm1":"Slovenske Konjice","name_adm2":"Zrece","name_en":"Stranice","iso":"SI"},"geometry":{"type":"Point","coordinates":[15.365280000000002,46.36361]}},{"type":"Feature","properties":{"country_en":"Slovenia","name":"Svetli Potok","name_adm0":"Slovenija","name_adm1":"Kocevje","name_adm2":"Kocevje","name_en":"Svetli Potok","iso":"SI"},"geometry":{"type":"Point","coordinates":[15.016669999999998,45.566669999999995]}},{"type":"Feature","properties":{"country_en":"Slovenia","name":"Toplice","name_adm0":"Slovenija","name_adm1":"Novo Mesto","name_adm2":"Novo Mesto","name_en":"Toplice","iso":"SI"},"geometry":{"type":"Point","coordinates":[15.059169999999998,45.75657]}},{"type":"Feature","properties":{"country_en":"Slovenia","name":"Topol Pri Medvodah","name_adm0":"Slovenija","name_adm1":"Ljubljana","name_adm2":"Medvode","name_en":"Topol Pri Medvodah","iso":"SI"},"geometry":{"type":"Point","coordinates":[14.38333,46.1]}},{"type":"Feature","properties":{"country_en":"Slovenia","name":"Vransko","name_adm0":"Slovenija","name_adm1":"Zalec","name_adm2":"Vransko","name_en":"Vransko","iso":"SI"},"geometry":{"type":"Point","coordinates":[15.29528,45.53777999999999]}},{"type":"Feature","properties":{"country_en":"Slovenia","name":"Vrbje","name_adm0":"Slovenija","name_adm1":"Zalec","name_adm2":"Žalec","name_en":"Vrbje","iso":"SI"},"geometry":{"type":"Point","coordinates":[15.149999999999999,46.25]}},{"type":"Feature","properties":{"country_en":"Slovenia","name":"Zavrh Pri Borovnici","name_adm0":"Slovenija","name_adm1":"Vrhnika","name_adm2":"Vrhnika","name_en":"Zavrh Pri Borovnici","iso":"SI"},"geometry":{"type":"Point","coordinates":[14.346389999999998,45.90277999999999]}},{"type":"Feature","properties":{"country_en":"Slovenia","name":"Zgornja Ložnica","name_adm0":"Slovenija","name_adm1":"Slovenska Bistrica","name_adm2":"Slovenska Bistrica","name_en":"Zgornja Ložnica","iso":"SI"},"geometry":{"type":"Point","coordinates":[15.649999999999999,46.33333]}},{"type":"Feature","properties":{"country_en":"Slovenia","name":"Odranci","name_adm0":"Slovenija","name_adm1":"Lendava","name_adm2":"Odranci","name_en":"Odranci","iso":"SI"},"geometry":{"type":"Point","coordinates":[16.288705,46.583208]}},{"type":"Feature","properties":{"country_en":"Slovenia","name":"Osilnica","name_adm0":"Slovenija","name_adm1":"Kocevje","name_adm2":"Osilnica","name_en":"Osilnica","iso":"SI"},"geometry":{"type":"Point","coordinates":[14.702367,45.525532]}},{"type":"Feature","properties":{"country_en":"Slovenia","name":"Podcetrtek","name_adm0":"Slovenija","name_adm1":"Smarje Pri Jelsah","name_adm2":"Podcetrtek","name_en":"Podcetrtek","iso":"SI"},"geometry":{"type":"Point","coordinates":[15.606121999999997,46.155815]}},{"type":"Feature","properties":{"country_en":"Slovenia","name":"Slovenija","name_adm0":"Slovenija","name_en":"Slovenia","iso":"SI"},"geometry":{"type":"Point","coordinates":[14.9097755,46.146938]}},{"type":"Feature","properties":{"country_en":"Slovenia","name":"Murska Sobota","name_adm0":"Slovenija","name_adm1":"Murska Sobota","name_en":"Murska Sobota","iso":"SI"},"geometry":{"type":"Point","coordinates":[16.16056,46.65139]}},{"type":"Feature","properties":{"country_en":"Slovenia","name":"Novo Mesto","name_adm0":"Slovenija","name_adm1":"Novo Mesto","name_en":"Novo Mesto","iso":"SI"},"geometry":{"type":"Point","coordinates":[15.198330000000002,45.7851]}},{"type":"Feature","properties":{"country_en":"Slovenia","name":"Postojna","name_adm0":"Slovenija","name_adm1":"Postojna","name_en":"Postojna","iso":"SI"},"geometry":{"type":"Point","coordinates":[14.17083,45.78556]}},{"type":"Feature","properties":{"country_en":"Slovenia","name":"Lendava","name_adm0":"Slovenija","name_adm1":"Lendava","name_adm2":"Lendava","name_en":"Lendava","iso":"SI"},"geometry":{"type":"Point","coordinates":[16.435546,46.590956]}},{"type":"Feature","properties":{"country_en":"Slovenia","name":"Ljutomer","name_adm0":"Slovenija","name_adm1":"Ljutomer","name_adm2":"Ljutomer","name_en":"Ljutomer","iso":"SI"},"geometry":{"type":"Point","coordinates":[16.202087,46.536192]}},{"type":"Feature","properties":{"country_en":"Slovenia","name":"Ormož","name_adm0":"Slovenija","name_adm1":"Ormoz","name_adm2":"Ormož","name_en":"Ormož","iso":"SI"},"geometry":{"type":"Point","coordinates":[16.210326999999996,46.413245]}},{"type":"Feature","properties":{"country_en":"Slovenia","name":"Rogaška Slatina","name_adm0":"Slovenija","name_adm1":"Smarje Pri Jelsah","name_adm2":"Rogaška Slatina","name_en":"Rogaška Slatina","iso":"SI"},"geometry":{"type":"Point","coordinates":[15.57312,46.239702]}},{"type":"Feature","properties":{"country_en":"Slovenia","name":"Velike Lašce","name_adm0":"Slovenija","name_adm1":"Ljubljana","name_adm2":"Velike Lašce","name_en":"Velike Lašce","iso":"SI"},"geometry":{"type":"Point","coordinates":[14.622802000000002,45.832626]}},{"type":"Feature","properties":{"country_en":"Slovenia","name":"Jarše","name_adm0":"Slovenija","name_adm1":"Ljubljana","name_adm2":"Ljubljana","name_en":"Jarše","iso":"SI"},"geometry":{"type":"Point","coordinates":[14.55,46.08333]}},{"type":"Feature","properties":{"country_en":"Slovenia","name":"Črnuče","name_adm0":"Slovenija","name_adm1":"Ljubljana","name_adm2":"Ljubljana","name_en":"Črnuče","iso":"SI"},"geometry":{"type":"Point","coordinates":[14.533329999999998,46.1]}},{"type":"Feature","properties":{"country_en":"Slovenia","name":"Dobrovo","name_adm0":"Slovenija","name_adm1":"Nova Gorica","name_adm2":"Brda","name_en":"Dobrovo","iso":"SI"},"geometry":{"type":"Point","coordinates":[14.086939999999998,45.54249999999999]}},{"type":"Feature","properties":{"country_en":"Slovenia","name":"Zgornje Jezersko","name_adm0":"Slovenija","name_adm1":"Kranj","name_adm2":"Jezersko","name_en":"Zgornje Jezersko","iso":"SI"},"geometry":{"type":"Point","coordinates":[14.41028,45.72805999999999]}},{"type":"Feature","properties":{"country_en":"Slovenia","name":"Vescica Pri Murski Soboti","name_adm0":"Slovenija","name_adm1":"Murska Sobota","name_adm2":"Murska Sobota","name_en":"Vescica Pri Murski Soboti","iso":"SI"},"geometry":{"type":"Point","coordinates":[16.13333,46.666669999999996]}},{"type":"Feature","properties":{"country_en":"Slovenia","name":"Dobovec Pri Rogatcu","name_adm0":"Slovenija","name_adm1":"Smarje Pri Jelsah","name_adm2":"Rogatec","name_en":"Dobovec Pri Rogatcu","iso":"SI"},"geometry":{"type":"Point","coordinates":[15.75,46.21667]}},{"type":"Feature","properties":{"country_en":"Slovenia","name":"Razbor","name_adm0":"Slovenija","name_adm1":"Sentjur Pri Celju","name_adm2":"Šentjur pri Celju","name_en":"Razbor","iso":"SI"},"geometry":{"type":"Point","coordinates":[15.249999999999998,46.06667]}},{"type":"Feature","properties":{"country_en":"Slovenia","name":"Blecji Vrh","name_adm0":"Slovenija","name_adm1":"Trebnje","name_adm2":"Trebnje","name_en":"Blecji Vrh","iso":"SI"},"geometry":{"type":"Point","coordinates":[14.70833,45.97889]}},{"type":"Feature","properties":{"country_en":"Slovenia","name":"Obrezje","name_adm0":"Slovenija","name_adm1":"Ruse","name_adm2":"Selnica Ob Dravi","name_en":"Obrezje","iso":"SI"},"geometry":{"type":"Point","coordinates":[15.661390000000003,45.860279999999996]}},{"type":"Feature","properties":{"country_en":"Slovenia","name":"Gortina","name_adm0":"Slovenija","name_adm1":"Radlje Ob Dravi","name_adm2":"Muta","name_en":"Gortina","iso":"SI"},"geometry":{"type":"Point","coordinates":[15.12639,46.60583]}},{"type":"Feature","properties":{"country_en":"Slovenia","name":"Blagovna","name_adm0":"Slovenija","name_adm1":"Sentjur Pri Celju","name_adm2":"Šentjur pri Celju","name_en":"Blagovna","iso":"SI"},"geometry":{"type":"Point","coordinates":[14.807219999999997,46.17694]}},{"type":"Feature","properties":{"country_en":"Slovenia","name":"Lucija","name_adm0":"Slovenija","name_adm1":"Piran","name_adm2":"Piran","name_en":"Lucija","iso":"SI"},"geometry":{"type":"Point","coordinates":[13.6024,45.50526]}},{"type":"Feature","properties":{"country_en":"Slovenia","name":"Skofja Loka","name_adm0":"Slovenija","name_adm1":"Skofja Loka","name_en":"Skofja Loka","iso":"SI"},"geometry":{"type":"Point","coordinates":[14.281669999999998,46.16306]}},{"type":"Feature","properties":{"country_en":"Slovenia","name":"Ajdovščina","name_adm0":"Slovenija","name_adm1":"Ajdovscina","name_adm2":"Ajdovšcina","name_en":"Ajdovščina","iso":"SI"},"geometry":{"type":"Point","coordinates":[13.904314,45.888245]}},{"type":"Feature","properties":{"country_en":"Slovenia","name":"Kostanjevica Na Krki","name_adm0":"Slovenija","name_adm1":"Krsko","name_adm2":"Krško","name_en":"Kostanjevica Na Krki","iso":"SI"},"geometry":{"type":"Point","coordinates":[15.419557999999999,45.844526]}},{"type":"Feature","properties":{"country_en":"Slovenia","name":"Mengeµ","name_adm0":"Slovenija","name_adm1":"Domzale","name_adm2":"Mengeš","name_en":"Mengeµ","iso":"SI"},"geometry":{"type":"Point","coordinates":[14.555210999999998,46.1591]}},{"type":"Feature","properties":{"country_en":"Slovenia","name":"Miren","name_adm0":"Slovenija","name_adm1":"Nova Gorica","name_adm2":"Miren-Kostanjevica","name_en":"Miren","iso":"SI"},"geometry":{"type":"Point","coordinates":[13.608054999999998,45.886782]}},{"type":"Feature","properties":{"country_en":"Slovenia","name":"Hruµica","name_adm0":"Slovenija","name_adm1":"Jesenice","name_adm2":"Jesenice","name_en":"Hruµica","iso":"SI"},"geometry":{"type":"Point","coordinates":[14.01778,46.445]}},{"type":"Feature","properties":{"country_en":"Slovenia","name":"Spodnje Krase","name_adm0":"Slovenija","name_adm1":"Mozirje","name_adm2":"Nazarje","name_en":"Spodnje Krase","iso":"SI"},"geometry":{"type":"Point","coordinates":[14.683329999999998,46.15]}},{"type":"Feature","properties":{"country_en":"Slovenia","name":"Zgornja Slivnica","name_adm0":"Slovenija","name_adm1":"Grosuplje","name_adm2":"Grosuplje","name_en":"Zgornja Slivnica","iso":"SI"},"geometry":{"type":"Point","coordinates":[14.16667,46.31667]}},{"type":"Feature","properties":{"country_en":"Slovenia","name":"Strmica","name_adm0":"Slovenija","name_adm1":"Skofja Loka","name_adm2":"Škofja Loka","name_en":"Strmica","iso":"SI"},"geometry":{"type":"Point","coordinates":[14.28333,46.23333]}},{"type":"Feature","properties":{"country_en":"Slovenia","name":"Kisovec","name_adm0":"Slovenija","name_adm1":"Zagorje Ob Savi","name_adm2":"Zagorje Ob Savi","name_en":"Kisovec","iso":"SI"},"geometry":{"type":"Point","coordinates":[14.96295,46.13911]}},{"type":"Feature","properties":{"country_en":"Slovenia","name":"Jezersko","name_adm0":"Slovenija","name_adm1":"Kranj","name_adm2":"Jezersko","name_en":"Jezersko","iso":"SI"},"geometry":{"type":"Point","coordinates":[14.505472,46.393476]}},{"type":"Feature","properties":{"country_en":"Slovenia","name":"Gozd Martuljek","name_adm0":"Slovenija","name_adm1":"Jesenice","name_adm2":"Kranjska Gora","name_en":"Gozd Martuljek","iso":"SI"},"geometry":{"type":"Point","coordinates":[13.833329999999998,46.48333]}},{"type":"Feature","properties":{"country_en":"Slovenia","name":"Nova Vas","name_adm0":"Slovenija","name_adm1":"Nova Gorica","name_adm2":"Miren-Kostanjevica","name_en":"Nova Vas","iso":"SI"},"geometry":{"type":"Point","coordinates":[13.58306,45.84194]}},{"type":"Feature","properties":{"country_en":"Slovenia","name":"Spodnji Brnik","name_adm0":"Slovenija","name_adm1":"Kranj","name_adm2":"Cerklje Na Gorenjskem","name_en":"Spodnji Brnik","iso":"SI"},"geometry":{"type":"Point","coordinates":[14.486389999999998,46.22972]}},{"type":"Feature","properties":{"country_en":"Slovenia","name":"Turjak","name_adm0":"Slovenija","name_adm1":"Ljubljana","name_adm2":"Velike Lašce","name_en":"Turjak","iso":"SI"},"geometry":{"type":"Point","coordinates":[14.61528,45.87889]}},{"type":"Feature","properties":{"country_en":"Slovenia","name":"Brezje","name_adm0":"Slovenija","name_adm1":"Radovljica","name_adm2":"Radovljica","name_en":"Brezje","iso":"SI"},"geometry":{"type":"Point","coordinates":[14.23229,46.32897]}},{"type":"Feature","properties":{"country_en":"Slovenia","name":"Brod","name_adm0":"Slovenija","name_adm1":"Radovljica","name_adm2":"Bohinj","name_en":"Brod","iso":"SI"},"geometry":{"type":"Point","coordinates":[13.93083,46.27694]}},{"type":"Feature","properties":{"country_en":"Slovenia","name":"Kočevje","name_adm0":"Slovenija","name_adm1":"Kocevje","name_adm2":"Kocevje","name_en":"Kočevje","iso":"SI"},"geometry":{"type":"Point","coordinates":[14.86333,45.64333]}},{"type":"Feature","properties":{"country_en":"Slovenia","name":"Podgrad","name_adm0":"Slovenija","name_adm1":"Ilirska Bistrica","name_adm2":"Ilirska Bistrica","name_en":"Podgrad","iso":"SI"},"geometry":{"type":"Point","coordinates":[14.146109999999998,45.52167]}},{"type":"Feature","properties":{"country_en":"Slovenia","name":"Veliko Tinje","name_adm0":"Slovenija","name_adm1":"Slovenska Bistrica","name_adm2":"Slovenska Bistrica","name_en":"Veliko Tinje","iso":"SI"},"geometry":{"type":"Point","coordinates":[15.512219999999997,46.41222]}},{"type":"Feature","properties":{"country_en":"Slovenia","name":"Kocevje","name_adm0":"Slovenija","name_adm1":"Kocevje","name_en":"Kocevje","iso":"SI"},"geometry":{"type":"Point","coordinates":[14.90694,45.63028]}},{"type":"Feature","properties":{"country_en":"Slovenia","name":"Logatec","name_adm0":"Slovenija","name_adm1":"Logatec","name_en":"Logatec","iso":"SI"},"geometry":{"type":"Point","coordinates":[14.19583,45.92139]}},{"type":"Feature","properties":{"country_en":"Slovenia","name":"Grosuplje","name_adm0":"Slovenija","name_adm1":"Grosuplje","name_adm2":"Grosuplje","name_en":"Grosuplje","iso":"SI"},"geometry":{"type":"Point","coordinates":[14.674987,45.960696]}},{"type":"Feature","properties":{"country_en":"Slovenia","name":"Idrija","name_adm0":"Slovenija","name_adm1":"Idrija","name_adm2":"Idrija","name_en":"Idrija","iso":"SI"},"geometry":{"type":"Point","coordinates":[14.067993,45.951149]}},{"type":"Feature","properties":{"country_en":"Slovenia","name":"Rijavci","name_adm0":"Slovenija","name_adm1":"Nova Gorica","name_adm2":"Nova Gorica","name_en":"Rijavci","iso":"SI"},"geometry":{"type":"Point","coordinates":[13.757219999999998,45.96861]}},{"type":"Feature","properties":{"country_en":"Slovenia","name":"Sveti Lenart","name_adm0":"Slovenija","name_adm1":"Kranj","name_adm2":"Cerklje Na Gorenjskem","name_en":"Sveti Lenart","iso":"SI"},"geometry":{"type":"Point","coordinates":[14.2,46.18333]}},{"type":"Feature","properties":{"country_en":"Slovenia","name":"Kolovec","name_adm0":"Slovenija","name_adm1":"Domzale","name_adm2":"Domžale","name_en":"Kolovec","iso":"SI"},"geometry":{"type":"Point","coordinates":[14.65,46.21667]}},{"type":"Feature","properties":{"country_en":"Slovenia","name":"Macki","name_adm0":"Slovenija","name_adm1":"Ljubljana","name_adm2":"Velike Lašce","name_en":"Macki","iso":"SI"},"geometry":{"type":"Point","coordinates":[14.54639,45.84917]}},{"type":"Feature","properties":{"country_en":"Slovenia","name":"Krska Vas","name_adm0":"Slovenija","name_adm1":"Grosuplje","name_adm2":"Ivancna Gorica","name_en":"Krska Vas","iso":"SI"},"geometry":{"type":"Point","coordinates":[15.566669999999998,45.9]}},{"type":"Feature","properties":{"country_en":"Slovenia","name":"Prevalje Pod Krimom","name_adm0":"Slovenija","name_adm1":"Ljubljana","name_adm2":"Brezovica","name_en":"Prevalje Pod Krimom","iso":"SI"},"geometry":{"type":"Point","coordinates":[14.392779999999998,45.95556]}},{"type":"Feature","properties":{"country_en":"Slovenia","name":"Mosenik","name_adm0":"Slovenija","name_adm1":"Domzale","name_adm2":"Moravce","name_en":"Mosenik","iso":"SI"},"geometry":{"type":"Point","coordinates":[15.73333,46.08333]}},{"type":"Feature","properties":{"country_en":"Slovenia","name":"Sentjurje","name_adm0":"Slovenija","name_adm1":"Grosuplje","name_adm2":"Ivancna Gorica","name_en":"Sentjurje","iso":"SI"},"geometry":{"type":"Point","coordinates":[14.816939999999999,46.07306]}},{"type":"Feature","properties":{"country_en":"Slovenia","name":"Podgozd","name_adm0":"Slovenija","name_adm1":"Ljubljana","name_adm2":"Ig","name_en":"Podgozd","iso":"SI"},"geometry":{"type":"Point","coordinates":[14.96583,45.79832999999999]}},{"type":"Feature","properties":{"country_en":"Slovenia","name":"Zabukovje","name_adm0":"Slovenija","name_adm1":"Kranj","name_adm2":"Kranj","name_en":"Zabukovje","iso":"SI"},"geometry":{"type":"Point","coordinates":[15.05,45.98333]}},{"type":"Feature","properties":{"country_en":"Slovenia","name":"Malni","name_adm0":"Slovenija","name_adm1":"Cerknica","name_adm2":"Bloke","name_en":"Malni","iso":"SI"},"geometry":{"type":"Point","coordinates":[14.26083,45.82193999999999]}},{"type":"Feature","properties":{"country_en":"Slovenia","name":"Prevalje","name_adm0":"Slovenija","name_adm1":"Domzale","name_adm2":"Lukovica","name_en":"Prevalje","iso":"SI"},"geometry":{"type":"Point","coordinates":[15.03722,46.0275]}},{"type":"Feature","properties":{"country_en":"Slovenia","name":"Male Kompolje","name_adm0":"Slovenija","name_adm1":"Grosuplje","name_adm2":"Ivancna Gorica","name_en":"Male Kompolje","iso":"SI"},"geometry":{"type":"Point","coordinates":[15.249999999999998,45.91667]}},{"type":"Feature","properties":{"country_en":"Slovenia","name":"Veliki Vrh","name_adm0":"Slovenija","name_adm1":"Cerknica","name_adm2":"Bloke","name_en":"Veliki Vrh","iso":"SI"},"geometry":{"type":"Point","coordinates":[15.06667,46.35]}},{"type":"Feature","properties":{"country_en":"Slovenia","name":"Ponova Vas","name_adm0":"Slovenija","name_adm1":"Grosuplje","name_adm2":"Grosuplje","name_en":"Ponova Vas","iso":"SI"},"geometry":{"type":"Point","coordinates":[14.632779999999999,45.93833]}},{"type":"Feature","properties":{"country_en":"Slovenia","name":"Jasen","name_adm0":"Slovenija","name_adm1":"Ilirska Bistrica","name_adm2":"Ilirska Bistrica","name_en":"Jasen","iso":"SI"},"geometry":{"type":"Point","coordinates":[14.268889999999999,45.55222]}},{"type":"Feature","properties":{"country_en":"Slovenia","name":"Gabrje Pod Spilkom","name_adm0":"Slovenija","name_adm1":"Domzale","name_adm2":"Lukovica","name_en":"Gabrje Pod Spilkom","iso":"SI"},"geometry":{"type":"Point","coordinates":[14.815280000000001,46.19556]}},{"type":"Feature","properties":{"country_en":"Slovenia","name":"Dule","name_adm0":"Slovenija","name_adm1":"Ribnica","name_adm2":"Ribnica","name_en":"Dule","iso":"SI"},"geometry":{"type":"Point","coordinates":[15.25556,45.70139]}},{"type":"Feature","properties":{"country_en":"Slovenia","name":"Nova Susica","name_adm0":"Slovenija","name_adm1":"Postojna","name_adm2":"Pivka","name_en":"Nova Susica","iso":"SI"},"geometry":{"type":"Point","coordinates":[14.14722,45.651669999999996]}},{"type":"Feature","properties":{"country_en":"Slovenia","name":"Dorfarje","name_adm0":"Slovenija","name_adm1":"Skofja Loka","name_adm2":"Škofja Loka","name_en":"Dorfarje","iso":"SI"},"geometry":{"type":"Point","coordinates":[14.333329999999998,46.2]}},{"type":"Feature","properties":{"country_en":"Slovenia","name":"Mali Dol","name_adm0":"Slovenija","name_adm1":"Sezana","name_adm2":"Komen","name_en":"Mali Dol","iso":"SI"},"geometry":{"type":"Point","coordinates":[13.7725,45.82722]}},{"type":"Feature","properties":{"country_en":"Slovenia","name":"Bukovscica","name_adm0":"Slovenija","name_adm1":"Skofja Loka","name_adm2":"Škofja Loka","name_en":"Bukovscica","iso":"SI"},"geometry":{"type":"Point","coordinates":[14.266669999999998,46.21667]}},{"type":"Feature","properties":{"country_en":"Slovenia","name":"Baredi","name_adm0":"Slovenija","name_adm1":"Izola","name_adm2":"Izola","name_en":"Baredi","iso":"SI"},"geometry":{"type":"Point","coordinates":[14.5525,45.81472]}},{"type":"Feature","properties":{"country_en":"Slovenia","name":"Zigoni","name_adm0":"Slovenija","name_adm1":"Nova Gorica","name_adm2":"Nova Gorica","name_en":"Zigoni","iso":"SI"},"geometry":{"type":"Point","coordinates":[13.66778,45.87972]}},{"type":"Feature","properties":{"country_en":"Slovenia","name":"Bukovski Vrh","name_adm0":"Slovenija","name_adm1":"Tolmin","name_adm2":"Tolmin","name_en":"Bukovski Vrh","iso":"SI"},"geometry":{"type":"Point","coordinates":[14.21667,46.11667]}},{"type":"Feature","properties":{"country_en":"Slovenia","name":"Sv. Lenart","name_adm0":"Slovenija","name_adm1":"Skofja Loka","name_adm2":"Železniki","name_en":"Sv. Lenart","iso":"SI"},"geometry":{"type":"Point","coordinates":[14.2,46.18333]}},{"type":"Feature","properties":{"country_en":"Slovenia","name":"Zirje","name_adm0":"Slovenija","name_adm1":"Sezana","name_adm2":"Sežana","name_en":"Zirje","iso":"SI"},"geometry":{"type":"Point","coordinates":[13.91861,45.70833]}},{"type":"Feature","properties":{"country_en":"Slovenia","name":"Otoce","name_adm0":"Slovenija","name_adm1":"Radovljica","name_adm2":"Radovljica","name_en":"Otoce","iso":"SI"},"geometry":{"type":"Point","coordinates":[14.23333,46.31194]}},{"type":"Feature","properties":{"country_en":"Slovenia","name":"Zvirce","name_adm0":"Slovenija","name_adm1":"Trzic","name_adm2":"Tržic","name_en":"Zvirce","iso":"SI"},"geometry":{"type":"Point","coordinates":[14.28111,46.33167]}},{"type":"Feature","properties":{"country_en":"Slovenia","name":"Batuje","name_adm0":"Slovenija","name_adm1":"Ajdovscina","name_adm2":"Ajdovšcina","name_en":"Batuje","iso":"SI"},"geometry":{"type":"Point","coordinates":[13.77778,45.89639]}},{"type":"Feature","properties":{"country_en":"Slovenia","name":"Pristavo","name_adm0":"Slovenija","name_adm1":"Nova Gorica","name_adm2":"Brda","name_en":"Pristavo","iso":"SI"},"geometry":{"type":"Point","coordinates":[13.638609999999998,45.94917]}},{"type":"Feature","properties":{"country_en":"Slovenia","name":"Tomacevica","name_adm0":"Slovenija","name_adm1":"Sezana","name_adm2":"Komen","name_en":"Tomacevica","iso":"SI"},"geometry":{"type":"Point","coordinates":[13.77361,45.81806]}},{"type":"Feature","properties":{"country_en":"Slovenia","name":"Malo Lipje","name_adm0":"Slovenija","name_adm1":"Novo Mesto","name_adm2":"Žužemberk","name_en":"Malo Lipje","iso":"SI"},"geometry":{"type":"Point","coordinates":[15.499999999999998,46.41667]}},{"type":"Feature","properties":{"country_en":"Slovenia","name":"Bukovca","name_adm0":"Slovenija","name_adm1":"Lasko","name_adm2":"Laško","name_en":"Bukovca","iso":"SI"},"geometry":{"type":"Point","coordinates":[14.863890000000001,45.97528]}},{"type":"Feature","properties":{"country_en":"Slovenia","name":"Male Dole","name_adm0":"Slovenija","name_adm1":"Celje","name_adm2":"Vojnik","name_en":"Male Dole","iso":"SI"},"geometry":{"type":"Point","coordinates":[15.73333,46.65]}},{"type":"Feature","properties":{"country_en":"Slovenia","name":"Speharji","name_adm0":"Slovenija","name_adm1":"Crnomelj","name_adm2":"Crnomelj","name_en":"Speharji","iso":"SI"},"geometry":{"type":"Point","coordinates":[15.36833,45.338609999999996]}},{"type":"Feature","properties":{"country_en":"Slovenia","name":"Bukovska Vas","name_adm0":"Slovenija","name_adm1":"Dravograd","name_adm2":"Dravograd","name_en":"Bukovska Vas","iso":"SI"},"geometry":{"type":"Point","coordinates":[15.051669999999998,46.55]}},{"type":"Feature","properties":{"country_en":"Slovenia","name":"Strazica","name_adm0":"Slovenija","name_adm1":"Celje","name_adm2":"Vojnik","name_en":"Strazica","iso":"SI"},"geometry":{"type":"Point","coordinates":[15.31639,46.33083]}},{"type":"Feature","properties":{"country_en":"Slovenia","name":"Vidrga","name_adm0":"Slovenija","name_adm1":"Zagorje Ob Savi","name_adm2":"Zagorje Ob Savi","name_en":"Vidrga","iso":"SI"},"geometry":{"type":"Point","coordinates":[14.57056,45.481109999999994]}},{"type":"Feature","properties":{"country_en":"Slovenia","name":"Ravne Nad Sentrupertom","name_adm0":"Slovenija","name_adm1":"Trebnje","name_adm2":"Trebnje","name_en":"Ravne Nad Sentrupertom","iso":"SI"},"geometry":{"type":"Point","coordinates":[15.06667,46.01667]}},{"type":"Feature","properties":{"country_en":"Slovenia","name":"Rozni Vrh","name_adm0":"Slovenija","name_adm1":"Trebnje","name_adm2":"Trebnje","name_en":"Rozni Vrh","iso":"SI"},"geometry":{"type":"Point","coordinates":[15.83333,46.33333]}},{"type":"Feature","properties":{"country_en":"Slovenia","name":"Debro","name_adm0":"Slovenija","name_adm1":"Lasko","name_adm2":"Laško","name_en":"Debro","iso":"SI"},"geometry":{"type":"Point","coordinates":[15.227219999999999,46.16694]}},{"type":"Feature","properties":{"country_en":"Slovenia","name":"Jesenovo","name_adm0":"Slovenija","name_adm1":"Zagorje Ob Savi","name_adm2":"Zagorje Ob Savi","name_en":"Jesenovo","iso":"SI"},"geometry":{"type":"Point","coordinates":[15.476939999999999,46.02361]}},{"type":"Feature","properties":{"country_en":"Slovenia","name":"Most","name_adm0":"Slovenija","name_adm1":"Trebnje","name_adm2":"Trebnje","name_en":"Most","iso":"SI"},"geometry":{"type":"Point","coordinates":[14.551389999999998,46.19499999999999]}},{"type":"Feature","properties":{"country_en":"Slovenia","name":"Kostanjevica","name_adm0":"Slovenija","name_adm1":"Trebnje","name_adm2":"Trebnje","name_en":"Kostanjevica","iso":"SI"},"geometry":{"type":"Point","coordinates":[15.46667,45.7]}},{"type":"Feature","properties":{"country_en":"Slovenia","name":"Puc","name_adm0":"Slovenija","name_adm1":"Kocevje","name_adm2":"Kostel","name_en":"Puc","iso":"SI"},"geometry":{"type":"Point","coordinates":[14.849170000000003,45.52306]}},{"type":"Feature","properties":{"country_en":"Slovenia","name":"Osredek","name_adm0":"Slovenija","name_adm1":"Zagorje Ob Savi","name_adm2":"Zagorje Ob Savi","name_en":"Osredek","iso":"SI"},"geometry":{"type":"Point","coordinates":[15.016669999999998,46.04999999999999]}},{"type":"Feature","properties":{"country_en":"Slovenia","name":"Sevce","name_adm0":"Slovenija","name_adm1":"Lasko","name_adm2":"Laško","name_en":"Sevce","iso":"SI"},"geometry":{"type":"Point","coordinates":[15.88583,45.9425]}},{"type":"Feature","properties":{"country_en":"Slovenia","name":"Breg Pri Sinjem Vrhu","name_adm0":"Slovenija","name_adm1":"Crnomelj","name_adm2":"Crnomelj","name_en":"Breg Pri Sinjem Vrhu","iso":"SI"},"geometry":{"type":"Point","coordinates":[15.2,45.63333]}},{"type":"Feature","properties":{"country_en":"Slovenia","name":"Cesnjice","name_adm0":"Slovenija","name_adm1":"Sevnica","name_adm2":"Sevnica","name_en":"Cesnjice","iso":"SI"},"geometry":{"type":"Point","coordinates":[14.78333,46.2]}},{"type":"Feature","properties":{"country_en":"Slovenia","name":"Selo Pri Zagorju","name_adm0":"Slovenija","name_adm1":"Zagorje Ob Savi","name_adm2":"Zagorje Ob Savi","name_en":"Selo Pri Zagorju","iso":"SI"},"geometry":{"type":"Point","coordinates":[14.96667,46.15]}},{"type":"Feature","properties":{"country_en":"Slovenia","name":"Gobnik","name_adm0":"Slovenija","name_adm1":"Litija","name_adm2":"Litija","name_en":"Gobnik","iso":"SI"},"geometry":{"type":"Point","coordinates":[14.465,45.365559999999995]}},{"type":"Feature","properties":{"country_en":"Slovenia","name":"Hohovica","name_adm0":"Slovenija","name_adm1":"Litija","name_adm2":"Litija","name_en":"Hohovica","iso":"SI"},"geometry":{"type":"Point","coordinates":[15.316670000000002,45.81667]}},{"type":"Feature","properties":{"country_en":"Slovenia","name":"Mirna Vas","name_adm0":"Slovenija","name_adm1":"Trebnje","name_adm2":"Trebnje","name_en":"Mirna Vas","iso":"SI"},"geometry":{"type":"Point","coordinates":[15.77111,46.295]}},{"type":"Feature","properties":{"country_en":"Slovenia","name":"Dekmanca","name_adm0":"Slovenija","name_adm1":"Smarje Pri Jelsah","name_adm2":"Bistrica Ob Sotli","name_en":"Dekmanca","iso":"SI"},"geometry":{"type":"Point","coordinates":[15.63194,46.0825]}},{"type":"Feature","properties":{"country_en":"Slovenia","name":"Berinjak","name_adm0":"Slovenija","name_adm1":"Ptuj","name_adm2":"Videm","name_en":"Berinjak","iso":"SI"},"geometry":{"type":"Point","coordinates":[14.936939999999998,44.91639]}},{"type":"Feature","properties":{"country_en":"Slovenia","name":"Doklece","name_adm0":"Slovenija","name_adm1":"Ptuj","name_adm2":"Majšperk","name_en":"Doklece","iso":"SI"},"geometry":{"type":"Point","coordinates":[15.78222,46.34667]}},{"type":"Feature","properties":{"country_en":"Slovenia","name":"Lipa","name_adm0":"Slovenija","name_adm1":"Slovenske Konjice","name_adm2":"Zrece","name_en":"Lipa","iso":"SI"},"geometry":{"type":"Point","coordinates":[14.77528,45.78389]}},