{"type":"FeatureCollection","features":[{"type":"Feature","properties":{"country_en":"Slovakia","name":"Dolná Trnávka","name_adm0":"Slovenská","name_adm1":"Banskobystricky","name_adm2":"Ziar Nad Hronom","name_en":"Dolná Trnávka","iso":"SK"},"geometry":{"type":"Point","coordinates":[18.788349999999998,48.56036999999999]}},{"type":"Feature","properties":{"country_en":"Slovakia","name":"Dolná Ves","name_adm0":"Slovenská","name_adm1":"Banskobystricky","name_adm2":"Ziar Nad Hronom","name_en":"Dolná Ves","iso":"SK"},"geometry":{"type":"Point","coordinates":[18.91294,48.66473]}},{"type":"Feature","properties":{"country_en":"Slovakia","name":"Dolné Srnie","name_adm0":"Slovenská","name_adm1":"Trenciansky","name_adm2":"Nove Mesto Nad Vahom","name_en":"Dolnie Srnie","iso":"SK"},"geometry":{"type":"Point","coordinates":[17.82057,48.80215999999999]}},{"type":"Feature","properties":{"country_en":"Slovakia","name":"Jankovce","name_adm0":"Slovenská","name_adm1":"Presovsky","name_adm2":"Humenne","name_en":"Jankovce","iso":"SK"},"geometry":{"type":"Point","coordinates":[21.79685,49.05859]}},{"type":"Feature","properties":{"country_en":"Slovakia","name":"Janovce","name_adm0":"Slovenská","name_adm1":"Presovsky","name_adm2":"Bardejov","name_en":"Janovce","iso":"SK"},"geometry":{"type":"Point","coordinates":[21.30616,49.18969]}},{"type":"Feature","properties":{"country_en":"Slovakia","name":"Kamenné Kosihy","name_adm0":"Slovenská","name_adm1":"Banskobystricky","name_adm2":"Velky Krtis","name_en":"Kamenné Kosihy","iso":"SK"},"geometry":{"type":"Point","coordinates":[19.19346,48.14220999999999]}},{"type":"Feature","properties":{"country_en":"Slovakia","name":"Kamienka","name_adm0":"Slovenská","name_adm1":"Presovsky","name_adm2":"Humenne","name_en":"Kamienka","iso":"SK"},"geometry":{"type":"Point","coordinates":[22.00095,48.90622]}},{"type":"Feature","properties":{"country_en":"Slovakia","name":"Koniarovce","name_adm0":"Slovenská","name_adm1":"Nitriansky","name_adm2":"Topolcany","name_en":"Lovasovce","iso":"SK"},"geometry":{"type":"Point","coordinates":[18.09304,48.42844]}},{"type":"Feature","properties":{"country_en":"Slovakia","name":"Konrádovce","name_adm0":"Slovenská","name_adm1":"Banskobystricky","name_adm2":"Rimavska Sobota","name_en":"Konrádovce","iso":"SK"},"geometry":{"type":"Point","coordinates":[19.90383,48.29977]}},{"type":"Feature","properties":{"country_en":"Slovakia","name":"Koňuš","name_adm0":"Slovenská","name_adm1":"Kosicky","name_adm2":"Sobrance","name_en":"Koňuš","iso":"SK"},"geometry":{"type":"Point","coordinates":[22.26913,48.77625999999999]}},{"type":"Feature","properties":{"country_en":"Slovakia","name":"Kordiši","name_adm0":"Slovenská","name_adm1":"Zilinsky","name_adm2":"Cadca","name_en":"Kordiši","iso":"SK"},"geometry":{"type":"Point","coordinates":[18.73231,49.39682]}},{"type":"Feature","properties":{"country_en":"Slovakia","name":"Marček","name_adm0":"Slovenská","name_adm1":"Zilinsky","name_adm2":"Zilina","name_en":"Marček","iso":"SK"},"geometry":{"type":"Point","coordinates":[18.67455,49.26354]}},{"type":"Feature","properties":{"country_en":"Slovakia","name":"Marhaň","name_adm0":"Slovenská","name_adm1":"Presovsky","name_adm2":"Bardejov","name_en":"Marhaň","iso":"SK"},"geometry":{"type":"Point","coordinates":[21.44933,49.17047]}},{"type":"Feature","properties":{"country_en":"Slovakia","name":"Markovce","name_adm0":"Slovenská","name_adm1":"Kosicky","name_adm2":"Michalovce","name_en":"Markovce","iso":"SK"},"geometry":{"type":"Point","coordinates":[21.84266,48.590869999999995]}},{"type":"Feature","properties":{"country_en":"Slovakia","name":"Markuška","name_adm0":"Slovenská","name_adm1":"Kosicky","name_adm2":"Roznava","name_en":"Markuška","iso":"SK"},"geometry":{"type":"Point","coordinates":[20.32624,48.728379999999994]}},{"type":"Feature","properties":{"country_en":"Slovakia","name":"Nozdrovice","name_adm0":"Slovenská","name_adm1":"Trenciansky","name_adm2":"Ilava","name_en":"Nozdrovice","iso":"SK"},"geometry":{"type":"Point","coordinates":[18.27908,49.01446]}},{"type":"Feature","properties":{"country_en":"Slovakia","name":"Nýrovce","name_adm0":"Slovenská","name_adm1":"Nitriansky","name_adm2":"Levice","name_en":"Nyir","iso":"SK"},"geometry":{"type":"Point","coordinates":[18.58208,48.02509]}},{"type":"Feature","properties":{"country_en":"Slovakia","name":"Obeckov","name_adm0":"Slovenská","name_adm1":"Banskobystricky","name_adm2":"Velky Krtis","name_en":"Obeckov","iso":"SK"},"geometry":{"type":"Point","coordinates":[19.33221,48.16992]}},{"type":"Feature","properties":{"country_en":"Slovakia","name":"Obručné","name_adm0":"Slovenská","name_adm1":"Presovsky","name_adm2":"Stara Lubovna","name_en":"Obručné","iso":"SK"},"geometry":{"type":"Point","coordinates":[20.98166,49.303]}},{"type":"Feature","properties":{"country_en":"Slovakia","name":"Obsolovce","name_adm0":"Slovenská","name_adm1":"Nitriansky","name_adm2":"Topolcany","name_en":"Obsolovce","iso":"SK"},"geometry":{"type":"Point","coordinates":[18.0147,48.50051]}},{"type":"Feature","properties":{"country_en":"Slovakia","name":"Obyce","name_adm0":"Slovenská","name_adm1":"Nitriansky","name_adm2":"Zlate Moravce","name_en":"Obyce","iso":"SK"},"geometry":{"type":"Point","coordinates":[18.45632,48.42738]}},{"type":"Feature","properties":{"country_en":"Slovakia","name":"Olcnava","name_adm0":"Slovenská","name_adm1":"Kosicky","name_adm2":"Spisska Nova Ves","name_en":"Olcnava","iso":"SK"},"geometry":{"type":"Point","coordinates":[20.75562,48.92753]}},{"type":"Feature","properties":{"country_en":"Slovakia","name":"Ol̕ka","name_adm0":"Slovenská","name_adm1":"Presovsky","name_adm2":"Medzilaborce","name_en":"Ol̕ka","iso":"SK"},"geometry":{"type":"Point","coordinates":[21.84637,49.15376]}},{"type":"Feature","properties":{"country_en":"Slovakia","name":"Rovensko","name_adm0":"Slovenská","name_adm1":"Trnavsky","name_adm2":"Senica","name_en":"Rovensko","iso":"SK"},"geometry":{"type":"Point","coordinates":[17.37602,48.71435]}},{"type":"Feature","properties":{"country_en":"Slovakia","name":"Slatinské Lazy","name_adm0":"Slovenská","name_adm1":"Banskobystricky","name_adm2":"Detva","name_en":"Slatinské Lazy","iso":"SK"},"geometry":{"type":"Point","coordinates":[19.30845,48.49896]}},{"type":"Feature","properties":{"country_en":"Slovakia","name":"Banská Bystrica","name_adm0":"Slovenská","name_adm1":"Banskobystricky","name_adm2":"Banska Bystrica","name_en":"Banska Bystrica","iso":"SK"},"geometry":{"type":"Point","coordinates":[19.15349,48.73946]}},{"type":"Feature","properties":{"country_en":"Slovakia","name":"Dunajská Streda","name_adm0":"Slovenská","name_adm1":"Trnavsky","name_adm2":"Dunajska Streda","name_en":"Dunajska Streda","iso":"SK"},"geometry":{"type":"Point","coordinates":[17.61211,47.99268]}},{"type":"Feature","properties":{"country_en":"Slovakia","name":"Nové Mesto nad Váhom","name_adm0":"Slovenská","name_adm1":"Trenciansky","name_adm2":"Nove Mesto Nad Vahom","name_en":"Nove Meslo","iso":"SK"},"geometry":{"type":"Point","coordinates":[17.8309,48.75762999999999]}},{"type":"Feature","properties":{"country_en":"Slovakia","name":"Čičmany","name_adm0":"Slovenská","name_adm1":"Zilinsky","name_adm2":"Zilina","name_en":"Čičmany","iso":"SK"},"geometry":{"type":"Point","coordinates":[18.51608,48.95503]}},{"type":"Feature","properties":{"country_en":"Slovakia","name":"Dedinky","name_adm0":"Slovenská","name_adm1":"Kosicky","name_adm2":"Roznava","name_en":"Dedinky","iso":"SK"},"geometry":{"type":"Point","coordinates":[20.37947,48.86719999999999]}},{"type":"Feature","properties":{"country_en":"Slovakia","name":"Dolné Zahorany","name_adm0":"Slovenská","name_adm1":"Banskobystricky","name_adm2":"Rimavska Sobota","name_en":"Hegymeg","iso":"SK"},"geometry":{"type":"Point","coordinates":[19.90404,48.35063]}},{"type":"Feature","properties":{"country_en":"Slovakia","name":"Dolný Jatov","name_adm0":"Slovenská","name_adm1":"Nitriansky","name_adm2":"Nove Zamky","name_en":"Dolný Jatov","iso":"SK"},"geometry":{"type":"Point","coordinates":[18.03333,48.13333]}},{"type":"Feature","properties":{"country_en":"Slovakia","name":"Dolný Lopašov","name_adm0":"Slovenská","name_adm1":"Trnavsky","name_adm2":"Piestany","name_en":"Dolný Lopašov","iso":"SK"},"geometry":{"type":"Point","coordinates":[17.64634,48.574059999999996]}},{"type":"Feature","properties":{"country_en":"Slovakia","name":"Horný Jalšovík","name_adm0":"Slovenská","name_adm1":"Banskobystricky","name_adm2":"Krupina","name_en":"Horný Jalšovík","iso":"SK"},"geometry":{"type":"Point","coordinates":[19.106869999999997,48.31928]}},{"type":"Feature","properties":{"country_en":"Slovakia","name":"Hubina","name_adm0":"Slovenská","name_adm1":"Trnavsky","name_adm2":"Piestany","name_en":"Hubina","iso":"SK"},"geometry":{"type":"Point","coordinates":[17.88475,48.61794]}},{"type":"Feature","properties":{"country_en":"Slovakia","name":"Hunkovce","name_adm0":"Slovenská","name_adm1":"Presovsky","name_adm2":"Svidnik","name_en":"Hunkovce","iso":"SK"},"geometry":{"type":"Point","coordinates":[21.65187,49.36019]}},{"type":"Feature","properties":{"country_en":"Slovakia","name":"Husiná","name_adm0":"Slovenská","name_adm1":"Banskobystricky","name_adm2":"Rimavska Sobota","name_en":"Guszona","iso":"SK"},"geometry":{"type":"Point","coordinates":[19.88196,48.34255]}},{"type":"Feature","properties":{"country_en":"Slovakia","name":"Hýl̕ov","name_adm0":"Slovenská","name_adm1":"Kosicky","name_adm2":"Kosice-Okolie","name_en":"Hýl̕ov","iso":"SK"},"geometry":{"type":"Point","coordinates":[21.10604,48.7303]}},{"type":"Feature","properties":{"country_en":"Slovakia","name":"Ihráč","name_adm0":"Slovenská","name_adm1":"Banskobystricky","name_adm2":"Ziar Nad Hronom","name_en":"Ihráč","iso":"SK"},"geometry":{"type":"Point","coordinates":[18.9528,48.65459]}},{"type":"Feature","properties":{"country_en":"Slovakia","name":"Kálnica","name_adm0":"Slovenská","name_adm1":"Nitriansky","name_adm2":"Levice","name_en":"Kálnica","iso":"SK"},"geometry":{"type":"Point","coordinates":[18.52047,48.20991]}},{"type":"Feature","properties":{"country_en":"Slovakia","name":"Kamenica nad Cirochou","name_adm0":"Slovenská","name_adm1":"Presovsky","name_adm2":"Humenne","name_en":"Kamenica nad Cirokou","iso":"SK"},"geometry":{"type":"Point","coordinates":[21.99701,48.931439999999995]}},{"type":"Feature","properties":{"country_en":"Slovakia","name":"Kojšov","name_adm0":"Slovenská","name_adm1":"Kosicky","name_adm2":"Gelnica","name_en":"Kojšov","iso":"SK"},"geometry":{"type":"Point","coordinates":[20.98775,48.82184]}},{"type":"Feature","properties":{"country_en":"Slovakia","name":"Liptovské Beharovce","name_adm0":"Slovenská","name_adm1":"Zilinsky","name_adm2":"Liptovsky Mikulas","name_en":"Beharovce","iso":"SK"},"geometry":{"type":"Point","coordinates":[19.577889999999996,49.13657]}},{"type":"Feature","properties":{"country_en":"Slovakia","name":"Lipovník","name_adm0":"Slovenská","name_adm1":"Kosicky","name_adm2":"Roznava","name_en":"Lipovník","iso":"SK"},"geometry":{"type":"Point","coordinates":[20.62176,48.62913]}},{"type":"Feature","properties":{"country_en":"Slovakia","name":"Nivy","name_adm0":"Slovenská","name_adm1":"Bratislavsky","name_adm2":"Bratislava","name_en":"Nivy","iso":"SK"},"geometry":{"type":"Point","coordinates":[17.137029999999996,48.14455]}},{"type":"Feature","properties":{"country_en":"Slovakia","name":"Nové Košariská","name_adm0":"Slovenská","name_adm1":"Bratislavsky","name_adm2":"Senec","name_en":"Mischdorf","iso":"SK"},"geometry":{"type":"Point","coordinates":[17.25826,48.08873]}},{"type":"Feature","properties":{"country_en":"Slovakia","name":"Nozdrkovce","name_adm0":"Slovenská","name_adm1":"Trenciansky","name_adm2":"Trencin","name_en":"Nozdrkovce","iso":"SK"},"geometry":{"type":"Point","coordinates":[18.00239,48.87552]}},{"type":"Feature","properties":{"country_en":"Slovakia","name":"Obid","name_adm0":"Slovenská","name_adm1":"Nitriansky","name_adm2":"Nove Zamky","name_en":"Ebed","iso":"SK"},"geometry":{"type":"Point","coordinates":[18.6471,47.77804]}},{"type":"Feature","properties":{"country_en":"Slovakia","name":"Podlipníky","name_adm0":"Slovenská","name_adm1":"Presovsky","name_adm2":"Vranov Nad Toplou","name_en":"Podlipníky","iso":"SK"},"geometry":{"type":"Point","coordinates":[21.45575,49.03586]}},{"type":"Feature","properties":{"country_en":"Slovakia","name":"Podlužany","name_adm0":"Slovenská","name_adm1":"Nitriansky","name_adm2":"Levice","name_en":"Podlužany","iso":"SK"},"geometry":{"type":"Point","coordinates":[18.605999999999998,48.25444]}},{"type":"Feature","properties":{"country_en":"Slovakia","name":"Porúbka","name_adm0":"Slovenská","name_adm1":"Presovsky","name_adm2":"Humenne","name_en":"Porúbka","iso":"SK"},"geometry":{"type":"Point","coordinates":[21.959289999999996,48.8635]}},{"type":"Feature","properties":{"country_en":"Slovakia","name":"Považské Podhradie","name_adm0":"Slovenská","name_adm1":"Trenciansky","name_adm2":"Povazska Bystrica","name_en":"Považské Podhradie","iso":"SK"},"geometry":{"type":"Point","coordinates":[18.451549999999997,49.134589999999996]}},{"type":"Feature","properties":{"country_en":"Slovakia","name":"Považský Chlmec","name_adm0":"Slovenská","name_adm1":"Zilinsky","name_adm2":"Zilina","name_en":"Považský Chlmec","iso":"SK"},"geometry":{"type":"Point","coordinates":[18.721089999999997,49.240689999999994]}},{"type":"Feature","properties":{"country_en":"Slovakia","name":"Prašník","name_adm0":"Slovenská","name_adm1":"Trnavsky","name_adm2":"Piestany","name_en":"Prašník","iso":"SK"},"geometry":{"type":"Point","coordinates":[17.68732,48.65146]}},{"type":"Feature","properties":{"country_en":"Slovakia","name":"Predajná","name_adm0":"Slovenská","name_adm1":"Banskobystricky","name_adm2":"Brezno","name_en":"Predajná","iso":"SK"},"geometry":{"type":"Point","coordinates":[19.46092,48.81688]}},{"type":"Feature","properties":{"country_en":"Slovakia","name":"Prekážka","name_adm0":"Slovenská","name_adm1":"Trnavsky","name_adm2":"Trnava","name_en":"Prekážka","iso":"SK"},"geometry":{"type":"Point","coordinates":[17.50514,48.53502999999999]}},{"type":"Feature","properties":{"country_en":"Slovakia","name":"Sampor","name_adm0":"Slovenská","name_adm1":"Banskobystricky","name_adm2":"Zvolen","name_en":"Sampor","iso":"SK"},"geometry":{"type":"Point","coordinates":[19.200559999999996,48.62881]}},{"type":"Feature","properties":{"country_en":"Slovakia","name":"Rakovice","name_adm0":"Slovenská","name_adm1":"Trnavsky","name_adm2":"Piestany","name_en":"Rakovice","iso":"SK"},"geometry":{"type":"Point","coordinates":[17.739,48.55788]}},{"type":"Feature","properties":{"country_en":"Slovakia","name":"Trenčianske Jastrabie","name_adm0":"Slovenská","name_adm1":"Trenciansky","name_adm2":"Trencin","name_en":"Jastrabie","iso":"SK"},"geometry":{"type":"Point","coordinates":[18.10852,48.80129]}},{"type":"Feature","properties":{"country_en":"Slovakia","name":"Vad̕ovce","name_adm0":"Slovenská","name_adm1":"Trenciansky","name_adm2":"Nove Mesto Nad Vahom","name_en":"Vad̕ovce","iso":"SK"},"geometry":{"type":"Point","coordinates":[17.72164,48.74044]}},{"type":"Feature","properties":{"country_en":"Slovakia","name":"Vécs","name_adm0":"Slovenská","name_adm1":"Kosicky","name_adm2":"Trebisov","name_en":"Vécs","iso":"SK"},"geometry":{"type":"Point","coordinates":[21.81156,48.41296]}},{"type":"Feature","properties":{"country_en":"Slovakia","name":"Veličná","name_adm0":"Slovenská","name_adm1":"Zilinsky","name_adm2":"Dolny Kubin","name_en":"Veličná","iso":"SK"},"geometry":{"type":"Point","coordinates":[19.24725,49.20704]}},{"type":"Feature","properties":{"country_en":"Slovakia","name":"Vel̕ké Janíkovce","name_adm0":"Slovenská","name_adm1":"Nitriansky","name_adm2":"Nitra","name_en":"Janikovce","iso":"SK"},"geometry":{"type":"Point","coordinates":[18.138619999999996,48.28461999999999]}},{"type":"Feature","properties":{"country_en":"Slovakia","name":"Vidová","name_adm0":"Slovenská","name_adm1":"Kosicky","name_adm2":"Roznava","name_en":"Vidová","iso":"SK"},"geometry":{"type":"Point","coordinates":[20.44108,48.5634]}},{"type":"Feature","properties":{"country_en":"Slovakia","name":"Vištuk","name_adm0":"Slovenská","name_adm1":"Bratislavsky","name_adm2":"Pezinok","name_en":"Vištuk","iso":"SK"},"geometry":{"type":"Point","coordinates":[17.39945,48.33343]}},{"type":"Feature","properties":{"country_en":"Slovakia","name":"Vinohrady","name_adm0":"Slovenská","name_adm1":"Bratislavsky","name_adm2":"Bratislava","name_en":"Vinohrady","iso":"SK"},"geometry":{"type":"Point","coordinates":[17.11447,48.16171]}},{"type":"Feature","properties":{"country_en":"Slovakia","name":"Žabokreky nad Nitrou","name_adm0":"Slovenská","name_adm1":"Trenciansky","name_adm2":"Partizanske","name_en":"Žabokreky nad Nitrou","iso":"SK"},"geometry":{"type":"Point","coordinates":[18.30253,48.6242]}},{"type":"Feature","properties":{"country_en":"Slovakia","name":"Žabokreky","name_adm0":"Slovenská","name_adm1":"Zilinsky","name_adm2":"Martin","name_en":"Žabokreky","iso":"SK"},"geometry":{"type":"Point","coordinates":[18.92382,49.02427]}},{"type":"Feature","properties":{"country_en":"Slovakia","name":"Rokytov","name_adm0":"Slovenská","name_adm1":"Presovsky","name_adm2":"Bardejov","name_en":"Rokytov","iso":"SK"},"geometry":{"type":"Point","coordinates":[21.19011,49.318149999999996]}},{"type":"Feature","properties":{"country_en":"Slovakia","name":"Tlmače","name_adm0":"Slovenská","name_adm1":"Nitriansky","name_adm2":"Levice","name_en":"Tlmače","iso":"SK"},"geometry":{"type":"Point","coordinates":[18.53152,48.28926]}},{"type":"Feature","properties":{"country_en":"Slovakia","name":"Tuhár","name_adm0":"Slovenská","name_adm1":"Banskobystricky","name_adm2":"Lucenec","name_en":"Tuhár","iso":"SK"},"geometry":{"type":"Point","coordinates":[19.50544,48.42933]}},{"type":"Feature","properties":{"country_en":"Slovakia","name":"Rajec","name_adm0":"Slovenská","name_adm1":"Zilinsky","name_adm2":"Zilina","name_en":"Rajec","iso":"SK"},"geometry":{"type":"Point","coordinates":[18.64007,49.08898]}},{"type":"Feature","properties":{"country_en":"Slovakia","name":"Martin","name_adm0":"Slovenská","name_adm1":"Zilinsky","name_adm2":"Martin","name_en":"Martin","iso":"SK"},"geometry":{"type":"Point","coordinates":[18.93333,49.06667]}},{"type":"Feature","properties":{"country_en":"Slovakia","name":"Nove Zamky","name_adm0":"Slovenská","name_adm1":"Nitriansky","name_adm2":"Nove Zamky","name_en":"Nove Zamky","iso":"SK"},"geometry":{"type":"Point","coordinates":[18.16667,47.98333]}},{"type":"Feature","properties":{"country_en":"Slovakia","name":"Dubnica Nad Vahom","name_adm0":"Slovenská","name_adm1":"Trenciansky","name_adm2":"Ilava","name_en":"Dubnica Nad Vahom","iso":"SK"},"geometry":{"type":"Point","coordinates":[18.170013,48.961623]}},{"type":"Feature","properties":{"country_en":"Slovakia","name":"Jakubov","name_adm0":"Slovenská","name_adm1":"Bratislavsky","name_adm2":"Malacky","name_en":"Jakubov","iso":"SK"},"geometry":{"type":"Point","coordinates":[16.96701,48.41194099999999]}},{"type":"Feature","properties":{"country_en":"Slovakia","name":"Strecno","name_adm0":"Slovenská","name_adm1":"Zilinsky","name_adm2":"Zilina","name_en":"Strecno","iso":"SK"},"geometry":{"type":"Point","coordinates":[18.862183,49.1746]}},{"type":"Feature","properties":{"country_en":"Slovakia","name":"Vrutky","name_adm0":"Slovenská","name_adm1":"Zilinsky","name_adm2":"Martin","name_en":"Vrutky","iso":"SK"},"geometry":{"type":"Point","coordinates":[18.92498,49.1145]}},{"type":"Feature","properties":{"country_en":"Slovakia","name":"Tatranska Lesna","name_adm0":"Slovenská","name_adm1":"Presovsky","name_adm2":"Poprad","name_en":"Tatranska Lesna","iso":"SK"},"geometry":{"type":"Point","coordinates":[20.229434,49.175194]}},{"type":"Feature","properties":{"country_en":"Slovakia","name":"Bartošova Lehotka","name_adm0":"Slovenská","name_adm1":"Banskobystricky","name_adm2":"Ziar Nad Hronom","name_en":"Bartošova Lehotka","iso":"SK"},"geometry":{"type":"Point","coordinates":[18.91791,48.65299999999999]}},{"type":"Feature","properties":{"country_en":"Slovakia","name":"Bátovce","name_adm0":"Slovenská","name_adm1":"Nitriansky","name_adm2":"Levice","name_en":"Bátovce","iso":"SK"},"geometry":{"type":"Point","coordinates":[18.74568,48.29084]}},{"type":"Feature","properties":{"country_en":"Slovakia","name":"Blažov","name_adm0":"Slovenská","name_adm1":"Trnavsky","name_adm2":"Dunajska Streda","name_en":"Blažov","iso":"SK"},"geometry":{"type":"Point","coordinates":[17.65878,47.98458]}},{"type":"Feature","properties":{"country_en":"Slovakia","name":"Blesovce","name_adm0":"Slovenská","name_adm1":"Nitriansky","name_adm2":"Topolcany","name_en":"Blesovce","iso":"SK"},"geometry":{"type":"Point","coordinates":[18.0369,48.5594]}},{"type":"Feature","properties":{"country_en":"Slovakia","name":"Budkovce","name_adm0":"Slovenská","name_adm1":"Kosicky","name_adm2":"Michalovce","name_en":"Budkovce","iso":"SK"},"geometry":{"type":"Point","coordinates":[21.93057,48.63215999999999]}},{"type":"Feature","properties":{"country_en":"Slovakia","name":"Dolné Orešany","name_adm0":"Slovenská","name_adm1":"Trnavsky","name_adm2":"Trnava","name_en":"Dolné Orešany","iso":"SK"},"geometry":{"type":"Point","coordinates":[17.42942,48.43966]}},{"type":"Feature","properties":{"country_en":"Slovakia","name":"Dolné Vestenice","name_adm0":"Slovenská","name_adm1":"Trenciansky","name_adm2":"Prievidza","name_en":"Dolnie Vestenice","iso":"SK"},"geometry":{"type":"Point","coordinates":[18.39708,48.70344]}},{"type":"Feature","properties":{"country_en":"Slovakia","name":"Dolné Kočkovce","name_adm0":"Slovenská","name_adm1":"Trenciansky","name_adm2":"Puchov","name_en":"Dolné Kočkovce","iso":"SK"},"geometry":{"type":"Point","coordinates":[18.32528,49.09435]}},{"type":"Feature","properties":{"country_en":"Slovakia","name":"Gerlachov","name_adm0":"Slovenská","name_adm1":"Presovsky","name_adm2":"Poprad","name_en":"Gerlachov","iso":"SK"},"geometry":{"type":"Point","coordinates":[20.20643,49.09871]}},{"type":"Feature","properties":{"country_en":"Slovakia","name":"Gerlachov","name_adm0":"Slovenská","name_adm1":"Presovsky","name_adm2":"Bardejov","name_en":"Gerlachov","iso":"SK"},"geometry":{"type":"Point","coordinates":[21.11582,49.31962999999999]}},{"type":"Feature","properties":{"country_en":"Slovakia","name":"Helcmanovce","name_adm0":"Slovenská","name_adm1":"Kosicky","name_adm2":"Gelnica","name_en":"Helcmanovce","iso":"SK"},"geometry":{"type":"Point","coordinates":[20.86767,48.8307]}},{"type":"Feature","properties":{"country_en":"Slovakia","name":"Gbely","name_adm0":"Slovenská","name_adm1":"Trnavsky","name_adm2":"Skalica","name_en":"Egbell","iso":"SK"},"geometry":{"type":"Point","coordinates":[17.11628,48.718]}},{"type":"Feature","properties":{"country_en":"Slovakia","name":"Jablonica","name_adm0":"Slovenská","name_adm1":"Trnavsky","name_adm2":"Senica","name_en":"Jablonica","iso":"SK"},"geometry":{"type":"Point","coordinates":[17.42172,48.60604]}},{"type":"Feature","properties":{"country_en":"Slovakia","name":"Ivachnová","name_adm0":"Slovenská","name_adm1":"Zilinsky","name_adm2":"Ruzomberok","name_en":"Ivachnová","iso":"SK"},"geometry":{"type":"Point","coordinates":[19.41802,49.09936999999999]}},{"type":"Feature","properties":{"country_en":"Slovakia","name":"Ivanovce","name_adm0":"Slovenská","name_adm1":"Trenciansky","name_adm2":"Trencin","name_en":"Ivanovce","iso":"SK"},"geometry":{"type":"Point","coordinates":[17.90749,48.83008]}},{"type":"Feature","properties":{"country_en":"Slovakia","name":"Janovce","name_adm0":"Slovenská","name_adm1":"Presovsky","name_adm2":"Poprad","name_en":"Janovce","iso":"SK"},"geometry":{"type":"Point","coordinates":[20.43228,49.01742]}},{"type":"Feature","properties":{"country_en":"Slovakia","name":"Janovce","name_adm0":"Slovenská","name_adm1":"Trnavsky","name_adm2":"Galanta","name_en":"Janovce","iso":"SK"},"geometry":{"type":"Point","coordinates":[17.53241,48.177989999999994]}},{"type":"Feature","properties":{"country_en":"Slovakia","name":"Jurová","name_adm0":"Slovenská","name_adm1":"Trnavsky","name_adm2":"Dunajska Streda","name_en":"Dercsika","iso":"SK"},"geometry":{"type":"Point","coordinates":[17.52283,47.93359]}},{"type":"Feature","properties":{"country_en":"Slovakia","name":"Kalinovo","name_adm0":"Slovenská","name_adm1":"Banskobystricky","name_adm2":"Poltar","name_en":"Kalinovo","iso":"SK"},"geometry":{"type":"Point","coordinates":[19.707019999999996,48.39241]}},{"type":"Feature","properties":{"country_en":"Slovakia","name":"Kajal","name_adm0":"Slovenská","name_adm1":"Trnavsky","name_adm2":"Galanta","name_en":"Kajal","iso":"SK"},"geometry":{"type":"Point","coordinates":[17.78424,48.18617999999999]}},{"type":"Feature","properties":{"country_en":"Slovakia","name":"Konská","name_adm0":"Slovenská","name_adm1":"Zilinsky","name_adm2":"Zilina","name_en":"Konská","iso":"SK"},"geometry":{"type":"Point","coordinates":[18.67812,49.11113]}},{"type":"Feature","properties":{"country_en":"Slovakia","name":"Kopčany","name_adm0":"Slovenská","name_adm1":"Kosicky","name_adm2":"Michalovce","name_en":"Hegyi","iso":"SK"},"geometry":{"type":"Point","coordinates":[21.91667,48.58333]}},{"type":"Feature","properties":{"country_en":"Slovakia","name":"Košeca","name_adm0":"Slovenská","name_adm1":"Trenciansky","name_adm2":"Ilava","name_en":"Košeca","iso":"SK"},"geometry":{"type":"Point","coordinates":[18.26061,49.00888]}},{"type":"Feature","properties":{"country_en":"Slovakia","name":"Košt̕any nad Turcom","name_adm0":"Slovenská","name_adm1":"Zilinsky","name_adm2":"Martin","name_en":"Košt̕any nad Turcom","iso":"SK"},"geometry":{"type":"Point","coordinates":[18.90437,49.02989]}},{"type":"Feature","properties":{"country_en":"Slovakia","name":"Koválovec","name_adm0":"Slovenská","name_adm1":"Trnavsky","name_adm2":"Skalica","name_en":"Koválovec","iso":"SK"},"geometry":{"type":"Point","coordinates":[17.30264,48.78413]}},{"type":"Feature","properties":{"country_en":"Slovakia","name":"Kočovce","name_adm0":"Slovenská","name_adm1":"Trenciansky","name_adm2":"Nove Mesto Nad Vahom","name_en":"Kočovce","iso":"SK"},"geometry":{"type":"Point","coordinates":[17.88751,48.74421]}},{"type":"Feature","properties":{"country_en":"Slovakia","name":"Letničie","name_adm0":"Slovenská","name_adm1":"Trnavsky","name_adm2":"Skalica","name_en":"Letničie","iso":"SK"},"geometry":{"type":"Point","coordinates":[17.17905,48.71148999999999]}},{"type":"Feature","properties":{"country_en":"Slovakia","name":"Leles","name_adm0":"Slovenská","name_adm1":"Kosicky","name_adm2":"Trebisov","name_en":"Leles","iso":"SK"},"geometry":{"type":"Point","coordinates":[22.02898,48.46303]}},{"type":"Feature","properties":{"country_en":"Slovakia","name":"Liptovský Ondrej","name_adm0":"Slovenská","name_adm1":"Zilinsky","name_adm2":"Liptovsky Mikulas","name_en":"Liptovský Ondrej","iso":"SK"},"geometry":{"type":"Point","coordinates":[19.71299,49.09736]}},{"type":"Feature","properties":{"country_en":"Slovakia","name":"L̕ubel̕a","name_adm0":"Slovenská","name_adm1":"Zilinsky","name_adm2":"Liptovsky Mikulas","name_en":"L̕ubel̕a","iso":"SK"},"geometry":{"type":"Point","coordinates":[19.47926,49.05216]}},{"type":"Feature","properties":{"country_en":"Slovakia","name":"Malé Bedzany","name_adm0":"Slovenská","name_adm1":"Nitriansky","name_adm2":"Topolcany","name_en":"Malé Bedzany","iso":"SK"},"geometry":{"type":"Point","coordinates":[18.17623,48.59231]}},{"type":"Feature","properties":{"country_en":"Slovakia","name":"Malé Lednice","name_adm0":"Slovenská","name_adm1":"Trenciansky","name_adm2":"Povazska Bystrica","name_en":"Malé Lednice","iso":"SK"},"geometry":{"type":"Point","coordinates":[18.57287,49.06899]}},{"type":"Feature","properties":{"country_en":"Slovakia","name":"Málinec","name_adm0":"Slovenská","name_adm1":"Banskobystricky","name_adm2":"Poltar","name_en":"Málinec","iso":"SK"},"geometry":{"type":"Point","coordinates":[19.6818,48.49797]}},{"type":"Feature","properties":{"country_en":"Slovakia","name":"Nemcovce","name_adm0":"Slovenská","name_adm1":"Presovsky","name_adm2":"Bardejov","name_en":"Nemcovce","iso":"SK"},"geometry":{"type":"Point","coordinates":[21.44212,49.20976]}},{"type":"Feature","properties":{"country_en":"Slovakia","name":"Nemecká","name_adm0":"Slovenská","name_adm1":"Banskobystricky","name_adm2":"Brezno","name_en":"Nemecká","iso":"SK"},"geometry":{"type":"Point","coordinates":[19.41485,48.81253]}},{"type":"Feature","properties":{"country_en":"Slovakia","name":"Nimnica","name_adm0":"Slovenská","name_adm1":"Trenciansky","name_adm2":"Puchov","name_en":"Nimnica","iso":"SK"},"geometry":{"type":"Point","coordinates":[18.35663,49.1396]}},{"type":"Feature","properties":{"country_en":"Slovakia","name":"Nižný Žipov","name_adm0":"Slovenská","name_adm1":"Kosicky","name_adm2":"Trebisov","name_en":"Nižný Žipov","iso":"SK"},"geometry":{"type":"Point","coordinates":[21.63775,48.58214]}},{"type":"Feature","properties":{"country_en":"Slovakia","name":"Nižný Slavkov","name_adm0":"Slovenská","name_adm1":"Presovsky","name_adm2":"Sabinov","name_en":"Nižný Slavkov","iso":"SK"},"geometry":{"type":"Point","coordinates":[20.850539999999995,49.10233]}},{"type":"Feature","properties":{"country_en":"Slovakia","name":"Nová Vieska","name_adm0":"Slovenská","name_adm1":"Nitriansky","name_adm2":"Nove Zamky","name_en":"Nová Vieska","iso":"SK"},"geometry":{"type":"Point","coordinates":[18.46271,47.869479999999996]}},{"type":"Feature","properties":{"country_en":"Slovakia","name":"Ostrý Grúň","name_adm0":"Slovenská","name_adm1":"Banskobystricky","name_adm2":"Zarnovica","name_en":"Ostrý Grúň","iso":"SK"},"geometry":{"type":"Point","coordinates":[18.664009999999998,48.56898]}},{"type":"Feature","properties":{"country_en":"Slovakia","name":"Palín","name_adm0":"Slovenská","name_adm1":"Kosicky","name_adm2":"Michalovce","name_en":"Palín","iso":"SK"},"geometry":{"type":"Point","coordinates":[21.9877,48.65775]}},{"type":"Feature","properties":{"country_en":"Slovakia","name":"Podzámčok","name_adm0":"Slovenská","name_adm1":"Banskobystricky","name_adm2":"Zvolen","name_en":"Podzámčok","iso":"SK"},"geometry":{"type":"Point","coordinates":[19.112869999999997,48.502579999999995]}},{"type":"Feature","properties":{"country_en":"Slovakia","name":"Sečianky","name_adm0":"Slovenská","name_adm1":"Banskobystricky","name_adm2":"Velky Krtis","name_en":"Sečianky","iso":"SK"},"geometry":{"type":"Point","coordinates":[19.07959,48.09511]}},{"type":"Feature","properties":{"country_en":"Slovakia","name":"Srňacie","name_adm0":"Slovenská","name_adm1":"Zilinsky","name_adm2":"Dolny Kubin","name_en":"Srňacie","iso":"SK"},"geometry":{"type":"Point","coordinates":[19.36544,49.20137]}},{"type":"Feature","properties":{"country_en":"Slovakia","name":"Stupné","name_adm0":"Slovenská","name_adm1":"Trenciansky","name_adm2":"Povazska Bystrica","name_en":"Stupné","iso":"SK"},"geometry":{"type":"Point","coordinates":[18.44089,49.19346999999999]}},{"type":"Feature","properties":{"country_en":"Slovakia","name":"Suché","name_adm0":"Slovenská","name_adm1":"Kosicky","name_adm2":"Michalovce","name_en":"Suché","iso":"SK"},"geometry":{"type":"Point","coordinates":[21.83468,48.76527]}},{"type":"Feature","properties":{"country_en":"Slovakia","name":"Súdovce","name_adm0":"Slovenská","name_adm1":"Banskobystricky","name_adm2":"Krupina","name_en":"Súdovce","iso":"SK"},"geometry":{"type":"Point","coordinates":[18.83483,48.21058]}},{"type":"Feature","properties":{"country_en":"Slovakia","name":"Svätuše","name_adm0":"Slovenská","name_adm1":"Kosicky","name_adm2":"Trebisov","name_en":"Szentes","iso":"SK"},"geometry":{"type":"Point","coordinates":[21.91667,48.43333]}},{"type":"Feature","properties":{"country_en":"Slovakia","name":"Tušice","name_adm0":"Slovenská","name_adm1":"Kosicky","name_adm2":"Michalovce","name_en":"Tušice","iso":"SK"},"geometry":{"type":"Point","coordinates":[21.75069,48.72677999999999]}},{"type":"Feature","properties":{"country_en":"Slovakia","name":"Turá Lúka","name_adm0":"Slovenská","name_adm1":"Trenciansky","name_adm2":"Myjava","name_en":"Turá Lúka","iso":"SK"},"geometry":{"type":"Point","coordinates":[17.53544,48.745149999999995]}},{"type":"Feature","properties":{"country_en":"Slovakia","name":"Tureň","name_adm0":"Slovenská","name_adm1":"Bratislavsky","name_adm2":"Senec","name_en":"Torony","iso":"SK"},"geometry":{"type":"Point","coordinates":[17.38941,48.19126]}},{"type":"Feature","properties":{"country_en":"Slovakia","name":"Višňové","name_adm0":"Slovenská","name_adm1":"Banskobystricky","name_adm2":"Revuca","name_en":"Višňové","iso":"SK"},"geometry":{"type":"Point","coordinates":[20.18786,48.51582]}},{"type":"Feature","properties":{"country_en":"Slovakia","name":"Vlčany","name_adm0":"Slovenská","name_adm1":"Nitriansky","name_adm2":"Sala","name_en":"Vlčany","iso":"SK"},"geometry":{"type":"Point","coordinates":[17.95214,48.03097]}},{"type":"Feature","properties":{"country_en":"Slovakia","name":"Zámutov","name_adm0":"Slovenská","name_adm1":"Presovsky","name_adm2":"Vranov Nad Toplou","name_en":"Zámutov","iso":"SK"},"geometry":{"type":"Point","coordinates":[21.55698,48.90144]}},{"type":"Feature","properties":{"country_en":"Slovakia","name":"Zbora","name_adm0":"Slovenská","name_adm1":"Trenciansky","name_adm2":"Puchov","name_en":"Zbora","iso":"SK"},"geometry":{"type":"Point","coordinates":[18.28208,49.183589999999995]}},{"type":"Feature","properties":{"country_en":"Slovakia","name":"Zamarovce","name_adm0":"Slovenská","name_adm1":"Trenciansky","name_adm2":"Trencin","name_en":"Zamarovce","iso":"SK"},"geometry":{"type":"Point","coordinates":[18.04977,48.91092]}},{"type":"Feature","properties":{"country_en":"Slovakia","name":"Žihárec","name_adm0":"Slovenská","name_adm1":"Nitriansky","name_adm2":"Sala","name_en":"Žihárec","iso":"SK"},"geometry":{"type":"Point","coordinates":[17.88674,48.07231]}},{"type":"Feature","properties":{"country_en":"Slovakia","name":"Župkov","name_adm0":"Slovenská","name_adm1":"Banskobystricky","name_adm2":"Zarnovica","name_en":"Župkov","iso":"SK"},"geometry":{"type":"Point","coordinates":[18.629739999999998,48.52542]}},{"type":"Feature","properties":{"country_en":"Slovakia","name":"Vinné","name_adm0":"Slovenská","name_adm1":"Kosicky","name_adm2":"Michalovce","name_en":"Vinné","iso":"SK"},"geometry":{"type":"Point","coordinates":[21.96757,48.80965]}},{"type":"Feature","properties":{"country_en":"Slovakia","name":"Lazy Pod Makytou","name_adm0":"Slovenská","name_adm1":"Trenciansky","name_adm2":"Puchov","name_en":"Lazy Pod Makytou","iso":"SK"},"geometry":{"type":"Point","coordinates":[18.21391,49.22538]}},{"type":"Feature","properties":{"country_en":"Slovakia","name":"Janova Lehota","name_adm0":"Slovenská","name_adm1":"Banskobystricky","name_adm2":"Ziar Nad Hronom","name_en":"Drexlerhay","iso":"SK"},"geometry":{"type":"Point","coordinates":[18.78375,48.65498]}},{"type":"Feature","properties":{"country_en":"Slovakia","name":"Klasov","name_adm0":"Slovenská","name_adm1":"Nitriansky","name_adm2":"Nitra","name_en":"Kalaz","iso":"SK"},"geometry":{"type":"Point","coordinates":[18.25937,48.27625]}},{"type":"Feature","properties":{"country_en":"Slovakia","name":"Kopánky","name_adm0":"Slovenská","name_adm1":"Trenciansky","name_adm2":"Myjava","name_en":"Kopánky","iso":"SK"},"geometry":{"type":"Point","coordinates":[17.45777,48.82368]}},{"type":"Feature","properties":{"country_en":"Slovakia","name":"Krupina","name_adm0":"Slovenská","name_adm1":"Banskobystricky","name_adm2":"Krupina","name_en":"Krupina","iso":"SK"},"geometry":{"type":"Point","coordinates":[19.020995,48.402464]}},{"type":"Feature","properties":{"country_en":"Slovakia","name":"Poniky","name_adm0":"Slovenská","name_adm1":"Banskobystricky","name_adm2":"Banska Bystrica","name_en":"Poniky","iso":"SK"},"geometry":{"type":"Point","coordinates":[19.29274,48.71239]}},{"type":"Feature","properties":{"country_en":"Slovakia","name":"Priechod","name_adm0":"Slovenská","name_adm1":"Banskobystricky","name_adm2":"Banska Bystrica","name_en":"Priechod","iso":"SK"},"geometry":{"type":"Point","coordinates":[19.23543,48.78308]}},{"type":"Feature","properties":{"country_en":"Slovakia","name":"Zlatno","name_adm0":"Slovenská","name_adm1":"Banskobystricky","name_adm2":"Poltar","name_en":"Zlatno","iso":"SK"},"geometry":{"type":"Point","coordinates":[19.81906,48.51853]}},{"type":"Feature","properties":{"country_en":"Slovakia","name":"Vel̕ké Kapušany","name_adm0":"Slovenská","name_adm1":"Kosicky","name_adm2":"Michalovce","name_en":"Velke Kapusany","iso":"SK"},"geometry":{"type":"Point","coordinates":[22.080359999999995,48.55196999999999]}},{"type":"Feature","properties":{"country_en":"Slovakia","name":"Bohdanovce Nad Trnavou","name_adm0":"Slovenská","name_adm1":"Trnavsky","name_adm2":"Trnava","name_en":"Bohdanovce Nad Trnavou","iso":"SK"},"geometry":{"type":"Point","coordinates":[17.5447,48.42996]}},{"type":"Feature","properties":{"country_en":"Slovakia","name":"Podolinec","name_adm0":"Slovenská","name_adm1":"Presovsky","name_adm2":"Stara Lubovna","name_en":"Podolinec","iso":"SK"},"geometry":{"type":"Point","coordinates":[20.533559,49.258905]}},{"type":"Feature","properties":{"country_en":"Slovakia","name":"Humenne","name_adm0":"Slovenská","name_adm1":"Presovsky","name_adm2":"Humenne","name_en":"Humenne","iso":"SK"},"geometry":{"type":"Point","coordinates":[21.906909,48.932195]}},{"type":"Feature","properties":{"country_en":"Slovakia","name":"Kravany Nad Dunajom","name_adm0":"Slovenská","name_adm1":"Nitriansky","name_adm2":"Komarno","name_en":"Kravany Nad Dunajom","iso":"SK"},"geometry":{"type":"Point","coordinates":[18.48248,47.761555]}},{"type":"Feature","properties":{"country_en":"Slovakia","name":"Divinka","name_adm0":"Slovenská","name_adm1":"Zilinsky","name_adm2":"Zilina","name_en":"Divinka","iso":"SK"},"geometry":{"type":"Point","coordinates":[18.69984,49.25433]}},{"type":"Feature","properties":{"country_en":"Slovakia","name":"Zehna","name_adm0":"Slovenská","name_adm1":"Presovsky","name_adm2":"Presov","name_en":"Zehna","iso":"SK"},"geometry":{"type":"Point","coordinates":[21.3415,48.91767]}},{"type":"Feature","properties":{"country_en":"Slovakia","name":"Miklusovce","name_adm0":"Slovenská","name_adm1":"Presovsky","name_adm2":"Presov","name_en":"Miklusovce","iso":"SK"},"geometry":{"type":"Point","coordinates":[21.08053,48.91675]}},{"type":"Feature","properties":{"country_en":"Slovakia","name":"Tuhrina","name_adm0":"Slovenská","name_adm1":"Presovsky","name_adm2":"Presov","name_en":"Tuhrina","iso":"SK"},"geometry":{"type":"Point","coordinates":[21.40596,48.89936]}},{"type":"Feature","properties":{"country_en":"Slovakia","name":"Lucina","name_adm0":"Slovenská","name_adm1":"Presovsky","name_adm2":"Presov","name_en":"Lucina","iso":"SK"},"geometry":{"type":"Point","coordinates":[21.43118,48.89314999999999]}},{"type":"Feature","properties":{"country_en":"Slovakia","name":"Licartovce","name_adm0":"Slovenská","name_adm1":"Presovsky","name_adm2":"Presov","name_en":"Licartovce","iso":"SK"},"geometry":{"type":"Point","coordinates":[21.2467,48.8761]}},{"type":"Feature","properties":{"country_en":"Slovakia","name":"Brestov","name_adm0":"Slovenská","name_adm1":"Presovsky","name_adm2":"Presov","name_en":"Brestov","iso":"SK"},"geometry":{"type":"Point","coordinates":[21.35086,48.87117]}},{"type":"Feature","properties":{"country_en":"Slovakia","name":"Sarisske Bohdanovce","name_adm0":"Slovenská","name_adm1":"Presovsky","name_adm2":"Presov","name_en":"Sarisske Bohdanovce","iso":"SK"},"geometry":{"type":"Point","coordinates":[21.31823,48.84799]}},{"type":"Feature","properties":{"country_en":"Slovakia","name":"Janovik","name_adm0":"Slovenská","name_adm1":"Presovsky","name_adm2":"Presov","name_en":"Janovik","iso":"SK"},"geometry":{"type":"Point","coordinates":[21.25,48.83333]}},{"type":"Feature","properties":{"country_en":"Slovakia","name":"Bretejovce","name_adm0":"Slovenská","name_adm1":"Presovsky","name_adm2":"Presov","name_en":"Bretejovce","iso":"SK"},"geometry":{"type":"Point","coordinates":[21.29572,48.82772]}},{"type":"Feature","properties":{"country_en":"Slovakia","name":"Horna Micina","name_adm0":"Slovenská","name_adm1":"Banskobystricky","name_adm2":"Banska Bystrica","name_en":"Horna Micina","iso":"SK"},"geometry":{"type":"Point","coordinates":[19.21437,48.6989]}},{"type":"Feature","properties":{"country_en":"Slovakia","name":"Jezkova Ves Nad Niricou","name_adm0":"Slovenská","name_adm1":"Trenciansky","name_adm2":"Prievidza","name_en":"Jezkova Ves Nad Niricou","iso":"SK"},"geometry":{"type":"Point","coordinates":[18.48861,48.77796]}},{"type":"Feature","properties":{"country_en":"Slovakia","name":"Rudica","name_adm0":"Slovenská","name_adm1":"Trenciansky","name_adm2":"Partizanske","name_en":"Rudica","iso":"SK"},"geometry":{"type":"Point","coordinates":[18.450899999999997,48.58431]}},{"type":"Feature","properties":{"country_en":"Slovakia","name":"Malatiny","name_adm0":"Slovenská","name_adm1":"Zilinsky","name_adm2":"Liptovsky Mikulas","name_en":"Malatiny","iso":"SK"},"geometry":{"type":"Point","coordinates":[19.43305,49.1863]}},{"type":"Feature","properties":{"country_en":"Slovakia","name":"Salajka","name_adm0":"Slovenská","name_adm1":"Banskobystricky","name_adm2":"Poltar","name_en":"Salajka","iso":"SK"},"geometry":{"type":"Point","coordinates":[19.75338,48.54548]}},{"type":"Feature","properties":{"country_en":"Slovakia","name":"Lackova","name_adm0":"Slovenská","name_adm1":"Presovsky","name_adm2":"Stara Lubovna","name_en":"Lackova","iso":"SK"},"geometry":{"type":"Point","coordinates":[20.62878,49.26091]}},{"type":"Feature","properties":{"country_en":"Slovakia","name":"Mlady Haj","name_adm0":"Slovenská","name_adm1":"Nitriansky","name_adm2":"Sala","name_en":"Mlady Haj","iso":"SK"},"geometry":{"type":"Point","coordinates":[17.88774,48.27246]}},{"type":"Feature","properties":{"country_en":"Slovakia","name":"Chvojnica","name_adm0":"Slovenská","name_adm1":"Trenciansky","name_adm2":"Prievidza","name_en":"Chvojnica","iso":"SK"},"geometry":{"type":"Point","coordinates":[18.562739999999998,48.88014999999999]}},{"type":"Feature","properties":{"country_en":"Slovakia","name":"Skalica","name_adm0":"Slovenská","name_adm1":"Banskobystricky","name_adm2":"Brezno","name_en":"Skalica","iso":"SK"},"geometry":{"type":"Point","coordinates":[19.62321,49.67717999999999]}},{"type":"Feature","properties":{"country_en":"Slovakia","name":"Vysny Hamor","name_adm0":"Slovenská","name_adm1":"Kosicky","name_adm2":"Roznava","name_en":"Vysny Hamor","iso":"SK"},"geometry":{"type":"Point","coordinates":[20.48,48.602959999999996]}},{"type":"Feature","properties":{"country_en":"Slovakia","name":"Cadca","name_adm0":"Slovenská","name_adm1":"Zilinsky","name_adm2":"Cadca","name_en":"Cadca","iso":"SK"},"geometry":{"type":"Point","coordinates":[18.78333,49.43333]}},{"type":"Feature","properties":{"country_en":"Slovakia","name":"Hermanovce","name_adm0":"Slovenská","name_adm1":"Presovsky","name_adm2":"Presov","name_en":"Hermanovce","iso":"SK"},"geometry":{"type":"Point","coordinates":[21.01629,49.04584]}},{"type":"Feature","properties":{"country_en":"Slovakia","name":"Bardejov","name_adm0":"Slovenská","name_adm1":"Presovsky","name_adm2":"Bardejov","name_en":"Bardejov","iso":"SK"},"geometry":{"type":"Point","coordinates":[21.28333,49.28333]}},{"type":"Feature","properties":{"country_en":"Slovakia","name":"Malachov","name_adm0":"Slovenská","name_adm1":"Banskobystricky","name_adm2":"Banska Bystrica","name_en":"Malachov","iso":"SK"},"geometry":{"type":"Point","coordinates":[19.08969,48.71025]}},{"type":"Feature","properties":{"country_en":"Slovakia","name":"Riecka","name_adm0":"Slovenská","name_adm1":"Banskobystricky","name_adm2":"Banska Bystrica","name_en":"Riecka","iso":"SK"},"geometry":{"type":"Point","coordinates":[19.07678,48.75619999999999]}},{"type":"Feature","properties":{"country_en":"Slovakia","name":"Rybie","name_adm0":"Slovenská","name_adm1":"Banskobystricky","name_adm2":"Banska Bystrica","name_en":"Rybie","iso":"SK"},"geometry":{"type":"Point","coordinates":[19.46667,49.1]}},{"type":"Feature","properties":{"country_en":"Slovakia","name":"Lazy Pod Makytou","name_adm0":"Slovenská","name_adm1":"Trenciansky","name_adm2":"Puchov","name_en":"Lazy Pod Makytou","iso":"SK"},"geometry":{"type":"Point","coordinates":[18.241166999999997,49.296695]}},{"type":"Feature","properties":{"country_en":"Slovakia","name":"Horelica","name_adm0":"Slovenská","name_adm1":"Zilinsky","name_adm2":"Cadca","name_en":"Horalica","iso":"SK"},"geometry":{"type":"Point","coordinates":[18.81866,49.42607999999999]}},{"type":"Feature","properties":{"country_en":"Slovakia","name":"Lastomír","name_adm0":"Slovenská","name_adm1":"Kosicky","name_adm2":"Michalovce","name_en":"Lastomír","iso":"SK"},"geometry":{"type":"Point","coordinates":[21.92529,48.70277999999999]}},{"type":"Feature","properties":{"country_en":"Slovakia","name":"Malé Zálužie","name_adm0":"Slovenská","name_adm1":"Nitriansky","name_adm2":"Nitra","name_en":"Malé Zálužie","iso":"SK"},"geometry":{"type":"Point","coordinates":[17.98604,48.43581]}},{"type":"Feature","properties":{"country_en":"Slovakia","name":"Medzev","name_adm0":"Slovenská","name_adm1":"Kosicky","name_adm2":"Kosice-Okolie","name_en":"Unter-Metzenseifen","iso":"SK"},"geometry":{"type":"Point","coordinates":[20.89367,48.70041]}},{"type":"Feature","properties":{"country_en":"Slovakia","name":"Terna","name_adm0":"Slovenská","name_adm1":"Presovsky","name_adm2":"Presov","name_en":"Terna","iso":"SK"},"geometry":{"type":"Point","coordinates":[21.238679999999995,49.10967999999999]}},{"type":"Feature","properties":{"country_en":"Slovakia","name":"Gelnica","name_adm0":"Slovenská","name_adm1":"Kosicky","name_adm2":"Gelnica","name_en":"Gelnica","iso":"SK"},"geometry":{"type":"Point","coordinates":[20.937119999999997,48.85583999999999]}},{"type":"Feature","properties":{"country_en":"Slovakia","name":"Batizovce","name_adm0":"Slovenská","name_adm1":"Presovsky","name_adm2":"Poprad","name_en":"Batizovce","iso":"SK"},"geometry":{"type":"Point","coordinates":[20.184969999999996,49.07611]}},{"type":"Feature","properties":{"country_en":"Slovakia","name":"Janov","name_adm0":"Slovenská","name_adm1":"Presovsky","name_adm2":"Presov","name_en":"Janov","iso":"SK"},"geometry":{"type":"Point","coordinates":[21.17846,48.93891]}},{"type":"Feature","properties":{"country_en":"Slovakia","name":"Turie","name_adm0":"Slovenská","name_adm1":"Zilinsky","name_adm2":"Zilina","name_en":"Turie","iso":"SK"},"geometry":{"type":"Point","coordinates":[18.74983,49.14907]}},{"type":"Feature","properties":{"country_en":"Slovakia","name":"Kojatice","name_adm0":"Slovenská","name_adm1":"Presovsky","name_adm2":"Presov","name_en":"Kojatice","iso":"SK"},"geometry":{"type":"Point","coordinates":[21.130519999999997,48.99814]}},{"type":"Feature","properties":{"country_en":"Slovakia","name":"Petrovany","name_adm0":"Slovenská","name_adm1":"Presovsky","name_adm2":"Presov","name_en":"Petrovany","iso":"SK"},"geometry":{"type":"Point","coordinates":[21.26052,48.91737]}},{"type":"Feature","properties":{"country_en":"Slovakia","name":"Dolne Dubove","name_adm0":"Slovenská","name_adm1":"Trnavsky","name_adm2":"Trnava","name_en":"Dolne Dubove","iso":"SK"},"geometry":{"type":"Point","coordinates":[17.61018,48.49173]}},{"type":"Feature","properties":{"country_en":"Slovakia","name":"Nove Sady","name_adm0":"Slovenská","name_adm1":"Nitriansky","name_adm2":"Nitra","name_en":"Nove Sady","iso":"SK"},"geometry":{"type":"Point","coordinates":[17.98333,48.48333]}},{"type":"Feature","properties":{"country_en":"Slovakia","name":"Tulcik","name_adm0":"Slovenská","name_adm1":"Presovsky","name_adm2":"Presov","name_en":"Tulcik","iso":"SK"},"geometry":{"type":"Point","coordinates":[21.30967,49.08902]}},{"type":"Feature","properties":{"country_en":"Slovakia","name":"Branc","name_adm0":"Slovenská","name_adm1":"Nitriansky","name_adm2":"Nitra","name_en":"Branc","iso":"SK"},"geometry":{"type":"Point","coordinates":[18.144229999999997,48.21869]}},{"type":"Feature","properties":{"country_en":"Slovakia","name":"Dunajska Luzna","name_adm0":"Slovenská","name_adm1":"Bratislavsky","name_adm2":"Senec","name_en":"Dunajska Luzna","iso":"SK"},"geometry":{"type":"Point","coordinates":[17.26072,48.08347]}},{"type":"Feature","properties":{"country_en":"Slovakia","name":"Zalesie","name_adm0":"Slovenská","name_adm1":"Bratislavsky","name_adm2":"Senec","name_en":"Zalesie","iso":"SK"},"geometry":{"type":"Point","coordinates":[17.27497,48.16614]}},{"type":"Feature","properties":{"country_en":"Slovakia","name":"Stara Myjava","name_adm0":"Slovenská","name_adm1":"Trenciansky","name_adm2":"Myjava","name_en":"Stara Myjava","iso":"SK"},"geometry":{"type":"Point","coordinates":[17.588769999999997,48.79318]}},{"type":"Feature","properties":{"country_en":"Slovakia","name":"Belá","name_adm0":"Slovenská","name_adm1":"Nitriansky","name_adm2":"Nove Zamky","name_en":"Belá","iso":"SK"},"geometry":{"type":"Point","coordinates":[18.59885,47.83227]}},{"type":"Feature","properties":{"country_en":"Slovakia","name":"Fačkov","name_adm0":"Slovenská","name_adm1":"Zilinsky","name_adm2":"Zilina","name_en":"Fačkov","iso":"SK"},"geometry":{"type":"Point","coordinates":[18.60257,49.01061]}},{"type":"Feature","properties":{"country_en":"Slovakia","name":"Kátov","name_adm0":"Slovenská","name_adm1":"Trnavsky","name_adm2":"Skalica","name_en":"Kátov","iso":"SK"},"geometry":{"type":"Point","coordinates":[17.16988,48.830279999999995]}},{"type":"Feature","properties":{"country_en":"Slovakia","name":"Jasenie","name_adm0":"Slovenská","name_adm1":"Banskobystricky","name_adm2":"Brezno","name_en":"Jasenie","iso":"SK"},"geometry":{"type":"Point","coordinates":[19.4597,48.83878]}},{"type":"Feature","properties":{"country_en":"Slovakia","name":"Litmanová","name_adm0":"Slovenská","name_adm1":"Presovsky","name_adm2":"Stara Lubovna","name_en":"Litmanová","iso":"SK"},"geometry":{"type":"Point","coordinates":[20.62292,49.37006]}},{"type":"Feature","properties":{"country_en":"Slovakia","name":"Okolicne","name_adm0":"Slovenská","name_adm1":"Zilinsky","name_adm2":"Liptovsky Mikulas","name_en":"Okolicne","iso":"SK"},"geometry":{"type":"Point","coordinates":[19.5,49.08333]}},{"type":"Feature","properties":{"country_en":"Slovakia","name":"Omšenie","name_adm0":"Slovenská","name_adm1":"Trenciansky","name_adm2":"Trencin","name_en":"Omšenie","iso":"SK"},"geometry":{"type":"Point","coordinates":[18.225549999999995,48.90071]}},{"type":"Feature","properties":{"country_en":"Slovakia","name":"Kysucke Nove Mesto","name_adm0":"Slovenská","name_adm1":"Zilinsky","name_adm2":"Kysucke Nove Mesto","name_en":"Kysucke Nove Mesto","iso":"SK"},"geometry":{"type":"Point","coordinates":[18.78333,49.3]}},{"type":"Feature","properties":{"country_en":"Slovakia","name":"Námestovo","name_adm0":"Slovenská","name_adm1":"Zilinsky","name_adm2":"Namestovo","name_en":"Námestovo","iso":"SK"},"geometry":{"type":"Point","coordinates":[19.48032,49.4079]}},{"type":"Feature","properties":{"country_en":"Slovakia","name":"Fintice","name_adm0":"Slovenská","name_adm1":"Presovsky","name_adm2":"Presov","name_en":"Fintice","iso":"SK"},"geometry":{"type":"Point","coordinates":[21.286639999999995,49.05188]}},{"type":"Feature","properties":{"country_en":"Slovakia","name":"Rokycany","name_adm0":"Slovenská","name_adm1":"Presovsky","name_adm2":"Presov","name_en":"Rokycany","iso":"SK"},"geometry":{"type":"Point","coordinates":[21.14199,48.96106]}},{"type":"Feature","properties":{"country_en":"Slovakia","name":"Sucha Dolina","name_adm0":"Slovenská","name_adm1":"Presovsky","name_adm2":"Presov","name_en":"Sucha Dolina","iso":"SK"},"geometry":{"type":"Point","coordinates":[21.14327,48.91562]}},{"type":"Feature","properties":{"country_en":"Slovakia","name":"Cervenica","name_adm0":"Slovenská","name_adm1":"Presovsky","name_adm2":"Presov","name_en":"Cervenica","iso":"SK"},"geometry":{"type":"Point","coordinates":[21.449,48.88681]}},{"type":"Feature","properties":{"country_en":"Slovakia","name":"Podkonice","name_adm0":"Slovenská","name_adm1":"Banskobystricky","name_adm2":"Banska Bystrica","name_en":"Podkonice","iso":"SK"},"geometry":{"type":"Point","coordinates":[19.25753,48.79994]}},{"type":"Feature","properties":{"country_en":"Slovakia","name":"Melek","name_adm0":"Slovenská","name_adm1":"Nitriansky","name_adm2":"Nitra","name_en":"Melek","iso":"SK"},"geometry":{"type":"Point","coordinates":[18.32774,48.20173]}},{"type":"Feature","properties":{"country_en":"Slovakia","name":"Zitavce","name_adm0":"Slovenská","name_adm1":"Nitriansky","name_adm2":"Nitra","name_en":"Zitavce","iso":"SK"},"geometry":{"type":"Point","coordinates":[18.30078,48.20219]}},{"type":"Feature","properties":{"country_en":"Slovakia","name":"Cerin","name_adm0":"Slovenská","name_adm1":"Banskobystricky","name_adm2":"Banska Bystrica","name_en":"Cerin","iso":"SK"},"geometry":{"type":"Point","coordinates":[19.24536,48.66065]}},{"type":"Feature","properties":{"country_en":"Slovakia","name":"Plavecký Svätý Peter","name_adm0":"Slovenská","name_adm1":"Trnavsky","name_adm2":"Senica","name_en":"Plavecký Svätý Peter","iso":"SK"},"geometry":{"type":"Point","coordinates":[17.32512,48.53597]}},{"type":"Feature","properties":{"country_en":"Slovakia","name":"Jakušovce","name_adm0":"Slovenská","name_adm1":"Presovsky","name_adm2":"Stropkov","name_en":"Jakušovce","iso":"SK"},"geometry":{"type":"Point","coordinates":[20.98801,48.87172]}},{"type":"Feature","properties":{"country_en":"Slovakia","name":"Slovenská","name_adm0":"Slovenská","name_en":"Slovakia","iso":"SK"},"geometry":{"type":"Point","coordinates":[19.70174,48.6655]}},{"type":"Feature","properties":{"country_en":"Slovakia","name":"Å Túrov","name_adm0":"Slovenská","name_adm1":"Nitriansky","name_adm2":"Nove Zamky","name_en":"Parkany","iso":"SK"},"geometry":{"type":"Point","coordinates":[18.724819,47.798252]}},{"type":"Feature","properties":{"country_en":"Slovakia","name":"Trenčín","name_adm0":"Slovenská","name_adm1":"Trenciansky","name_adm2":"Trencin","name_en":"Trencin","iso":"SK"},"geometry":{"type":"Point","coordinates":[18.04436,48.89452]}},{"type":"Feature","properties":{"country_en":"Slovakia","name":"Beňova Lehota","name_adm0":"Slovenská","name_adm1":"Zilinsky","name_adm2":"Dolny Kubin","name_en":"Beňova Lehota","iso":"SK"},"geometry":{"type":"Point","coordinates":[19.26277,49.23143]}},{"type":"Feature","properties":{"country_en":"Slovakia","name":"Predmier","name_adm0":"Slovenská","name_adm1":"Zilinsky","name_adm2":"Bytca","name_en":"Predmier","iso":"SK"},"geometry":{"type":"Point","coordinates":[18.532739999999997,49.19855]}},{"type":"Feature","properties":{"country_en":"Slovakia","name":"Valaliky","name_adm0":"Slovenská","name_adm1":"Kosicky","name_adm2":"Kosice-Okolie","name_en":"Valaliky","iso":"SK"},"geometry":{"type":"Point","coordinates":[21.29876,48.63575]}},{"type":"Feature","properties":{"country_en":"Slovakia","name":"Huncovce","name_adm0":"Slovenská","name_adm1":"Presovsky","name_adm2":"Kezmarok","name_en":"Hunsdorf","iso":"SK"},"geometry":{"type":"Point","coordinates":[20.37672,49.11500999999999]}},{"type":"Feature","properties":{"country_en":"Slovakia","name":"Rakovec nad Ondavou","name_adm0":"Slovenská","name_adm1":"Kosicky","name_adm2":"Michalovce","name_en":"Rakovec nad Ondavou","iso":"SK"},"geometry":{"type":"Point","coordinates":[21.782679999999996,48.76874]}},{"type":"Feature","properties":{"country_en":"Slovakia","name":"Beckovská Vieska","name_adm0":"Slovenská","name_adm1":"Trenciansky","name_adm2":"Nove Mesto Nad Vahom","name_en":"Beckovská Vieska","iso":"SK"},"geometry":{"type":"Point","coordinates":[17.88404,48.75278]}},{"type":"Feature","properties":{"country_en":"Slovakia","name":"Trhová Hradská","name_adm0":"Slovenská","name_adm1":"Trnavsky","name_adm2":"Dunajska Streda","name_en":"Trhová Hradská","iso":"SK"},"geometry":{"type":"Point","coordinates":[17.76109,47.98995]}},{"type":"Feature","properties":{"country_en":"Slovakia","name":"Uhorská Ves","name_adm0":"Slovenská","name_adm1":"Zilinsky","name_adm2":"Liptovsky Mikulas","name_en":"Uhorská Ves","iso":"SK"},"geometry":{"type":"Point","coordinates":[19.68233,49.05844]}},{"type":"Feature","properties":{"country_en":"Slovakia","name":"Devín","name_adm0":"Slovenská","name_adm1":"Bratislavsky","name_adm2":"Bratislava","name_en":"Devín","iso":"SK"},"geometry":{"type":"Point","coordinates":[16.98418,48.17443999999999]}},{"type":"Feature","properties":{"country_en":"Slovakia","name":"Dolna Micina","name_adm0":"Slovenská","name_adm1":"Banskobystricky","name_adm2":"Banska Bystrica","name_en":"Dolna Micina","iso":"SK"},"geometry":{"type":"Point","coordinates":[19.22235,48.67542]}},{"type":"Feature","properties":{"country_en":"Slovakia","name":"Domky","name_adm0":"Slovenská","name_adm1":"Banskobystricky","name_adm2":"Zarnovica","name_en":"Domky","iso":"SK"},"geometry":{"type":"Point","coordinates":[18.8108675,48.429243]}},{"type":"Feature","properties":{"country_en":"Slovakia","name":"Jasenica","name_adm0":"Slovenská","name_adm1":"Zilinsky","name_adm2":"Namestovo","name_en":"Oravska Jasenica","iso":"SK"},"geometry":{"type":"Point","coordinates":[19.43515,49.39049]}},{"type":"Feature","properties":{"country_en":"Slovakia","name":"Jasov","name_adm0":"Slovenská","name_adm1":"Kosicky","name_adm2":"Kosice-Okolie","name_en":"Jazo","iso":"SK"},"geometry":{"type":"Point","coordinates":[20.97566,48.68258999999999]}},{"type":"Feature","properties":{"country_en":"Slovakia","name":"Skalica","name_adm0":"Slovenská","name_adm1":"Trnavsky","name_adm2":"Skalica","name_en":"Skalica","iso":"SK"},"geometry":{"type":"Point","coordinates":[17.16667,48.74999999999999]}},{"type":"Feature","properties":{"country_en":"Slovakia","name":"Bánovce nad Ondavou","name_adm0":"Slovenská","name_adm1":"Kosicky","name_adm2":"Michalovce","name_en":"Bánovce nad Ondavou","iso":"SK"},"geometry":{"type":"Point","coordinates":[21.81241,48.68316]}},{"type":"Feature","properties":{"country_en":"Slovakia","name":"Čata","name_adm0":"Slovenská","name_adm1":"Nitriansky","name_adm2":"Levice","name_en":"Čata","iso":"SK"},"geometry":{"type":"Point","coordinates":[18.651469999999996,47.95357]}},{"type":"Feature","properties":{"country_en":"Slovakia","name":"Cestice","name_adm0":"Slovenská","name_adm1":"Kosicky","name_adm2":"Kosice-Okolie","name_en":"Szeszta","iso":"SK"},"geometry":{"type":"Point","coordinates":[21.10103,48.59139]}},{"type":"Feature","properties":{"country_en":"Slovakia","name":"Kraskovo","name_adm0":"Slovenská","name_adm1":"Banskobystricky","name_adm2":"Rimavska Sobota","name_en":"Kraskovo","iso":"SK"},"geometry":{"type":"Point","coordinates":[19.989989999999995,48.50121]}},{"type":"Feature","properties":{"country_en":"Slovakia","name":"Krivé","name_adm0":"Slovenská","name_adm1":"Presovsky","name_adm2":"Bardejov","name_en":"Krivé","iso":"SK"},"geometry":{"type":"Point","coordinates":[21.15112,49.29354]}},{"type":"Feature","properties":{"country_en":"Slovakia","name":"Lúky","name_adm0":"Slovenská","name_adm1":"Trenciansky","name_adm2":"Puchov","name_en":"Luki","iso":"SK"},"geometry":{"type":"Point","coordinates":[18.22775,49.18978]}},{"type":"Feature","properties":{"country_en":"Slovakia","name":"Magurka","name_adm0":"Slovenská","name_adm1":"Zilinsky","name_adm2":"Liptovsky Mikulas","name_en":"Magurka","iso":"SK"},"geometry":{"type":"Point","coordinates":[19.43169,48.944]}},{"type":"Feature","properties":{"country_en":"Slovakia","name":"Mlyňany","name_adm0":"Slovenská","name_adm1":"Nitriansky","name_adm2":"Zlate Moravce","name_en":"Mlyňany","iso":"SK"},"geometry":{"type":"Point","coordinates":[18.35358,48.33406]}},{"type":"Feature","properties":{"country_en":"Slovakia","name":"Mlynčeky","name_adm0":"Slovenská","name_adm1":"Presovsky","name_adm2":"Kezmarok","name_en":"Mlynčeky","iso":"SK"},"geometry":{"type":"Point","coordinates":[20.38401,49.16724]}},{"type":"Feature","properties":{"country_en":"Slovakia","name":"Zemné","name_adm0":"Slovenská","name_adm1":"Nitriansky","name_adm2":"Nove Zamky","name_en":"Zemné","iso":"SK"},"geometry":{"type":"Point","coordinates":[17.99492,47.9836]}},{"type":"Feature","properties":{"country_en":"Slovakia","name":"Zlate Moravce","name_adm0":"Slovenská","name_adm1":"Nitriansky","name_adm2":"Zlate Moravce","name_en":"Zlate Moravce","iso":"SK"},"geometry":{"type":"Point","coordinates":[18.400661,48.3898805]}},{"type":"Feature","properties":{"country_en":"Slovakia","name":"Plechotice","name_adm0":"Slovenská","name_adm1":"Kosicky","name_adm2":"Trebisov","name_en":"Plechotice","iso":"SK"},"geometry":{"type":"Point","coordinates":[21.64238,48.62634]}},{"type":"Feature","properties":{"country_en":"Slovakia","name":"Plevník","name_adm0":"Slovenská","name_adm1":"Trenciansky","name_adm2":"Povazska Bystrica","name_en":"Plevník","iso":"SK"},"geometry":{"type":"Point","coordinates":[18.49681,49.16946999999999]}},{"type":"Feature","properties":{"country_en":"Slovakia","name":"Podhorany","name_adm0":"Slovenská","name_adm1":"Presovsky","name_adm2":"Presov","name_en":"Podhorany","iso":"SK"},"geometry":{"type":"Point","coordinates":[20.4801,49.23973]}},{"type":"Feature","properties":{"country_en":"Slovakia","name":"Rybárpole","name_adm0":"Slovenská","name_adm1":"Zilinsky","name_adm2":"Ruzomberok","name_en":"Rybárpole","iso":"SK"},"geometry":{"type":"Point","coordinates":[19.28046,49.08654]}},{"type":"Feature","properties":{"country_en":"Slovakia","name":"Å panie Pole","name_adm0":"Slovenská","name_adm1":"Banskobystricky","name_adm2":"Rimavska Sobota","name_en":"Å panie Pole","iso":"SK"},"geometry":{"type":"Point","coordinates":[20.12728,48.52018]}},{"type":"Feature","properties":{"country_en":"Slovakia","name":"Turzovka","name_adm0":"Slovenská","name_adm1":"Zilinsky","name_adm2":"Cadca","name_en":"Turzovka","iso":"SK"},"geometry":{"type":"Point","coordinates":[18.62258,49.40429]}},{"type":"Feature","properties":{"country_en":"Slovakia","name":"Púchov","name_adm0":"Slovenská","name_adm1":"Trenciansky","name_adm2":"Puchov","name_en":"Pucho","iso":"SK"},"geometry":{"type":"Point","coordinates":[18.32596,49.12494]}},{"type":"Feature","properties":{"country_en":"Slovakia","name":"Cadca","name_adm0":"Slovenská","name_adm1":"Zilinsky","name_adm2":"Cadca","name_en":"Cadca","iso":"SK"},"geometry":{"type":"Point","coordinates":[18.78895,49.43503]}},{"type":"Feature","properties":{"country_en":"Slovakia","name":"Želiezovce","name_adm0":"Slovenská","name_adm1":"Nitriansky","name_adm2":"Levice","name_en":"Zseliz","iso":"SK"},"geometry":{"type":"Point","coordinates":[18.65421,48.050749999999994]}},{"type":"Feature","properties":{"country_en":"Slovakia","name":"Turecka","name_adm0":"Slovenská","name_adm1":"Banskobystricky","name_adm2":"Banska Bystrica","name_en":"Turecka","iso":"SK"},"geometry":{"type":"Point","coordinates":[19.051041,48.87846199999999]}},{"type":"Feature","properties":{"country_en":"Slovakia","name":"Nadbanske","name_adm0":"Slovenská","name_adm1":"Presovsky","name_adm2":"Poprad","name_en":"Nadbanske","iso":"SK"},"geometry":{"type":"Point","coordinates":[19.908297,49.151776]}},{"type":"Feature","properties":{"country_en":"Slovakia","name":"Močenok","name_adm0":"Slovenská","name_adm1":"Nitriansky","name_adm2":"Sala","name_en":"Močenok","iso":"SK"},"geometry":{"type":"Point","coordinates":[17.930749999999996,48.22774]}},{"type":"Feature","properties":{"country_en":"Slovakia","name":"Vranov","name_adm0":"Slovenská","name_adm1":"Presovsky","name_adm2":"Vranov Nad Toplou","name_en":"Vranov","iso":"SK"},"geometry":{"type":"Point","coordinates":[21.684789999999996,48.88836]}},{"type":"Feature","properties":{"country_en":"Slovakia","name":"Dargovských hrdinov","name_adm0":"Slovenská","name_adm1":"Kosicky","name_adm2":"Kosice","name_en":"Dargovských hrdinov","iso":"SK"},"geometry":{"type":"Point","coordinates":[21.2833305,48.73130749999999]}},{"type":"Feature","properties":{"country_en":"Slovakia","name":"Lipovce","name_adm0":"Slovenská","name_adm1":"Presovsky","name_adm2":"Presov","name_en":"Lipovce","iso":"SK"},"geometry":{"type":"Point","coordinates":[20.95343,49.0562]}},{"type":"Feature","properties":{"country_en":"Slovakia","name":"Jablonec","name_adm0":"Slovenská","name_adm1":"Bratislavsky","name_adm2":"Pezinok","name_en":"Jablonec","iso":"SK"},"geometry":{"type":"Point","coordinates":[17.4387035,48.337837]}},{"type":"Feature","properties":{"country_en":"Slovakia","name":"Miloslavov","name_adm0":"Slovenská","name_adm1":"Bratislavsky","name_adm2":"Senec","name_en":"Miloslavov","iso":"SK"},"geometry":{"type":"Point","coordinates":[17.319082,48.087081]}},{"type":"Feature","properties":{"country_en":"Slovakia","name":"Jarabina","name_adm0":"Slovenská","name_adm1":"Presovsky","name_adm2":"Stara Lubovna","name_en":"Jareminka","iso":"SK"},"geometry":{"type":"Point","coordinates":[20.65668,49.335609999999996]}},{"type":"Feature","properties":{"country_en":"Slovakia","name":"Súl̕ov","name_adm0":"Slovenská","name_adm1":"Zilinsky","name_adm2":"Bytca","name_en":"Súl̕ov","iso":"SK"},"geometry":{"type":"Point","coordinates":[18.58886,49.16464]}},{"type":"Feature","properties":{"country_en":"Slovakia","name":"Studenec","name_adm0":"Slovenská","name_adm1":"Presovsky","name_adm2":"Levoca","name_en":"Kolbachy","iso":"SK"},"geometry":{"type":"Point","coordinates":[20.76903,49.01236]}},{"type":"Feature","properties":{"country_en":"Slovakia","name":"Dubnica nad Váhom","name_adm0":"Slovenská","name_adm1":"Trenciansky","name_adm2":"Ilava","name_en":"Dubnica nad Vahom","iso":"SK"},"geometry":{"type":"Point","coordinates":[18.16634,48.95981]}},{"type":"Feature","properties":{"country_en":"Slovakia","name":"Gabčíkovo","name_adm0":"Slovenská","name_adm1":"Trnavsky","name_adm2":"Dunajska Streda","name_en":"Gabcikovo","iso":"SK"},"geometry":{"type":"Point","coordinates":[17.57884,47.89211]}},{"type":"Feature","properties":{"country_en":"Slovakia","name":"Rožňava","name_adm0":"Slovenská","name_adm1":"Kosicky","name_adm2":"Roznava","name_en":"Rožňava","iso":"SK"},"geometry":{"type":"Point","coordinates":[20.53758,48.66008]}},{"type":"Feature","properties":{"country_en":"Slovakia","name":"Gombasek","name_adm0":"Slovenská","name_adm1":"Kosicky","name_adm2":"Roznava","name_en":"Gombasek","iso":"SK"},"geometry":{"type":"Point","coordinates":[20.465169999999997,48.56844]}},{"type":"Feature","properties":{"country_en":"Slovakia","name":"Čilistov","name_adm0":"Slovenská","name_adm1":"Trnavsky","name_adm2":"Dunajska Streda","name_en":"Čilistov","iso":"SK"},"geometry":{"type":"Point","coordinates":[17.3081,48.010979999999996]}},{"type":"Feature","properties":{"country_en":"Slovakia","name":"Horné Vestenice","name_adm0":"Slovenská","name_adm1":"Trenciansky","name_adm2":"Prievidza","name_en":"Hornie Vestenice","iso":"SK"},"geometry":{"type":"Point","coordinates":[18.429259999999996,48.71258]}},{"type":"Feature","properties":{"country_en":"Slovakia","name":"Hostie","name_adm0":"Slovenská","name_adm1":"Nitriansky","name_adm2":"Zlate Moravce","name_en":"Hostie","iso":"SK"},"geometry":{"type":"Point","coordinates":[18.43826,48.45288999999999]}},{"type":"Feature","properties":{"country_en":"Slovakia","name":"Hrabová Roztoka","name_adm0":"Slovenská","name_adm1":"Presovsky","name_adm2":"Snina","name_en":"Hrabová Roztoka","iso":"SK"},"geometry":{"type":"Point","coordinates":[22.300359999999998,48.8786]}},{"type":"Feature","properties":{"country_en":"Slovakia","name":"Ipel̕ský Sokolec","name_adm0":"Slovenská","name_adm1":"Nitriansky","name_adm2":"Levice","name_en":"Ipel̕ský Sokolec","iso":"SK"},"geometry":{"type":"Point","coordinates":[18.805769999999995,48.01890999999999]}},{"type":"Feature","properties":{"country_en":"Slovakia","name":"Kežmarské Žleby","name_adm0":"Slovenská","name_adm1":"Presovsky","name_adm2":"Poprad","name_en":"Kezmarske Zlaby","iso":"SK"},"geometry":{"type":"Point","coordinates":[20.29947,49.19483]}},{"type":"Feature","properties":{"country_en":"Slovakia","name":"Bardejov","name_adm0":"Slovenská","name_adm1":"Presovsky","name_adm2":"Bardejov","name_en":"Bardejov","iso":"SK"},"geometry":{"type":"Point","coordinates":[21.272709999999996,49.29175]}},{"type":"Feature","properties":{"country_en":"Slovakia","name":"Humenné","name_adm0":"Slovenská","name_adm1":"Presovsky","name_adm2":"Humenne","name_en":"Humenne","iso":"SK"},"geometry":{"type":"Point","coordinates":[21.91625,48.93707]}},{"type":"Feature","properties":{"country_en":"Slovakia","name":"Zilinsky","name_adm0":"Slovenská","name_adm1":"Zilinsky","name_en":"Zilinsky","iso":"SK"},"geometry":{"type":"Point","coordinates":[19.16667,49.16667]}},{"type":"Feature","properties":{"country_en":"Slovakia","name":"Presovsky","name_adm0":"Slovenská","name_adm1":"Presovsky","name_en":"Presovsky","iso":"SK"},"geometry":{"type":"Point","coordinates":[21.25,49.16667]}},{"type":"Feature","properties":{"country_en":"Slovakia","name":"Chalmová","name_adm0":"Slovenská","name_adm1":"Trenciansky","name_adm2":"Prievidza","name_en":"Chalmová","iso":"SK"},"geometry":{"type":"Point","coordinates":[18.47816,48.66466]}},{"type":"Feature","properties":{"country_en":"Slovakia","name":"Podrozsutec","name_adm0":"Slovenská","name_adm1":"Zilinsky","name_adm2":"Zilina","name_en":"Podrozsutec","iso":"SK"},"geometry":{"type":"Point","coordinates":[19.082565,49.23856]}},{"type":"Feature","properties":{"country_en":"Slovakia","name":"Vel̕ké Borové","name_adm0":"Slovenská","name_adm1":"Zilinsky","name_adm2":"Liptovsky Mikulas","name_en":"Vel̕ké Borové","iso":"SK"},"geometry":{"type":"Point","coordinates":[19.51953,49.19797]}},{"type":"Feature","properties":{"country_en":"Slovakia","name":"Vel̕ký Dvor","name_adm0":"Slovenská","name_adm1":"Nitriansky","name_adm2":"Levice","name_en":"Kerekudvar","iso":"SK"},"geometry":{"type":"Point","coordinates":[18.602079999999997,48.041869999999996]}},{"type":"Feature","properties":{"country_en":"Slovakia","name":"Vel̕opolie","name_adm0":"Slovenská","name_adm1":"Presovsky","name_adm2":"Humenne","name_en":"Vel̕opolie","iso":"SK"},"geometry":{"type":"Point","coordinates":[21.95512,48.99284]}},{"type":"Feature","properties":{"country_en":"Slovakia","name":"Vybuchanec","name_adm0":"Slovenská","name_adm1":"Kosicky","name_adm2":"Michalovce","name_en":"Vybuchanec","iso":"SK"},"geometry":{"type":"Point","coordinates":[21.81691,48.82099]}},{"type":"Feature","properties":{"country_en":"Slovakia","name":"Vysoká","name_adm0":"Slovenská","name_adm1":"Presovsky","name_adm2":"Sabinov","name_en":"Vysoká","iso":"SK"},"geometry":{"type":"Point","coordinates":[20.88221,49.12533]}},{"type":"Feature","properties":{"country_en":"Slovakia","name":"Žaškov","name_adm0":"Slovenská","name_adm1":"Zilinsky","name_adm2":"Dolny Kubin","name_en":"Žaškov","iso":"SK"},"geometry":{"type":"Point","coordinates":[19.2174,49.17236]}},{"type":"Feature","properties":{"country_en":"Slovakia","name":"Cop","name_adm0":"Slovenská","name_adm1":"Kosicky","name_adm2":"Michalovce","name_en":"Cop","iso":"SK"},"geometry":{"type":"Point","coordinates":[22.20555,48.43198]}},{"type":"Feature","properties":{"country_en":"Slovakia","name":"Fričovce","name_adm0":"Slovenská","name_adm1":"Presovsky","name_adm2":"Presov","name_en":"Fričovce","iso":"SK"},"geometry":{"type":"Point","coordinates":[20.96302,49.0167]}},{"type":"Feature","properties":{"country_en":"Slovakia","name":"Hokovce","name_adm0":"Slovenská","name_adm1":"Nitriansky","name_adm2":"Levice","name_en":"Egeg","iso":"SK"},"geometry":{"type":"Point","coordinates":[18.8702,48.15485]}},{"type":"Feature","properties":{"country_en":"Slovakia","name":"Zubrohlava","name_adm0":"Slovenská","name_adm1":"Zilinsky","name_adm2":"Namestovo","name_en":"Zubrohlava","iso":"SK"},"geometry":{"type":"Point","coordinates":[19.5117,49.44543999999999]}},{"type":"Feature","properties":{"country_en":"Slovakia","name":"Pet̕ov","name_adm0":"Slovenská","name_adm1":"Banskobystricky","name_adm2":"Velky Krtis","name_en":"Pet̕ov","iso":"SK"},"geometry":{"type":"Point","coordinates":[19.50063,48.1086]}},{"type":"Feature","properties":{"country_en":"Slovakia","name":"Stredný Sliač","name_adm0":"Slovenská","name_adm1":"Zilinsky","name_adm2":"Ruzomberok","name_en":"Stredný Sliač","iso":"SK"},"geometry":{"type":"Point","coordinates":[19.38454,49.06088]}},{"type":"Feature","properties":{"country_en":"Slovakia","name":"Tvrdošovce","name_adm0":"Slovenská","name_adm1":"Nitriansky","name_adm2":"Nove Zamky","name_en":"Tvrdošovce","iso":"SK"},"geometry":{"type":"Point","coordinates":[18.06686,48.0945]}},{"type":"Feature","properties":{"country_en":"Slovakia","name":"Vydrník","name_adm0":"Slovenská","name_adm1":"Presovsky","name_adm2":"Poprad","name_en":"Vydrník","iso":"SK"},"geometry":{"type":"Point","coordinates":[20.40657,49.00061]}},{"type":"Feature","properties":{"country_en":"Slovakia","name":"Zdiar","name_adm0":"Slovenská","name_adm1":"Presovsky","name_adm2":"Poprad","name_en":"Zdiar","iso":"SK"},"geometry":{"type":"Point","coordinates":[20.272564,49.269667]}},{"type":"Feature","properties":{"country_en":"Slovakia","name":"Tatranska Javorina","name_adm0":"Slovenská","name_adm1":"Presovsky","name_adm2":"Poprad","name_en":"Tatranska Javorina","iso":"SK"},"geometry":{"type":"Point","coordinates":[20.099315,49.24181]}},{"type":"Feature","properties":{"country_en":"Slovakia","name":"Terchova","name_adm0":"Slovenská","name_adm1":"Zilinsky","name_adm2":"Zilina","name_en":"Terchova","iso":"SK"},"geometry":{"type":"Point","coordinates":[19.058961,49.24106]}},{"type":"Feature","properties":{"country_en":"Slovakia","name":"Kolinany","name_adm0":"Slovenská","name_adm1":"Nitriansky","name_adm2":"Nitra","name_en":"Kolinany","iso":"SK"},"geometry":{"type":"Point","coordinates":[18.19693,48.36059]}},{"type":"Feature","properties":{"country_en":"Slovakia","name":"Zlate Moravce","name_adm0":"Slovenská","name_adm1":"Nitriansky","name_adm2":"Zlate Moravce","name_en":"Zlate Moravce","iso":"SK"},"geometry":{"type":"Point","coordinates":[18.460893,48.3813055]}},{"type":"Feature","properties":{"country_en":"Slovakia","name":"Dolny Kubin","name_adm0":"Slovenská","name_adm1":"Zilinsky","name_adm2":"Dolny Kubin","name_en":"Dolny Kubin","iso":"SK"},"geometry":{"type":"Point","coordinates":[19.2977035,49.24562]}},{"type":"Feature","properties":{"country_en":"Slovakia","name":"Bytca","name_adm0":"Slovenská","name_adm1":"Zilinsky","name_adm2":"Bytca","name_en":"Bytca","iso":"SK"},"geometry":{"type":"Point","coordinates":[18.59436,49.181142]}},{"type":"Feature","properties":{"country_en":"Slovakia","name":"Rajkov","name_adm0":"Slovenská","name_adm1":"Zilinsky","name_adm2":"Ruzomberok","name_en":"Rajkov","iso":"SK"},"geometry":{"type":"Point","coordinates":[18.88196,48.98875999999999]}},{"type":"Feature","properties":{"country_en":"Slovakia","name":"Ruzindol","name_adm0":"Slovenská","name_adm1":"Trnavsky","name_adm2":"Trnava","name_en":"Ruzindol","iso":"SK"},"geometry":{"type":"Point","coordinates":[17.49113,48.37177]}},{"type":"Feature","properties":{"country_en":"Slovakia","name":"Slovenska Lupca","name_adm0":"Slovenská","name_adm1":"Banskobystricky","name_adm2":"Banska Bystrica","name_en":"Slovenska Lupca","iso":"SK"},"geometry":{"type":"Point","coordinates":[19.27549,48.76532]}},{"type":"Feature","properties":{"country_en":"Slovakia","name":"Dlhe Pole","name_adm0":"Slovenská","name_adm1":"Zilinsky","name_adm2":"Zilina","name_en":"Dlhe Pole","iso":"SK"},"geometry":{"type":"Point","coordinates":[18.63166,49.3073]}},{"type":"Feature","properties":{"country_en":"Slovakia","name":"Lutise","name_adm0":"Slovenská","name_adm1":"Zilinsky","name_adm2":"Zilina","name_en":"Lutise","iso":"SK"},"geometry":{"type":"Point","coordinates":[18.95743,49.29078]}},{"type":"Feature","properties":{"country_en":"Slovakia","name":"Kotrcina Lucka","name_adm0":"Slovenská","name_adm1":"Zilinsky","name_adm2":"Zilina","name_en":"Kotrcina Lucka","iso":"SK"},"geometry":{"type":"Point","coordinates":[18.83897,49.2503]}},{"type":"Feature","properties":{"country_en":"Slovakia","name":"Proc","name_adm0":"Slovenská","name_adm1":"Presovsky","name_adm2":"Presov","name_en":"Proc","iso":"SK"},"geometry":{"type":"Point","coordinates":[21.3916,49.09667]}},{"type":"Feature","properties":{"country_en":"Slovakia","name":"Svinia","name_adm0":"Slovenská","name_adm1":"Presovsky","name_adm2":"Presov","name_en":"Svinia","iso":"SK"},"geometry":{"type":"Point","coordinates":[21.1217,49.01266]}},{"type":"Feature","properties":{"country_en":"Slovakia","name":"Lazany","name_adm0":"Slovenská","name_adm1":"Presovsky","name_adm2":"Presov","name_en":"Lazany","iso":"SK"},"geometry":{"type":"Point","coordinates":[21.09851,49.03596]}},{"type":"Feature","properties":{"country_en":"Slovakia","name":"Sindliar","name_adm0":"Slovenská","name_adm1":"Presovsky","name_adm2":"Presov","name_en":"Sindliar","iso":"SK"},"geometry":{"type":"Point","coordinates":[20.9439,49.03963]}},{"type":"Feature","properties":{"country_en":"Slovakia","name":"Klace","name_adm0":"Slovenská","name_adm1":"Zilinsky","name_adm2":"Zilina","name_en":"Klace","iso":"SK"},"geometry":{"type":"Point","coordinates":[18.6485,49.10637]}},{"type":"Feature","properties":{"country_en":"Slovakia","name":"Ondrasovce","name_adm0":"Slovenská","name_adm1":"Presovsky","name_adm2":"Presov","name_en":"Ondrasovce","iso":"SK"},"geometry":{"type":"Point","coordinates":[21.07776,48.988369999999996]}},{"type":"Feature","properties":{"country_en":"Slovakia","name":"Krizovany","name_adm0":"Slovenská","name_adm1":"Presovsky","name_adm2":"Presov","name_en":"Krizovany","iso":"SK"},"geometry":{"type":"Point","coordinates":[21.0498,48.98149]}},{"type":"Feature","properties":{"country_en":"Slovakia","name":"Bajerov","name_adm0":"Slovenská","name_adm1":"Presovsky","name_adm2":"Presov","name_en":"Bajerov","iso":"SK"},"geometry":{"type":"Point","coordinates":[21.115289999999998,48.95345]}},{"type":"Feature","properties":{"country_en":"Slovakia","name":"Dulova Ves","name_adm0":"Slovenská","name_adm1":"Presovsky","name_adm2":"Presov","name_en":"Dulova Ves","iso":"SK"},"geometry":{"type":"Point","coordinates":[21.3061,48.95313]}},{"type":"Feature","properties":{"country_en":"Slovakia","name":"Durcina","name_adm0":"Slovenská","name_adm1":"Zilinsky","name_adm2":"Zilina","name_en":"Durcina","iso":"SK"},"geometry":{"type":"Point","coordinates":[18.65222,49.063669999999995]}},{"type":"Feature","properties":{"country_en":"Slovakia","name":"Ovcie","name_adm0":"Slovenská","name_adm1":"Presovsky","name_adm2":"Presov","name_en":"Ovcie","iso":"SK"},"geometry":{"type":"Point","coordinates":[20.976959999999995,48.96409]}},{"type":"Feature","properties":{"country_en":"Slovakia","name":"Suja","name_adm0":"Slovenská","name_adm1":"Zilinsky","name_adm2":"Zilina","name_en":"Suja","iso":"SK"},"geometry":{"type":"Point","coordinates":[18.62874,49.06942999999999]}},{"type":"Feature","properties":{"country_en":"Slovakia","name":"Abranovce","name_adm0":"Slovenská","name_adm1":"Presovsky","name_adm2":"Presov","name_en":"Abranovce","iso":"SK"},"geometry":{"type":"Point","coordinates":[21.345279999999995,48.93176]}},{"type":"Feature","properties":{"country_en":"Slovakia","name":"Klenov","name_adm0":"Slovenská","name_adm1":"Presovsky","name_adm2":"Presov","name_en":"Klenov","iso":"SK"},"geometry":{"type":"Point","coordinates":[21.055979999999998,48.92667]}},{"type":"Feature","properties":{"country_en":"Slovakia","name":"Balaze","name_adm0":"Slovenská","name_adm1":"Banskobystricky","name_adm2":"Banska Bystrica","name_en":"Balaze","iso":"SK"},"geometry":{"type":"Point","coordinates":[19.19569,48.81399]}},{"type":"Feature","properties":{"country_en":"Slovakia","name":"Mostenica","name_adm0":"Slovenská","name_adm1":"Banskobystricky","name_adm2":"Banska Bystrica","name_en":"Mostenica","iso":"SK"},"geometry":{"type":"Point","coordinates":[19.29049,48.80839]}},{"type":"Feature","properties":{"country_en":"Slovakia","name":"Priechod","name_adm0":"Slovenská","name_adm1":"Banskobystricky","name_adm2":"Banska Bystrica","name_en":"Priechod","iso":"SK"},"geometry":{"type":"Point","coordinates":[19.23543,48.78308]}},{"type":"Feature","properties":{"country_en":"Slovakia","name":"Kordiky","name_adm0":"Slovenská","name_adm1":"Banskobystricky","name_adm2":"Banska Bystrica","name_en":"Kordiky","iso":"SK"},"geometry":{"type":"Point","coordinates":[19.02197,48.7718]}},{"type":"Feature","properties":{"country_en":"Slovakia","name":"Horne Prsany","name_adm0":"Slovenská","name_adm1":"Banskobystricky","name_adm2":"Banska Bystrica","name_en":"Horne Prsany","iso":"SK"},"geometry":{"type":"Point","coordinates":[19.0833,48.69964]}},{"type":"Feature","properties":{"country_en":"Slovakia","name":"Oravce","name_adm0":"Slovenská","name_adm1":"Banskobystricky","name_adm2":"Banska Bystrica","name_en":"Oravce","iso":"SK"},"geometry":{"type":"Point","coordinates":[19.262749999999997,48.68457]}},{"type":"Feature","properties":{"country_en":"Slovakia","name":"Klasov","name_adm0":"Slovenská","name_adm1":"Nitriansky","name_adm2":"Nitra","name_en":"Klasov","iso":"SK"},"geometry":{"type":"Point","coordinates":[18.25937,48.27625]}},{"type":"Feature","properties":{"country_en":"Slovakia","name":"Telince","name_adm0":"Slovenská","name_adm1":"Nitriansky","name_adm2":"Nitra","name_en":"Telince","iso":"SK"},"geometry":{"type":"Point","coordinates":[18.36861,48.22993999999999]}},{"type":"Feature","properties":{"country_en":"Slovakia","name":"Velky Cetin","name_adm0":"Slovenská","name_adm1":"Nitriansky","name_adm2":"Nitra","name_en":"Velky Cetin","iso":"SK"},"geometry":{"type":"Point","coordinates":[18.19087,48.22033]}},{"type":"Feature","properties":{"country_en":"Slovakia","name":"Svatoplukovo","name_adm0":"Slovenská","name_adm1":"Nitriansky","name_adm2":"Nitra","name_en":"Svatoplukovo","iso":"SK"},"geometry":{"type":"Point","coordinates":[18.05582,48.22817]}},{"type":"Feature","properties":{"country_en":"Slovakia","name":"Velka Dolina","name_adm0":"Slovenská","name_adm1":"Nitriansky","name_adm2":"Nitra","name_en":"Velka Dolina","iso":"SK"},"geometry":{"type":"Point","coordinates":[18.3,48.05]}},{"type":"Feature","properties":{"country_en":"Slovakia","name":"Slovenska Nova Ves","name_adm0":"Slovenská","name_adm1":"Trnavsky","name_adm2":"Trnava","name_en":"Slovenska Nova Ves","iso":"SK"},"geometry":{"type":"Point","coordinates":[17.53384,48.29216]}},{"type":"Feature","properties":{"country_en":"Slovakia","name":"Trnkov","name_adm0":"Slovenská","name_adm1":"Presovsky","name_adm2":"Presov","name_en":"Trnkov","iso":"SK"},"geometry":{"type":"Point","coordinates":[21.35792,49.03576999999999]}},{"type":"Feature","properties":{"country_en":"Slovakia","name":"Novy Dvor","name_adm0":"Slovenská","name_adm1":"Trnavsky","name_adm2":"Dunajska Streda","name_en":"Novy Dvor","iso":"SK"},"geometry":{"type":"Point","coordinates":[17.74275,47.867309999999996]}},{"type":"Feature","properties":{"country_en":"Slovakia","name":"Levkovce","name_adm0":"Slovenská","name_adm1":"Presovsky","name_adm2":"Kezmarok","name_en":"Levkovce","iso":"SK"},"geometry":{"type":"Point","coordinates":[20.50073,49.05019999999999]}},{"type":"Feature","properties":{"country_en":"Slovakia","name":"Repejov","name_adm0":"Slovenská","name_adm1":"Presovsky","name_adm2":"Medzilaborce","name_en":"Repejov","iso":"SK"},"geometry":{"type":"Point","coordinates":[21.98333,49.2]}},{"type":"Feature","properties":{"country_en":"Slovakia","name":"Mlyniska","name_adm0":"Slovenská","name_adm1":"Presovsky","name_adm2":"Bardejov","name_en":"Mlyniska","iso":"SK"},"geometry":{"type":"Point","coordinates":[20.3137,49.10088]}},{"type":"Feature","properties":{"country_en":"Slovakia","name":"Kopanky","name_adm0":"Slovenská","name_adm1":"Trenciansky","name_adm2":"Myjava","name_en":"Kopanky","iso":"SK"},"geometry":{"type":"Point","coordinates":[17.45777,48.82368]}},{"type":"Feature","properties":{"country_en":"Slovakia","name":"Vysny Kazimir","name_adm0":"Slovenská","name_adm1":"Presovsky","name_adm2":"Vranov Nad Toplou","name_en":"Vysny Kazimir","iso":"SK"},"geometry":{"type":"Point","coordinates":[21.68092,48.94045]}},{"type":"Feature","properties":{"country_en":"Slovakia","name":"Rimavica","name_adm0":"Slovenská","name_adm1":"Banskobystricky","name_adm2":"Rimavska Sobota","name_en":"Rimavica","iso":"SK"},"geometry":{"type":"Point","coordinates":[19.9,48.51667]}},{"type":"Feature","properties":{"country_en":"Slovakia","name":"Trnovec","name_adm0":"Slovenská","name_adm1":"Trnavsky","name_adm2":"Skalica","name_en":"Trnovec","iso":"SK"},"geometry":{"type":"Point","coordinates":[17.18769,48.79912]}},{"type":"Feature","properties":{"country_en":"Slovakia","name":"Sara","name_adm0":"Slovenská","name_adm1":"Banskobystricky","name_adm2":"Lucenec","name_en":"Sara","iso":"SK"},"geometry":{"type":"Point","coordinates":[20.33204,48.43907]}},{"type":"Feature","properties":{"country_en":"Slovakia","name":"Barta","name_adm0":"Slovenská","name_adm1":"Banskobystricky","name_adm2":"Rimavska Sobota","name_en":"Barta","iso":"SK"},"geometry":{"type":"Point","coordinates":[20.6,47.46667]}},{"type":"Feature","properties":{"country_en":"Slovakia","name":"Podhorie","name_adm0":"Slovenská","name_adm1":"Trnavsky","name_adm2":"Senica","name_en":"Podhorie","iso":"SK"},"geometry":{"type":"Point","coordinates":[18.05167,48.66091]}},{"type":"Feature","properties":{"country_en":"Slovakia","name":"Borinka","name_adm0":"Slovenská","name_adm1":"Bratislavsky","name_adm2":"Malacky","name_en":"Borinka","iso":"SK"},"geometry":{"type":"Point","coordinates":[17.085896,48.27411]}},{"type":"Feature","properties":{"country_en":"Slovakia","name":"Zehra","name_adm0":"Slovenská","name_adm1":"Kosicky","name_adm2":"Spisska Nova Ves","name_en":"Zehra","iso":"SK"},"geometry":{"type":"Point","coordinates":[20.769009,48.994072]}},{"type":"Feature","properties":{"country_en":"Slovakia","name":"Bukova","name_adm0":"Slovenská","name_adm1":"Trnavsky","name_adm2":"Trnava","name_en":"Bukova","iso":"SK"},"geometry":{"type":"Point","coordinates":[17.382602,48.522687]}},{"type":"Feature","properties":{"country_en":"Slovakia","name":"Roznava","name_adm0":"Slovenská","name_adm1":"Kosicky","name_adm2":"Roznava","name_en":"Roznava","iso":"SK"},"geometry":{"type":"Point","coordinates":[20.53173,48.6585125]}},{"type":"Feature","properties":{"country_en":"Slovakia","name":"Suchohrad","name_adm0":"Slovenská","name_adm1":"Bratislavsky","name_adm2":"Malacky","name_en":"Suchohrad","iso":"SK"},"geometry":{"type":"Point","coordinates":[16.855258,48.408408]}},{"type":"Feature","properties":{"country_en":"Slovakia","name":"Zvolen","name_adm0":"Slovenská","name_adm1":"Banskobystricky","name_adm2":"Zvolen","name_en":"Zvolen","iso":"SK"},"geometry":{"type":"Point","coordinates":[19.12813,48.57787]}},{"type":"Feature","properties":{"country_en":"Slovakia","name":"Sliac","name_adm0":"Slovenská","name_adm1":"Banskobystricky","name_adm2":"Zvolen","name_en":"Sliac","iso":"SK"},"geometry":{"type":"Point","coordinates":[19.196333,48.6275]}},{"type":"Feature","properties":{"country_en":"Slovakia","name":"Å Tiavnické Bane","name_adm0":"Slovenská","name_adm1":"Banskobystricky","name_adm2":"Banska Stiavnica","name_en":"Piarg","iso":"SK"},"geometry":{"type":"Point","coordinates":[18.873137999999997,48.44079899999999]}},{"type":"Feature","properties":{"country_en":"Slovakia","name":"Cífer","name_adm0":"Slovenská","name_adm1":"Trnavsky","name_adm2":"Trnava","name_en":"Cífer","iso":"SK"},"geometry":{"type":"Point","coordinates":[17.48987,48.3175]}},{"type":"Feature","properties":{"country_en":"Slovakia","name":"Stara Myjava","name_adm0":"Slovenská","name_adm1":"Trenciansky","name_adm2":"Myjava","name_en":"Stara Myjava","iso":"SK"},"geometry":{"type":"Point","coordinates":[17.588769999999997,48.79318]}},{"type":"Feature","properties":{"country_en":"Slovakia","name":"Horné Dubové","name_adm0":"Slovenská","name_adm1":"Trnavsky","name_adm2":"Trnava","name_en":"Horné Dubové","iso":"SK"},"geometry":{"type":"Point","coordinates":[17.56378,48.51927]}},{"type":"Feature","properties":{"country_en":"Slovakia","name":"Hrabkov","name_adm0":"Slovenská","name_adm1":"Presovsky","name_adm2":"Presov","name_en":"Hrabkov","iso":"SK"},"geometry":{"type":"Point","coordinates":[21.02339,48.95968]}},{"type":"Feature","properties":{"country_en":"Slovakia","name":"Krížovany","name_adm0":"Slovenská","name_adm1":"Presovsky","name_adm2":"Presov","name_en":"Krížovany","iso":"SK"},"geometry":{"type":"Point","coordinates":[21.0498,48.98149]}},{"type":"Feature","properties":{"country_en":"Slovakia","name":"Vel̕ká Dolina","name_adm0":"Slovenská","name_adm1":"Nitriansky","name_adm2":"Nitra","name_en":"Vel̕ká Dolina","iso":"SK"},"geometry":{"type":"Point","coordinates":[18.3,48.05]}},{"type":"Feature","properties":{"country_en":"Slovakia","name":"Trenciansky","name_adm0":"Slovenská","name_adm1":"Trenciansky","name_en":"Trenciansky","iso":"SK"},"geometry":{"type":"Point","coordinates":[18.25,48.83333]}},{"type":"Feature","properties":{"country_en":"Slovakia","name":"Strba","name_adm0":"Slovenská","name_adm1":"Presovsky","name_adm2":"Poprad","name_en":"Strba","iso":"SK"},"geometry":{"type":"Point","coordinates":[20.07975,49.05913]}},{"type":"Feature","properties":{"country_en":"Slovakia","name":"Moldava nad Bodvou","name_adm0":"Slovenská","name_adm1":"Kosicky","name_adm2":"Kosice-Okolie","name_en":"Szepsi","iso":"SK"},"geometry":{"type":"Point","coordinates":[20.99957,48.61428]}},{"type":"Feature","properties":{"country_en":"Slovakia","name":"Lučenec","name_adm0":"Slovenská","name_adm1":"Banskobystricky","name_adm2":"Lucenec","name_en":"Lucenec","iso":"SK"},"geometry":{"type":"Point","coordinates":[19.66708,48.33248999999999]}},{"type":"Feature","properties":{"country_en":"Slovakia","name":"Piešt̕any","name_adm0":"Slovenská","name_adm1":"Trnavsky","name_adm2":"Piestany","name_en":"Piešt̕any","iso":"SK"},"geometry":{"type":"Point","coordinates":[17.82591,48.59479]}},{"type":"Feature","properties":{"country_en":"Slovakia","name":"Gbelany","name_adm0":"Slovenská","name_adm1":"Zilinsky","name_adm2":"Zilina","name_en":"Gbelany","iso":"SK"},"geometry":{"type":"Point","coordinates":[18.84452,49.21216]}},{"type":"Feature","properties":{"country_en":"Slovakia","name":"Kvacany","name_adm0":"Slovenská","name_adm1":"Presovsky","name_adm2":"Presov","name_en":"Kvacany","iso":"SK"},"geometry":{"type":"Point","coordinates":[21.08654,48.94517]}},{"type":"Feature","properties":{"country_en":"Slovakia","name":"Drienov","name_adm0":"Slovenská","name_adm1":"Presovsky","name_adm2":"Presov","name_en":"Drienov","iso":"SK"},"geometry":{"type":"Point","coordinates":[21.27382,48.87318]}},{"type":"Feature","properties":{"country_en":"Slovakia","name":"Sacurov","name_adm0":"Slovenská","name_adm1":"Presovsky","name_adm2":"Vranov Nad Toplou","name_en":"Sacurov","iso":"SK"},"geometry":{"type":"Point","coordinates":[21.6142265,48.942962]}},{"type":"Feature","properties":{"country_en":"Slovakia","name":"Borcice","name_adm0":"Slovenská","name_adm1":"Trenciansky","name_adm2":"Ilava","name_en":"Borcice","iso":"SK"},"geometry":{"type":"Point","coordinates":[18.203269,48.990873]}},{"type":"Feature","properties":{"country_en":"Slovakia","name":"Ubrez","name_adm0":"Slovenská","name_adm1":"Kosicky","name_adm2":"Sobrance","name_en":"Ubrez","iso":"SK"},"geometry":{"type":"Point","coordinates":[22.49201,48.80508]}},{"type":"Feature","properties":{"country_en":"Slovakia","name":"Hrnciarovce Nad Parnou","name_adm0":"Slovenská","name_adm1":"Trnavsky","name_adm2":"Trnava","name_en":"Hrnciarovce Nad Parnou","iso":"SK"},"geometry":{"type":"Point","coordinates":[17.56767,48.34261]}},{"type":"Feature","properties":{"country_en":"Slovakia","name":"Vinosady","name_adm0":"Slovenská","name_adm1":"Bratislavsky","name_adm2":"Pezinok","name_en":"Vinosady","iso":"SK"},"geometry":{"type":"Point","coordinates":[17.221069,48.308288499999996]}},{"type":"Feature","properties":{"country_en":"Slovakia","name":"Vysna Sebastova","name_adm0":"Slovenská","name_adm1":"Presovsky","name_adm2":"Presov","name_en":"Vysna Sebastova","iso":"SK"},"geometry":{"type":"Point","coordinates":[21.32354,49.01589]}},{"type":"Feature","properties":{"country_en":"Slovakia","name":"Chminianska Nova Ves","name_adm0":"Slovenská","name_adm1":"Presovsky","name_adm2":"Presov","name_en":"Chminianska Nova Ves","iso":"SK"},"geometry":{"type":"Point","coordinates":[21.08251,49.003319999999995]}},{"type":"Feature","properties":{"country_en":"Slovakia","name":"Pusovce","name_adm0":"Slovenská","name_adm1":"Presovsky","name_adm2":"Presov","name_en":"Pusovce","iso":"SK"},"geometry":{"type":"Point","coordinates":[21.410199999999996,49.08526]}},{"type":"Feature","properties":{"country_en":"Slovakia","name":"Pribylina","name_adm0":"Slovenská","name_adm1":"Zilinsky","name_adm2":"Liptovsky Mikulas","name_en":"Pribylina","iso":"SK"},"geometry":{"type":"Point","coordinates":[19.800281,49.107702]}},{"type":"Feature","properties":{"country_en":"Slovakia","name":"Nova Bystrica","name_adm0":"Slovenská","name_adm1":"Zilinsky","name_adm2":"Cadca","name_en":"Nova Bystrica","iso":"SK"},"geometry":{"type":"Point","coordinates":[19.095953999999995,49.415943]}},{"type":"Feature","properties":{"country_en":"Slovakia","name":"Betliar","name_adm0":"Slovenská","name_adm1":"Kosicky","name_adm2":"Roznava","name_en":"Betliar","iso":"SK"},"geometry":{"type":"Point","coordinates":[20.510335999999995,48.706277]}},{"type":"Feature","properties":{"country_en":"Slovakia","name":"Krahule","name_adm0":"Slovenská","name_adm1":"Banskobystricky","name_adm2":"Ziar Nad Hronom","name_en":"Krahule","iso":"SK"},"geometry":{"type":"Point","coordinates":[18.942972,48.72563]}},{"type":"Feature","properties":{"country_en":"Slovakia","name":"Smrdaky","name_adm0":"Slovenská","name_adm1":"Trnavsky","name_adm2":"Senica","name_en":"Smrdaky","iso":"SK"},"geometry":{"type":"Point","coordinates":[17.303509,48.725354]}},{"type":"Feature","properties":{"country_en":"Slovakia","name":"Topolcany","name_adm0":"Slovenská","name_adm1":"Nitriansky","name_adm2":"Topolcany","name_en":"Topolcany","iso":"SK"},"geometry":{"type":"Point","coordinates":[18.183329999999998,48.56667]}},{"type":"Feature","properties":{"country_en":"Slovakia","name":"Hlohovec","name_adm0":"Slovenská","name_adm1":"Trnavsky","name_adm2":"Hlohovec","name_en":"Hlohovec","iso":"SK"},"geometry":{"type":"Point","coordinates":[17.75,48.41667]}},{"type":"Feature","properties":{"country_en":"Slovakia","name":"Dunajska Streda","name_adm0":"Slovenská","name_adm1":"Trnavsky","name_adm2":"Dunajska Streda","name_en":"Dunajska Streda","iso":"SK"},"geometry":{"type":"Point","coordinates":[17.60937,47.99635]}},{"type":"Feature","properties":{"country_en":"Slovakia","name":"Presov","name_adm0":"Slovenská","name_adm1":"Presovsky","name_adm2":"Presov","name_en":"Presov","iso":"SK"},"geometry":{"type":"Point","coordinates":[21.25,49]}},{"type":"Feature","properties":{"country_en":"Slovakia","name":"Prešov","name_adm0":"Slovenská","name_adm1":"Presovsky","name_adm2":"Presov","name_en":"Presov","iso":"SK"},"geometry":{"type":"Point","coordinates":[21.23393,48.99839]}},{"type":"Feature","properties":{"country_en":"Slovakia","name":"Kostoliste","name_adm0":"Slovenská","name_adm1":"Bratislavsky","name_adm2":"Malacky","name_en":"Kostoliste","iso":"SK"},"geometry":{"type":"Point","coordinates":[16.98333,48.45]}},{"type":"Feature","properties":{"country_en":"Slovakia","name":"Orechová Potôň","name_adm0":"Slovenská","name_adm1":"Trnavsky","name_adm2":"Dunajska Streda","name_en":"Orechová Potôň","iso":"SK"},"geometry":{"type":"Point","coordinates":[17.538059999999998,48.01708]}},{"type":"Feature","properties":{"country_en":"Slovakia","name":"Velky Saris","name_adm0":"Slovenská","name_adm1":"Presovsky","name_adm2":"Presov","name_en":"Velky Saris","iso":"SK"},"geometry":{"type":"Point","coordinates":[21.1993,49.04113999999999]}},{"type":"Feature","properties":{"country_en":"Slovakia","name":"Vrbové","name_adm0":"Slovenská","name_adm1":"Trnavsky","name_adm2":"Piestany","name_en":"Vrbové","iso":"SK"},"geometry":{"type":"Point","coordinates":[17.722599999999996,48.61972999999999]}},{"type":"Feature","properties":{"country_en":"Slovakia","name":"Vyšný Komárnik","name_adm0":"Slovenská","name_adm1":"Presovsky","name_adm2":"Svidnik","name_en":"Vyšný Komárnik","iso":"SK"},"geometry":{"type":"Point","coordinates":[21.7056,49.40211]}},{"type":"Feature","properties":{"country_en":"Slovakia","name":"Svaty Jur","name_adm0":"Slovenská","name_adm1":"Bratislavsky","name_adm2":"Pezinok","name_en":"Svaty Jur","iso":"SK"},"geometry":{"type":"Point","coordinates":[17.192401,48.264340999999995]}},{"type":"Feature","properties":{"country_en":"Slovakia","name":"Donovaly","name_adm0":"Slovenská","name_adm1":"Banskobystricky","name_adm2":"Banska Bystrica","name_en":"Donovaly","iso":"SK"},"geometry":{"type":"Point","coordinates":[19.222555,48.877653]}},{"type":"Feature","properties":{"country_en":"Slovakia","name":"Moldava Nad Bodvou","name_adm0":"Slovenská","name_adm1":"Kosicky","name_adm2":"Kosice-Okolie","name_en":"Moldava Nad Bodvou","iso":"SK"},"geometry":{"type":"Point","coordinates":[20.996333,48.614999999999995]}},{"type":"Feature","properties":{"country_en":"Slovakia","name":"Senica","name_adm0":"Slovenská","name_adm1":"Trnavsky","name_adm2":"Senica","name_en":"Senica","iso":"SK"},"geometry":{"type":"Point","coordinates":[17.404553,48.690542]}},{"type":"Feature","properties":{"country_en":"Slovakia","name":"Poprad","name_adm0":"Slovenská","name_adm1":"Presovsky","name_adm2":"Poprad","name_en":"Poprad","iso":"SK"},"geometry":{"type":"Point","coordinates":[20.159225,49.178224]}},{"type":"Feature","properties":{"country_en":"Slovakia","name":"Valaska Dubova","name_adm0":"Slovenská","name_adm1":"Zilinsky","name_adm2":"Ruzomberok","name_en":"Valaska Dubova","iso":"SK"},"geometry":{"type":"Point","coordinates":[19.334906999999998,49.143986]}},{"type":"Feature","properties":{"country_en":"Slovakia","name":"Jasna","name_adm0":"Slovenská","name_adm1":"Zilinsky","name_adm2":"Liptovsky Mikulas","name_en":"Jasna","iso":"SK"},"geometry":{"type":"Point","coordinates":[19.584159,48.969061]}},{"type":"Feature","properties":{"country_en":"Slovakia","name":"Dobsinska Ladova Jaskyna","name_adm0":"Slovenská","name_adm1":"Kosicky","name_adm2":"Roznava","name_en":"Dobsinska Ladova Jaskyna","iso":"SK"},"geometry":{"type":"Point","coordinates":[20.302613,48.8705]}},{"type":"Feature","properties":{"country_en":"Slovakia","name":"Geraltov","name_adm0":"Slovenská","name_adm1":"Presovsky","name_adm2":"Presov","name_en":"Geralt","iso":"SK"},"geometry":{"type":"Point","coordinates":[21.25865,49.139399999999995]}},{"type":"Feature","properties":{"country_en":"Slovakia","name":"Gbelany","name_adm0":"Slovenská","name_adm1":"Zilinsky","name_adm2":"Zilina","name_en":"Gbelany","iso":"SK"},"geometry":{"type":"Point","coordinates":[18.84452,49.21216]}},{"type":"Feature","properties":{"country_en":"Slovakia","name":"Podhorie","name_adm0":"Slovenská","name_adm1":"Trenciansky","name_adm2":"Puchov","name_en":"Podhorie","iso":"SK"},"geometry":{"type":"Point","coordinates":[18.31608,49.03834]}},{"type":"Feature","properties":{"country_en":"Slovakia","name":"Podhorie","name_adm0":"Slovenská","name_adm1":"Trenciansky","name_adm2":"Ilava","name_en":"Podhorie","iso":"SK"},"geometry":{"type":"Point","coordinates":[18.159999999999997,49.01514]}},{"type":"Feature","properties":{"country_en":"Slovakia","name":"Podhorie","name_adm0":"Slovenská","name_adm1":"Zilinsky","name_adm2":"Zilina","name_en":"Podhorie","iso":"SK"},"geometry":{"type":"Point","coordinates":[18.64399,49.17245]}},{"type":"Feature","properties":{"country_en":"Slovakia","name":"Čunovo","name_adm0":"Slovenská","name_adm1":"Bratislavsky","name_adm2":"Bratislava","name_en":"Čunovo","iso":"SK"},"geometry":{"type":"Point","coordinates":[17.19978,48.03052]}},{"type":"Feature","properties":{"country_en":"Slovakia","name":"Kamanová","name_adm0":"Slovenská","name_adm1":"Nitriansky","name_adm2":"Topolcany","name_en":"Kamanová","iso":"SK"},"geometry":{"type":"Point","coordinates":[18.10205,48.47523999999999]}},