{"type":"FeatureCollection","features":[{"type":"Feature","properties":{"country_en":"El Salvador","name":"San Rafael Oriente","name_adm0":"El Salvador","name_adm1":"San Miguel","name_adm2":"San Rafael Oriente","name_en":"San Rafael Oriente","iso":"SV"},"geometry":{"type":"Point","coordinates":[-88.35,13.38333]}},{"type":"Feature","properties":{"country_en":"El Salvador","name":"Concepción de Oriente","name_adm0":"El Salvador","name_adm1":"La Unión","name_adm2":"Concepción de Oriente","name_en":"Concepción de Oriente","iso":"SV"},"geometry":{"type":"Point","coordinates":[-87.71667,13.79139]}},{"type":"Feature","properties":{"country_en":"El Salvador","name":"Meanguera del Golfo","name_adm0":"El Salvador","name_adm1":"La Unión","name_adm2":"Meanguera del Golfo","name_en":"Meanguera del Golfo","iso":"SV"},"geometry":{"type":"Point","coordinates":[-87.6975,13.17972]}},{"type":"Feature","properties":{"country_en":"El Salvador","name":"San Antonio Los Ranchos","name_adm0":"El Salvador","name_adm1":"Chalatenango","name_adm2":"San Antonio los Ranchos","name_en":"San Antonio Los Ranchos","iso":"SV"},"geometry":{"type":"Point","coordinates":[-88.9,14]}},{"type":"Feature","properties":{"country_en":"El Salvador","name":"San Antonio Pajonal","name_adm0":"El Salvador","name_adm1":"Santa Ana","name_adm2":"San Antonio Pajonal","name_en":"San Antonio Pajonal","iso":"SV"},"geometry":{"type":"Point","coordinates":[-89.58111,14.196669999999997]}},{"type":"Feature","properties":{"country_en":"El Salvador","name":"Yucuaiquín","name_adm0":"El Salvador","name_adm1":"La Unión","name_adm2":"Yucuaiquín","name_en":"Yucuaiquín","iso":"SV"},"geometry":{"type":"Point","coordinates":[-88,13.55]}},{"type":"Feature","properties":{"country_en":"El Salvador","name":"San Antonio Chavez","name_adm0":"El Salvador","name_adm1":"San Miguel","name_adm2":"San Miguel","name_en":"San Antonio Chavez","iso":"SV"},"geometry":{"type":"Point","coordinates":[-88.36666999999998,14.2]}},{"type":"Feature","properties":{"country_en":"El Salvador","name":"El Guachipilin","name_adm0":"El Salvador","name_adm1":"Morazán","name_adm2":"Cacaopera","name_en":"El Guachipilin","iso":"SV"},"geometry":{"type":"Point","coordinates":[-88.25,13.88333]}},{"type":"Feature","properties":{"country_en":"El Salvador","name":"La Ceiba","name_adm0":"El Salvador","name_adm1":"Morazán","name_adm2":"Cacaopera","name_en":"La Ceiba","iso":"SV"},"geometry":{"type":"Point","coordinates":[-87.99111,13.915279999999997]}},{"type":"Feature","properties":{"country_en":"El Salvador","name":"Jutiapa","name_adm0":"El Salvador","name_adm1":"Cabañas","name_adm2":"Jutiapa","name_en":"Jutiapa","iso":"SV"},"geometry":{"type":"Point","coordinates":[-88.5795875,13.851413]}},{"type":"Feature","properties":{"country_en":"El Salvador","name":"San Fernando","name_adm0":"El Salvador","name_adm1":"Chalatenango","name_adm2":"San Fernando","name_en":"San Fernando","iso":"SV"},"geometry":{"type":"Point","coordinates":[-89.063415,14.008695999999999]}},{"type":"Feature","properties":{"country_en":"El Salvador","name":"Nueva Guadalupe","name_adm0":"El Salvador","name_adm1":"San Miguel","name_adm2":"Nueva Guadalupe","name_en":"Nueva Guadalupe","iso":"SV"},"geometry":{"type":"Point","coordinates":[-88.30862,13.33876]}},{"type":"Feature","properties":{"country_en":"El Salvador","name":"Nuevo Edén de San Juan","name_adm0":"El Salvador","name_adm1":"San Miguel","name_adm2":"Nuevo Edén de San Juan","name_en":"Nuevo Edén de San Juan","iso":"SV"},"geometry":{"type":"Point","coordinates":[-88.30862,13.33876]}},{"type":"Feature","properties":{"country_en":"El Salvador","name":"Las Piedras","name_adm0":"El Salvador","name_adm1":"Santa Ana","name_adm2":"Metapán","name_en":"Las Piedras","iso":"SV"},"geometry":{"type":"Point","coordinates":[-89.63333,13.53333]}},{"type":"Feature","properties":{"country_en":"El Salvador","name":"El Rosario","name_adm0":"El Salvador","name_adm1":"Santa Ana","name_adm2":"Metapán","name_en":"El Rosario","iso":"SV"},"geometry":{"type":"Point","coordinates":[-89.16667,14.350000000000001]}},{"type":"Feature","properties":{"country_en":"El Salvador","name":"Chapeltique","name_adm0":"El Salvador","name_adm1":"San Miguel","name_adm2":"Chapeltique","name_en":"Chapeltique","iso":"SV"},"geometry":{"type":"Point","coordinates":[-88.26666999999999,13.63333]}},{"type":"Feature","properties":{"country_en":"El Salvador","name":"Colón","name_adm0":"El Salvador","name_adm1":"La Libertad","name_adm2":"Colón","name_en":"Colón","iso":"SV"},"geometry":{"type":"Point","coordinates":[-89.36889,13.72667]}},{"type":"Feature","properties":{"country_en":"El Salvador","name":"Concepción Quezaltepeque","name_adm0":"El Salvador","name_adm1":"Chalatenango","name_adm2":"Concepción Quezaltepeque","name_en":"Concepción Quezaltepeque","iso":"SV"},"geometry":{"type":"Point","coordinates":[-88.95,14.08333]}},{"type":"Feature","properties":{"country_en":"El Salvador","name":"El Coco","name_adm0":"El Salvador","name_adm1":"Santa Ana","name_adm2":"Chalchuara","name_en":"El Coco","iso":"SV"},"geometry":{"type":"Point","coordinates":[-89.71667,14.08333]}},{"type":"Feature","properties":{"country_en":"El Salvador","name":"Concepción Batres","name_adm0":"El Salvador","name_adm1":"Usulután","name_adm2":"Concepción Batres","name_en":"Concepción Batres","iso":"SV"},"geometry":{"type":"Point","coordinates":[-88.36666999999998,13.35]}},{"type":"Feature","properties":{"country_en":"El Salvador","name":"Nueva Guadalupe","name_adm0":"El Salvador","name_adm1":"San Miguel","name_adm2":"Nueva Guadalupe","name_en":"Nueva Guadalupe","iso":"SV"},"geometry":{"type":"Point","coordinates":[-88.35,13.53333]}},{"type":"Feature","properties":{"country_en":"El Salvador","name":"Jutiapa","name_adm0":"El Salvador","name_adm1":"Cabañas","name_adm2":"Jutiapa","name_en":"Jutiapa","iso":"SV"},"geometry":{"type":"Point","coordinates":[-88.9,13.88333]}},{"type":"Feature","properties":{"country_en":"El Salvador","name":"Montepeque","name_adm0":"El Salvador","name_adm1":"Cuscatlán","name_adm2":"Suchitoto","name_en":"Montepeque","iso":"SV"},"geometry":{"type":"Point","coordinates":[-89.07944,13.871389999999998]}},{"type":"Feature","properties":{"country_en":"El Salvador","name":"Nuevo Edén de San Juan","name_adm0":"El Salvador","name_adm1":"San Miguel","name_adm2":"Nuevo Edén de San Juan","name_en":"Nuevo Edén de San Juan","iso":"SV"},"geometry":{"type":"Point","coordinates":[-88.48333,13.81667]}},{"type":"Feature","properties":{"country_en":"El Salvador","name":"Pasaquina","name_adm0":"El Salvador","name_adm1":"La Unión","name_adm2":"Pasaquina","name_en":"Pasaquina","iso":"SV"},"geometry":{"type":"Point","coordinates":[-87.84111,13.58444]}},{"type":"Feature","properties":{"country_en":"El Salvador","name":"San Fernando","name_adm0":"El Salvador","name_adm1":"Morazán","name_adm2":"San Fernando","name_en":"San Fernando","iso":"SV"},"geometry":{"type":"Point","coordinates":[-88.2,13.96667]}},{"type":"Feature","properties":{"country_en":"El Salvador","name":"San Isidro","name_adm0":"El Salvador","name_adm1":"Cabañas","name_adm2":"San Isidro","name_en":"San Isidro","iso":"SV"},"geometry":{"type":"Point","coordinates":[-88.71667,13.833329999999998]}},{"type":"Feature","properties":{"country_en":"El Salvador","name":"San Lorenzo","name_adm0":"El Salvador","name_adm1":"Ahuachapán","name_adm2":"San Lorenzo","name_en":"San Lorenzo","iso":"SV"},"geometry":{"type":"Point","coordinates":[-89.78333,14.03333]}},{"type":"Feature","properties":{"country_en":"El Salvador","name":"Santa Clara","name_adm0":"El Salvador","name_adm1":"San Vicente","name_adm2":"Santa Clara","name_en":"Santa Clara","iso":"SV"},"geometry":{"type":"Point","coordinates":[-88.73333,13.7]}},{"type":"Feature","properties":{"country_en":"El Salvador","name":"Santa Cruz Michapa","name_adm0":"El Salvador","name_adm1":"Cuscatlán","name_adm2":"Santa Cruz Michapa","name_en":"Santa Cruz Michapa","iso":"SV"},"geometry":{"type":"Point","coordinates":[-88.96667,13.73333]}},{"type":"Feature","properties":{"country_en":"El Salvador","name":"Sensembra","name_adm0":"El Salvador","name_adm1":"Morazán","name_adm2":"Sensembra","name_en":"Sensembra","iso":"SV"},"geometry":{"type":"Point","coordinates":[-88.16667,13.66667]}},{"type":"Feature","properties":{"country_en":"El Salvador","name":"Ayutuxtepeque","name_adm0":"El Salvador","name_adm1":"San Salvador","name_adm2":"Ayutuxtepeque","name_en":"Ayutuxtepeque","iso":"SV"},"geometry":{"type":"Point","coordinates":[-89.20639,13.74556]}},{"type":"Feature","properties":{"country_en":"El Salvador","name":"El Corozal","name_adm0":"El Salvador","name_adm1":"Chalatenango","name_adm2":"Nueva Trinidad","name_en":"El Corozal","iso":"SV"},"geometry":{"type":"Point","coordinates":[-88.64999999999999,14.08333]}},{"type":"Feature","properties":{"country_en":"El Salvador","name":"Las Tablas","name_adm0":"El Salvador","name_adm1":"Chalatenango","name_adm2":"Arcatao","name_en":"Las Tablas","iso":"SV"},"geometry":{"type":"Point","coordinates":[-89.4,14.06667]}},{"type":"Feature","properties":{"country_en":"El Salvador","name":"Talbetates","name_adm0":"El Salvador","name_adm1":"San Vicente","name_adm2":"Santo Domingo","name_en":"Talbetates","iso":"SV"},"geometry":{"type":"Point","coordinates":[-88.86667,13.68333]}},{"type":"Feature","properties":{"country_en":"El Salvador","name":"San José Guayabal","name_adm0":"El Salvador","name_adm1":"Cuscatlán","name_adm2":"San José Guayabal","name_en":"San José Guayabal","iso":"SV"},"geometry":{"type":"Point","coordinates":[-89.03320299999999,13.75806]}},{"type":"Feature","properties":{"country_en":"El Salvador","name":"Oratorio de Concepción","name_adm0":"El Salvador","name_adm1":"Cuscatlán","name_adm2":"Oratorio de Concepción","name_en":"Oratorio de Concepción","iso":"SV"},"geometry":{"type":"Point","coordinates":[-89.03320299999999,13.75806]}},{"type":"Feature","properties":{"country_en":"El Salvador","name":"San Rafael Cedro","name_adm0":"El Salvador","name_adm1":"Cuscatlán","name_adm2":"San Rafael Cedro","name_en":"San Rafael Cedro","iso":"SV"},"geometry":{"type":"Point","coordinates":[-89.03320299999999,13.75806]}},{"type":"Feature","properties":{"country_en":"El Salvador","name":"Tenancingo","name_adm0":"El Salvador","name_adm1":"Cuscatlán","name_adm2":"Tenancingo","name_en":"Tenancingo","iso":"SV"},"geometry":{"type":"Point","coordinates":[-88.98333,13.833329999999998]}},{"type":"Feature","properties":{"country_en":"El Salvador","name":"Mercedes Umaña","name_adm0":"El Salvador","name_adm1":"Usulután","name_adm2":"Mercedes Umaña","name_en":"Mercedes Umaña","iso":"SV"},"geometry":{"type":"Point","coordinates":[-88.5,13.566669999999998]}},{"type":"Feature","properties":{"country_en":"El Salvador","name":"La Paz","name_adm0":"El Salvador","name_adm1":"La Paz","name_en":"La Paz","iso":"SV"},"geometry":{"type":"Point","coordinates":[-88.98333,13.46667]}},{"type":"Feature","properties":{"country_en":"El Salvador","name":"Morazán","name_adm0":"El Salvador","name_adm1":"Morazán","name_en":"Morazán","iso":"SV"},"geometry":{"type":"Point","coordinates":[-88.1,13.8]}},{"type":"Feature","properties":{"country_en":"El Salvador","name":"Antiguo Cuscatlán","name_adm0":"El Salvador","name_adm1":"La Libertad","name_adm2":"Antiguo Cuscatlán","name_en":"Antiguo Cuscatlán","iso":"SV"},"geometry":{"type":"Point","coordinates":[-89.24083,13.67306]}},{"type":"Feature","properties":{"country_en":"El Salvador","name":"Mejicanos","name_adm0":"El Salvador","name_adm1":"San Salvador","name_adm2":"Mejicanos","name_en":"Mejicanos","iso":"SV"},"geometry":{"type":"Point","coordinates":[-89.21306,13.74028]}},{"type":"Feature","properties":{"country_en":"El Salvador","name":"Colonia América","name_adm0":"El Salvador","name_adm1":"San Salvador","name_adm2":"San Salvador","name_en":"Colonia América","iso":"SV"},"geometry":{"type":"Point","coordinates":[-89.18332999999998,13.68333]}},{"type":"Feature","properties":{"country_en":"El Salvador","name":"Colonia Dolores","name_adm0":"El Salvador","name_adm1":"San Salvador","name_adm2":"San Salvador","name_en":"Colonia Dolores","iso":"SV"},"geometry":{"type":"Point","coordinates":[-89.2,13.68333]}},{"type":"Feature","properties":{"country_en":"El Salvador","name":"Colonia Escalón","name_adm0":"El Salvador","name_adm1":"San Salvador","name_adm2":"San Salvador","name_en":"Colonia Escalón","iso":"SV"},"geometry":{"type":"Point","coordinates":[-89.23332999999998,13.7]}},{"type":"Feature","properties":{"country_en":"El Salvador","name":"El Jobo","name_adm0":"El Salvador","name_adm1":"Ahuachapán","name_adm2":"Ahuachapán","name_en":"El Jobo","iso":"SV"},"geometry":{"type":"Point","coordinates":[-89.9,14.01667]}},{"type":"Feature","properties":{"country_en":"El Salvador","name":"El Rosario","name_adm0":"El Salvador","name_adm1":"Morazán","name_adm2":"El Rosario","name_en":"El Rosario","iso":"SV"},"geometry":{"type":"Point","coordinates":[-88.21667,13.866669999999997]}},{"type":"Feature","properties":{"country_en":"El Salvador","name":"Meanguera","name_adm0":"El Salvador","name_adm1":"Morazán","name_adm2":"Meanguera","name_en":"Meanguera","iso":"SV"},"geometry":{"type":"Point","coordinates":[-88.15,13.849999999999998]}},{"type":"Feature","properties":{"country_en":"El Salvador","name":"Colonia Los Andes","name_adm0":"El Salvador","name_adm1":"San Salvador","name_adm2":"San Salvador","name_en":"Colonia Los Andes","iso":"SV"},"geometry":{"type":"Point","coordinates":[-89.18332999999998,13.66667]}},{"type":"Feature","properties":{"country_en":"El Salvador","name":"Sacacoyo","name_adm0":"El Salvador","name_adm1":"La Libertad","name_adm2":"Sacacoyo","name_en":"Sacacoyo","iso":"SV"},"geometry":{"type":"Point","coordinates":[-89.3903195,13.493468]}},{"type":"Feature","properties":{"country_en":"El Salvador","name":"Metalío","name_adm0":"El Salvador","name_adm1":"Sonsonate","name_adm2":"Acajutla","name_en":"Metalío","iso":"SV"},"geometry":{"type":"Point","coordinates":[-89.88028,13.63917]}},{"type":"Feature","properties":{"country_en":"El Salvador","name":"San Miguel","name_adm0":"El Salvador","name_adm1":"San Miguel","name_adm2":"San Miguel","name_en":"San Miguel","iso":"SV"},"geometry":{"type":"Point","coordinates":[-88.112754,13.45958]}},{"type":"Feature","properties":{"country_en":"El Salvador","name":"Sonzacate","name_adm0":"El Salvador","name_adm1":"Sonsonate","name_adm2":"Sonzacate","name_en":"Sonzacate","iso":"SV"},"geometry":{"type":"Point","coordinates":[-89.72671449999999,13.739384]}},{"type":"Feature","properties":{"country_en":"El Salvador","name":"San Francisco Morazán","name_adm0":"El Salvador","name_adm1":"Chalatenango","name_adm2":"San Francisco Morazán","name_en":"San Francisco Morazán","iso":"SV"},"geometry":{"type":"Point","coordinates":[-89.063415,14.008695999999999]}},{"type":"Feature","properties":{"country_en":"El Salvador","name":"Chapeltique","name_adm0":"El Salvador","name_adm1":"San Miguel","name_adm2":"Chapeltique","name_en":"Chapeltique","iso":"SV"},"geometry":{"type":"Point","coordinates":[-88.30862,13.33876]}},{"type":"Feature","properties":{"country_en":"El Salvador","name":"Chinameca","name_adm0":"El Salvador","name_adm1":"San Miguel","name_adm2":"Chinameca","name_en":"Chinameca","iso":"SV"},"geometry":{"type":"Point","coordinates":[-88.30862,13.33876]}},{"type":"Feature","properties":{"country_en":"El Salvador","name":"Lolotique","name_adm0":"El Salvador","name_adm1":"San Miguel","name_adm2":"Lolotique","name_en":"Lolotique","iso":"SV"},"geometry":{"type":"Point","coordinates":[-88.30862,13.33876]}},{"type":"Feature","properties":{"country_en":"El Salvador","name":"Los Canales","name_adm0":"El Salvador","name_adm1":"Sonsonate","name_adm2":"Juayúa","name_en":"Los Canales","iso":"SV"},"geometry":{"type":"Point","coordinates":[-89.76667,13.866669999999997]}},{"type":"Feature","properties":{"country_en":"El Salvador","name":"Santa Rita","name_adm0":"El Salvador","name_adm1":"Chalatenango","name_adm2":"Santa Rita","name_en":"Santa Rita","iso":"SV"},"geometry":{"type":"Point","coordinates":[-89,14.13333]}},{"type":"Feature","properties":{"country_en":"El Salvador","name":"Cuyultitán","name_adm0":"El Salvador","name_adm1":"La Paz","name_adm2":"Cuyultitán","name_en":"Cuyultitán","iso":"SV"},"geometry":{"type":"Point","coordinates":[-89.09778,13.54861]}},{"type":"Feature","properties":{"country_en":"El Salvador","name":"El Pepeto","name_adm0":"El Salvador","name_adm1":"San Salvador","name_adm2":"San Marcos","name_en":"El Pepeto","iso":"SV"},"geometry":{"type":"Point","coordinates":[-89.1675,13.65917]}},{"type":"Feature","properties":{"country_en":"El Salvador","name":"Nombre de Jesús","name_adm0":"El Salvador","name_adm1":"Chalatenango","name_adm2":"Nombre de Jesús","name_en":"Nombre de Jesús","iso":"SV"},"geometry":{"type":"Point","coordinates":[-88.73333,14]}},{"type":"Feature","properties":{"country_en":"El Salvador","name":"Nueva Trinidad","name_adm0":"El Salvador","name_adm1":"Chalatenango","name_adm2":"Nueva Trinidad","name_en":"Nueva Trinidad","iso":"SV"},"geometry":{"type":"Point","coordinates":[-88.79999999999998,14.06667]}},{"type":"Feature","properties":{"country_en":"El Salvador","name":"Guazapa","name_adm0":"El Salvador","name_adm1":"San Salvador","name_adm2":"Guazapa","name_en":"Guazapa","iso":"SV"},"geometry":{"type":"Point","coordinates":[-89.112682,13.902575]}},{"type":"Feature","properties":{"country_en":"El Salvador","name":"El Rosario","name_adm0":"El Salvador","name_adm1":"Cuscatlán","name_adm2":"El Rosario","name_en":"El Rosario","iso":"SV"},"geometry":{"type":"Point","coordinates":[-88.91667,13.76667]}},{"type":"Feature","properties":{"country_en":"El Salvador","name":"El Rosario","name_adm0":"El Salvador","name_adm1":"Cuscatlán","name_adm2":"Candelaria","name_en":"El Rosario","iso":"SV"},"geometry":{"type":"Point","coordinates":[-89.08332999999999,13.75]}},{"type":"Feature","properties":{"country_en":"El Salvador","name":"Guatajiagua","name_adm0":"El Salvador","name_adm1":"Morazán","name_adm2":"Guatajiagua","name_en":"Guatajiagua","iso":"SV"},"geometry":{"type":"Point","coordinates":[-88.2,13.66667]}},{"type":"Feature","properties":{"country_en":"El Salvador","name":"San José Guayabal","name_adm0":"El Salvador","name_adm1":"Cuscatlán","name_adm2":"San José Guayabal","name_en":"S. Jose Guayabal","iso":"SV"},"geometry":{"type":"Point","coordinates":[-89.09693999999999,13.84222]}},{"type":"Feature","properties":{"country_en":"El Salvador","name":"San José","name_adm0":"El Salvador","name_adm1":"La Paz","name_adm2":"San Luis","name_en":"San José","iso":"SV"},"geometry":{"type":"Point","coordinates":[-89.05,13.41667]}},{"type":"Feature","properties":{"country_en":"El Salvador","name":"San José","name_adm0":"El Salvador","name_adm1":"La Unión","name_adm2":"San José","name_en":"San José","iso":"SV"},"geometry":{"type":"Point","coordinates":[-87.98333,13.41667]}},{"type":"Feature","properties":{"country_en":"El Salvador","name":"San José Cancasque","name_adm0":"El Salvador","name_adm1":"Chalatenango","name_adm2":"San José Cancasque","name_en":"S. Jose Cancasque","iso":"SV"},"geometry":{"type":"Point","coordinates":[-88.84999999999998,13.983329999999999]}},{"type":"Feature","properties":{"country_en":"El Salvador","name":"San José la Majada","name_adm0":"El Salvador","name_adm1":"Sonsonate","name_adm2":"Juayúa","name_en":"San José la Majada","iso":"SV"},"geometry":{"type":"Point","coordinates":[-89.70972,13.84639]}},{"type":"Feature","properties":{"country_en":"El Salvador","name":"San José Villanueva","name_adm0":"El Salvador","name_adm1":"La Libertad","name_adm2":"San José Villanueva","name_en":"S. Jose Villanueva","iso":"SV"},"geometry":{"type":"Point","coordinates":[-89.26528,13.57806]}},{"type":"Feature","properties":{"country_en":"El Salvador","name":"San Juan Tepezontes","name_adm0":"El Salvador","name_adm1":"La Paz","name_adm2":"San Juan Tepezonte","name_en":"San Juan Tepezontes","iso":"SV"},"geometry":{"type":"Point","coordinates":[-89.01,13.61389]}},{"type":"Feature","properties":{"country_en":"El Salvador","name":"San Julián","name_adm0":"El Salvador","name_adm1":"Sonsonate","name_adm2":"San Julián","name_en":"San Julián","iso":"SV"},"geometry":{"type":"Point","coordinates":[-89.7925,13.61361]}},{"type":"Feature","properties":{"country_en":"El Salvador","name":"Guatajiagua","name_adm0":"El Salvador","name_adm1":"Morazán","name_adm2":"Guatajiagua","name_en":"Guatajiagua","iso":"SV"},"geometry":{"type":"Point","coordinates":[-88.121852,13.876746]}},{"type":"Feature","properties":{"country_en":"El Salvador","name":"San Sebastián","name_adm0":"El Salvador","name_adm1":"San Vicente","name_adm2":"San Sebastián","name_en":"San Sebastián","iso":"SV"},"geometry":{"type":"Point","coordinates":[-88.83333,13.73333]}},{"type":"Feature","properties":{"country_en":"El Salvador","name":"El Cuco","name_adm0":"El Salvador","name_adm1":"San Miguel","name_adm2":"Chirilagua","name_en":"El Cuco","iso":"SV"},"geometry":{"type":"Point","coordinates":[-88.11667,13.166669999999998]}},{"type":"Feature","properties":{"country_en":"El Salvador","name":"Hacienda El Platanar","name_adm0":"El Salvador","name_adm1":"San Miguel","name_adm2":"Lolotique","name_en":"Hacienda El Platanar","iso":"SV"},"geometry":{"type":"Point","coordinates":[-88.74999999999999,13.433329999999998]}},{"type":"Feature","properties":{"country_en":"El Salvador","name":"El Rosario","name_adm0":"El Salvador","name_adm1":"La Paz","name_adm2":"El Rosario","name_en":"El Rosario","iso":"SV"},"geometry":{"type":"Point","coordinates":[-89.031829,13.513831]}},{"type":"Feature","properties":{"country_en":"El Salvador","name":"Candelaria","name_adm0":"El Salvador","name_adm1":"Cuscatlán","name_adm2":"Candelaria","name_en":"Candelaria","iso":"SV"},"geometry":{"type":"Point","coordinates":[-89.03320299999999,13.75806]}},{"type":"Feature","properties":{"country_en":"El Salvador","name":"Chupaderos","name_adm0":"El Salvador","name_adm1":"Santa Ana","name_adm2":"Santa Ana","name_en":"Chupaderos","iso":"SV"},"geometry":{"type":"Point","coordinates":[-89.23332999999998,14.949999999999998]}},{"type":"Feature","properties":{"country_en":"El Salvador","name":"Calzontes Abajo","name_adm0":"El Salvador","name_adm1":"Santa Ana","name_adm2":"Santa Ana","name_en":"Calzontes Abajo","iso":"SV"},"geometry":{"type":"Point","coordinates":[-89.58167,13.93528]}},{"type":"Feature","properties":{"country_en":"El Salvador","name":"Cara Brava","name_adm0":"El Salvador","name_adm1":"Santa Ana","name_adm2":"Coatepeque","name_en":"Cara Brava","iso":"SV"},"geometry":{"type":"Point","coordinates":[-89.13332999999999,13.65]}},{"type":"Feature","properties":{"country_en":"El Salvador","name":"Las Parvitas","name_adm0":"El Salvador","name_adm1":"Chalatenango","name_adm2":"San Francisco Morazán","name_en":"Las Parvitas","iso":"SV"},"geometry":{"type":"Point","coordinates":[-89.3,14.266669999999998]}},{"type":"Feature","properties":{"country_en":"El Salvador","name":"Cerro de la Cruz","name_adm0":"El Salvador","name_adm1":"Chalatenango","name_adm2":"San Miguel de Mercedes","name_en":"Cerro de la Cruz","iso":"SV"},"geometry":{"type":"Point","coordinates":[-88.86667,14.900000000000002]}},{"type":"Feature","properties":{"country_en":"El Salvador","name":"Joya Galena","name_adm0":"El Salvador","name_adm1":"San Salvador","name_adm2":"Apopa","name_en":"Joya Galena","iso":"SV"},"geometry":{"type":"Point","coordinates":[-89.2,13.81667]}},{"type":"Feature","properties":{"country_en":"El Salvador","name":"Chaltepe","name_adm0":"El Salvador","name_adm1":"San Salvador","name_adm2":"Santo Tomás","name_en":"Chaltepe","iso":"SV"},"geometry":{"type":"Point","coordinates":[-89.15221999999999,13.647219999999999]}},{"type":"Feature","properties":{"country_en":"El Salvador","name":"La Nancera","name_adm0":"El Salvador","name_adm1":"La Paz","name_adm2":"Tapalhuaca","name_en":"La Nancera","iso":"SV"},"geometry":{"type":"Point","coordinates":[-88.11971999999999,13.42639]}},{"type":"Feature","properties":{"country_en":"El Salvador","name":"San Francisco Menéndez","name_adm0":"El Salvador","name_adm1":"Ahuachapán","name_adm2":"San Francisco Menéndez","name_en":"San Francisco Menéndez","iso":"SV"},"geometry":{"type":"Point","coordinates":[-90.054931,13.736716999999999]}},{"type":"Feature","properties":{"country_en":"El Salvador","name":"Puerto El Triunfo","name_adm0":"El Salvador","name_adm1":"Usulután","name_adm2":"Puerto El Triunfo","name_en":"Puerto El Triunfo","iso":"SV"},"geometry":{"type":"Point","coordinates":[-88.5173605,13.203682]}},{"type":"Feature","properties":{"country_en":"El Salvador","name":"San Dionisio","name_adm0":"El Salvador","name_adm1":"Usulután","name_adm2":"San Dionisio","name_en":"San Dionisio","iso":"SV"},"geometry":{"type":"Point","coordinates":[-88.441658,13.175771]}},{"type":"Feature","properties":{"country_en":"El Salvador","name":"Panchimalco","name_adm0":"El Salvador","name_adm1":"San Salvador","name_adm2":"Panchimalco","name_en":"Panchimalco","iso":"SV"},"geometry":{"type":"Point","coordinates":[-89.179304,13.620294999999999]}},{"type":"Feature","properties":{"country_en":"El Salvador","name":"Chalchuara","name_adm0":"El Salvador","name_adm1":"Santa Ana","name_adm2":"Chalchuara","name_en":"Chalchuara","iso":"SV"},"geometry":{"type":"Point","coordinates":[-89.673918,13.984814999999998]}},{"type":"Feature","properties":{"country_en":"El Salvador","name":"San Pedro Perulapan","name_adm0":"El Salvador","name_adm1":"Cuscatlán","name_adm2":"San Bartolomé Perulapía","name_en":"San Pedro Perulapan","iso":"SV"},"geometry":{"type":"Point","coordinates":[-89.03888999999998,13.77333]}},{"type":"Feature","properties":{"country_en":"El Salvador","name":"El Carrizal","name_adm0":"El Salvador","name_adm1":"Chalatenango","name_adm2":"El Carrizal","name_en":"El Carrizal","iso":"SV"},"geometry":{"type":"Point","coordinates":[-89.063415,14.008695999999999]}},{"type":"Feature","properties":{"country_en":"El Salvador","name":"San José","name_adm0":"El Salvador","name_adm1":"La Unión","name_adm2":"San José","name_en":"San José","iso":"SV"},"geometry":{"type":"Point","coordinates":[-87.998943,13.5361185]}},{"type":"Feature","properties":{"country_en":"El Salvador","name":"Chirilagua","name_adm0":"El Salvador","name_adm1":"San Miguel","name_adm2":"Chirilagua","name_en":"Chirilagua","iso":"SV"},"geometry":{"type":"Point","coordinates":[-88.1258895,13.226213]}},{"type":"Feature","properties":{"country_en":"El Salvador","name":"Soyapango","name_adm0":"El Salvador","name_adm1":"San Salvador","name_adm2":"Soyapango","name_en":"Soyapango","iso":"SV"},"geometry":{"type":"Point","coordinates":[-89.144577,13.701429999999998]}},{"type":"Feature","properties":{"country_en":"El Salvador","name":"San Martín","name_adm0":"El Salvador","name_adm1":"San Salvador","name_adm2":"San Martín","name_en":"San Martín","iso":"SV"},"geometry":{"type":"Point","coordinates":[-89.070453,13.730582]}},{"type":"Feature","properties":{"country_en":"El Salvador","name":"Armenia","name_adm0":"El Salvador","name_adm1":"Sonsonate","name_adm2":"Armenia","name_en":"Armenia","iso":"SV"},"geometry":{"type":"Point","coordinates":[-89.524154,13.75114]}},{"type":"Feature","properties":{"country_en":"El Salvador","name":"Santiago Texacuango","name_adm0":"El Salvador","name_adm1":"San Salvador","name_adm2":"Santiago Texacuango","name_en":"Santiago Texacuango","iso":"SV"},"geometry":{"type":"Point","coordinates":[-89.043159,13.662667]}},{"type":"Feature","properties":{"country_en":"El Salvador","name":"Tonacatepeque","name_adm0":"El Salvador","name_adm1":"San Salvador","name_adm2":"Tonacatepeque","name_en":"Tonacatepeque","iso":"SV"},"geometry":{"type":"Point","coordinates":[-89.093627,13.747388]}},{"type":"Feature","properties":{"country_en":"El Salvador","name":"Texistepeque","name_adm0":"El Salvador","name_adm1":"Santa Ana","name_adm2":"Texistepeque","name_en":"Texistepeque","iso":"SV"},"geometry":{"type":"Point","coordinates":[-89.488792,14.06282]}},{"type":"Feature","properties":{"country_en":"El Salvador","name":"Apastepeque","name_adm0":"El Salvador","name_adm1":"San Vicente","name_adm2":"Apastepeque","name_en":"Apastepeque","iso":"SV"},"geometry":{"type":"Point","coordinates":[-88.67271399999998,13.633974999999998]}},{"type":"Feature","properties":{"country_en":"El Salvador","name":"Tecoluca","name_adm0":"El Salvador","name_adm1":"San Vicente","name_adm2":"Tecoluca","name_en":"Tecoluca","iso":"SV"},"geometry":{"type":"Point","coordinates":[-88.76472399999999,13.273362]}},{"type":"Feature","properties":{"country_en":"El Salvador","name":"San Marcos","name_adm0":"El Salvador","name_adm1":"San Salvador","name_adm2":"San Marcos","name_en":"San Marcos","iso":"SV"},"geometry":{"type":"Point","coordinates":[-89.18701099999998,13.644652]}},{"type":"Feature","properties":{"country_en":"El Salvador","name":"San Miguel","name_adm0":"El Salvador","name_adm1":"San Miguel","name_en":"San Miguel","iso":"SV"},"geometry":{"type":"Point","coordinates":[-88.28333,13.53333]}},{"type":"Feature","properties":{"country_en":"El Salvador","name":"San Salvador","name_adm0":"El Salvador","name_adm1":"San Salvador","name_en":"San Salvador","iso":"SV"},"geometry":{"type":"Point","coordinates":[-89.18332999999998,13.78333]}},{"type":"Feature","properties":{"country_en":"El Salvador","name":"Sonsonate","name_adm0":"El Salvador","name_adm1":"Sonsonate","name_en":"Sonsonate","iso":"SV"},"geometry":{"type":"Point","coordinates":[-89.7,13.7]}},{"type":"Feature","properties":{"country_en":"El Salvador","name":"Sesori","name_adm0":"El Salvador","name_adm1":"San Miguel","name_adm2":"Sesori","name_en":"Sesori","iso":"SV"},"geometry":{"type":"Point","coordinates":[-88.36666999999998,13.716669999999999]}},{"type":"Feature","properties":{"country_en":"El Salvador","name":"La Herradura","name_adm0":"El Salvador","name_adm1":"La Paz","name_adm2":"San Luis de la Herradura","name_en":"La Herradura","iso":"SV"},"geometry":{"type":"Point","coordinates":[-88.95,13.35]}},{"type":"Feature","properties":{"country_en":"El Salvador","name":"La Palma","name_adm0":"El Salvador","name_adm1":"Chalatenango","name_adm2":"La Palma","name_en":"La Palma","iso":"SV"},"geometry":{"type":"Point","coordinates":[-89.16667,14.31667]}},{"type":"Feature","properties":{"country_en":"El Salvador","name":"Los Naranjos","name_adm0":"El Salvador","name_adm1":"Sonsonate","name_adm2":"Juayúa","name_en":"Los Naranjos","iso":"SV"},"geometry":{"type":"Point","coordinates":[-89.67389,13.8725]}},{"type":"Feature","properties":{"country_en":"El Salvador","name":"Montserrat","name_adm0":"El Salvador","name_adm1":"San Salvador","name_adm2":"San Salvador","name_en":"Montserrat","iso":"SV"},"geometry":{"type":"Point","coordinates":[-89.21667,13.68333]}},{"type":"Feature","properties":{"country_en":"El Salvador","name":"Jujutla","name_adm0":"El Salvador","name_adm1":"Ahuachapán","name_adm2":"Jujutla","name_en":"Jujutla","iso":"SV"},"geometry":{"type":"Point","coordinates":[-89.967727,13.788737]}},{"type":"Feature","properties":{"country_en":"El Salvador","name":"El Refugio","name_adm0":"El Salvador","name_adm1":"Ahuachapán","name_adm2":"El Refugio","name_en":"El Refugio","iso":"SV"},"geometry":{"type":"Point","coordinates":[-89.715728,13.987376]}},{"type":"Feature","properties":{"country_en":"El Salvador","name":"Guaymango","name_adm0":"El Salvador","name_adm1":"Ahuachapán","name_adm2":"Guaymango","name_en":"Guaymango","iso":"SV"},"geometry":{"type":"Point","coordinates":[-89.85202699999999,13.874913]}},{"type":"Feature","properties":{"country_en":"El Salvador","name":"El Divisadero","name_adm0":"El Salvador","name_adm1":"Morazán","name_adm2":"El Divisadero","name_en":"El Divisadero","iso":"SV"},"geometry":{"type":"Point","coordinates":[-88.05,13.6]}},{"type":"Feature","properties":{"country_en":"El Salvador","name":"El Rosario","name_adm0":"El Salvador","name_adm1":"Morazán","name_adm2":"San Francisco Gotera","name_en":"El Rosario","iso":"SV"},"geometry":{"type":"Point","coordinates":[-88.08332999999999,13.566669999999998]}},{"type":"Feature","properties":{"country_en":"El Salvador","name":"El Amatillo","name_adm0":"El Salvador","name_adm1":"La Unión","name_adm2":"Pasaquina","name_en":"El Amatillo","iso":"SV"},"geometry":{"type":"Point","coordinates":[-87.76667,13.58333]}},{"type":"Feature","properties":{"country_en":"El Salvador","name":"Citalá","name_adm0":"El Salvador","name_adm1":"Chalatenango","name_adm2":"Citalá","name_en":"Citalá","iso":"SV"},"geometry":{"type":"Point","coordinates":[-89.21667,14.366670000000001]}},{"type":"Feature","properties":{"country_en":"El Salvador","name":"San Antonio Masahuat","name_adm0":"El Salvador","name_adm1":"La Paz","name_adm2":"San Antonio Masahuat","name_en":"San Antonio Masahuat","iso":"SV"},"geometry":{"type":"Point","coordinates":[-88.918533,13.304352999999999]}},{"type":"Feature","properties":{"country_en":"El Salvador","name":"San Juan Nonualco","name_adm0":"El Salvador","name_adm1":"La Paz","name_adm2":"San Juan Nonualco","name_en":"San Juan Nonualco","iso":"SV"},"geometry":{"type":"Point","coordinates":[-88.9046285,13.503441]}},{"type":"Feature","properties":{"country_en":"El Salvador","name":"Agua Caliente","name_adm0":"El Salvador","name_adm1":"La Unión","name_adm2":"Conchagua","name_en":"Agua Caliente","iso":"SV"},"geometry":{"type":"Point","coordinates":[-87.96,13.241109999999999]}},{"type":"Feature","properties":{"country_en":"El Salvador","name":"Arambala","name_adm0":"El Salvador","name_adm1":"Morazán","name_adm2":"Arambala","name_en":"Arambala","iso":"SV"},"geometry":{"type":"Point","coordinates":[-88.13333,13.91667]}},{"type":"Feature","properties":{"country_en":"El Salvador","name":"Arenales","name_adm0":"El Salvador","name_adm1":"Usulután","name_adm2":"Santa Elena","name_en":"Arenales","iso":"SV"},"geometry":{"type":"Point","coordinates":[-88.38333,13.433329999999998]}},{"type":"Feature","properties":{"country_en":"El Salvador","name":"Ateos","name_adm0":"El Salvador","name_adm1":"La Libertad","name_adm2":"Sacacoyo","name_en":"Ateos","iso":"SV"},"geometry":{"type":"Point","coordinates":[-89.43333,13.73333]}},{"type":"Feature","properties":{"country_en":"El Salvador","name":"Belén Güijat","name_adm0":"El Salvador","name_adm1":"Santa Ana","name_adm2":"Metapán","name_en":"Belén Güijat","iso":"SV"},"geometry":{"type":"Point","coordinates":[-89.46666999999998,14.21667]}},{"type":"Feature","properties":{"country_en":"El Salvador","name":"Bolívar","name_adm0":"El Salvador","name_adm1":"La Unión","name_adm2":"Bolívar","name_en":"Bolívar","iso":"SV"},"geometry":{"type":"Point","coordinates":[-87.95,13.58333]}},{"type":"Feature","properties":{"country_en":"El Salvador","name":"Candelaria","name_adm0":"El Salvador","name_adm1":"Cuscatlán","name_adm2":"Candelaria","name_en":"Candelaria","iso":"SV"},"geometry":{"type":"Point","coordinates":[-88.9,13.716669999999999]}},{"type":"Feature","properties":{"country_en":"El Salvador","name":"Carolina","name_adm0":"El Salvador","name_adm1":"San Miguel","name_adm2":"Carolina","name_en":"Carolina","iso":"SV"},"geometry":{"type":"Point","coordinates":[-88.3,13.849999999999998]}},{"type":"Feature","properties":{"country_en":"El Salvador","name":"El Porvenir","name_adm0":"El Salvador","name_adm1":"Santa Ana","name_adm2":"El Porvenir","name_en":"El Porvenir","iso":"SV"},"geometry":{"type":"Point","coordinates":[-89.53333,13.849999999999998]}},{"type":"Feature","properties":{"country_en":"El Salvador","name":"El Poy","name_adm0":"El Salvador","name_adm1":"Chalatenango","name_adm2":"La Palma","name_en":"El Poy","iso":"SV"},"geometry":{"type":"Point","coordinates":[-89.21667,14.366670000000001]}},{"type":"Feature","properties":{"country_en":"El Salvador","name":"Jerusalén","name_adm0":"El Salvador","name_adm1":"La Paz","name_adm2":"Jerusalén","name_en":"Jerusalén","iso":"SV"},"geometry":{"type":"Point","coordinates":[-88.9,13.65]}},{"type":"Feature","properties":{"country_en":"El Salvador","name":"Joateca","name_adm0":"El Salvador","name_adm1":"Morazán","name_adm2":"Joateca","name_en":"Joateca","iso":"SV"},"geometry":{"type":"Point","coordinates":[-88.05,13.9]}},{"type":"Feature","properties":{"country_en":"El Salvador","name":"San Luis del Carmen","name_adm0":"El Salvador","name_adm1":"Chalatenango","name_adm2":"San Luis del Carmen","name_en":"San Luis del Carmen","iso":"SV"},"geometry":{"type":"Point","coordinates":[-88.96667,13.96667]}},{"type":"Feature","properties":{"country_en":"El Salvador","name":"San Miguel de Mercedes","name_adm0":"El Salvador","name_adm1":"Chalatenango","name_adm2":"San Miguel de Mercedes","name_en":"San Miguel de Mercedes","iso":"SV"},"geometry":{"type":"Point","coordinates":[-88.93333,14.01667]}},{"type":"Feature","properties":{"country_en":"El Salvador","name":"San Sebastián Salitrillo","name_adm0":"El Salvador","name_adm1":"Santa Ana","name_adm2":"San Sebastián Salitrillo","name_en":"S. Sebastian Salitrillo","iso":"SV"},"geometry":{"type":"Point","coordinates":[-89.63611,13.96917]}},{"type":"Feature","properties":{"country_en":"El Salvador","name":"Santa Catarina Masahuat","name_adm0":"El Salvador","name_adm1":"Sonsonate","name_adm2":"Santa Catarina Masahuat","name_en":"Santa Catarina Masahuat","iso":"SV"},"geometry":{"type":"Point","coordinates":[-89.76611,13.78611]}},{"type":"Feature","properties":{"country_en":"El Salvador","name":"La Montanita","name_adm0":"El Salvador","name_adm1":"Santa Ana","name_adm2":"Santa Ana","name_en":"La Montanita","iso":"SV"},"geometry":{"type":"Point","coordinates":[-89.76667,13.93333]}},{"type":"Feature","properties":{"country_en":"El Salvador","name":"Nahuizalco","name_adm0":"El Salvador","name_adm1":"Sonsonate","name_adm2":"Nahuizalco","name_en":"Nahuizalco","iso":"SV"},"geometry":{"type":"Point","coordinates":[-89.649467,13.799906999999997]}},{"type":"Feature","properties":{"country_en":"El Salvador","name":"Usulután","name_adm0":"El Salvador","name_adm1":"Usulután","name_adm2":"Usulután","name_en":"Usulután","iso":"SV"},"geometry":{"type":"Point","coordinates":[-88.47702,13.2960805]}},{"type":"Feature","properties":{"country_en":"El Salvador","name":"Carrizalillo","name_adm0":"El Salvador","name_adm1":"Santa Ana","name_adm2":"Metapán","name_en":"Carrizalillo","iso":"SV"},"geometry":{"type":"Point","coordinates":[-89.23332999999998,14.699999999999998]}},{"type":"Feature","properties":{"country_en":"El Salvador","name":"Tecomapa","name_adm0":"El Salvador","name_adm1":"Santa Ana","name_adm2":"Metapán","name_en":"Tecomapa","iso":"SV"},"geometry":{"type":"Point","coordinates":[-89.3,14.51667]}},{"type":"Feature","properties":{"country_en":"El Salvador","name":"Los Chorros","name_adm0":"El Salvador","name_adm1":"La Libertad","name_adm2":"Nueva San Salvador","name_en":"Los Chorros","iso":"SV"},"geometry":{"type":"Point","coordinates":[-88.56667,13.41667]}},{"type":"Feature","properties":{"country_en":"El Salvador","name":"Suschinango","name_adm0":"El Salvador","name_adm1":"San Salvador","name_adm2":"Apopa","name_en":"Suschinango","iso":"SV"},"geometry":{"type":"Point","coordinates":[-89.2375,13.785]}},{"type":"Feature","properties":{"country_en":"El Salvador","name":"Las Aquimas","name_adm0":"El Salvador","name_adm1":"San Salvador","name_adm2":"San Martín","name_en":"Las Aquimas","iso":"SV"},"geometry":{"type":"Point","coordinates":[-88.84999999999998,14.03333]}},{"type":"Feature","properties":{"country_en":"El Salvador","name":"El Amatillo","name_adm0":"El Salvador","name_adm1":"Cuscatlán","name_adm2":"El Rosario","name_en":"El Amatillo","iso":"SV"},"geometry":{"type":"Point","coordinates":[-88.6,14.03333]}},{"type":"Feature","properties":{"country_en":"El Salvador","name":"Amatecampo","name_adm0":"El Salvador","name_adm1":"La Paz","name_adm2":"San Luis","name_en":"Amatecampo","iso":"SV"},"geometry":{"type":"Point","coordinates":[-89.13471999999999,13.43611]}},{"type":"Feature","properties":{"country_en":"El Salvador","name":"San Sebastian","name_adm0":"El Salvador","name_adm1":"La Paz","name_adm2":"Santiago Nonualco","name_en":"San Sebastian","iso":"SV"},"geometry":{"type":"Point","coordinates":[-89.13028,13.53889]}},{"type":"Feature","properties":{"country_en":"El Salvador","name":"San Pedro","name_adm0":"El Salvador","name_adm1":"Cabañas","name_adm2":"Victoria","name_en":"San Pedro","iso":"SV"},"geometry":{"type":"Point","coordinates":[-88.53333,14]}},{"type":"Feature","properties":{"country_en":"El Salvador","name":"San José Cancasque","name_adm0":"El Salvador","name_adm1":"Chalatenango","name_adm2":"San José Cancasque","name_en":"San José Cancasque","iso":"SV"},"geometry":{"type":"Point","coordinates":[-89.063415,14.008695999999999]}},{"type":"Feature","properties":{"country_en":"El Salvador","name":"Intipucá","name_adm0":"El Salvador","name_adm1":"La Unión","name_adm2":"Intipucá","name_en":"Intipucá","iso":"SV"},"geometry":{"type":"Point","coordinates":[-88.05444,13.19694]}},{"type":"Feature","properties":{"country_en":"El Salvador","name":"Cojutepeque","name_adm0":"El Salvador","name_adm1":"Cuscatlán","name_adm2":"Cojutepeque","name_en":"Cojutepeque","iso":"SV"},"geometry":{"type":"Point","coordinates":[-88.93333,13.716669999999999]}},{"type":"Feature","properties":{"country_en":"El Salvador","name":"Delgado","name_adm0":"El Salvador","name_adm1":"San Salvador","name_adm2":"Delgado","name_en":"Delgado","iso":"SV"},"geometry":{"type":"Point","coordinates":[-89.17028,13.72417]}},{"type":"Feature","properties":{"country_en":"El Salvador","name":"Ilobasco","name_adm0":"El Salvador","name_adm1":"Cabañas","name_adm2":"Ilobasco","name_en":"Ilobasco","iso":"SV"},"geometry":{"type":"Point","coordinates":[-88.84999999999998,13.849999999999998]}},{"type":"Feature","properties":{"country_en":"El Salvador","name":"San Juan Opico","name_adm0":"El Salvador","name_adm1":"La Libertad","name_adm2":"Opico","name_en":"San Juan Opico","iso":"SV"},"geometry":{"type":"Point","coordinates":[-89.35972,13.87611]}},{"type":"Feature","properties":{"country_en":"El Salvador","name":"San Juan Nonualco","name_adm0":"El Salvador","name_adm1":"La Paz","name_adm2":"San Juan Nonualco","name_en":"San Juan Nonualco","iso":"SV"},"geometry":{"type":"Point","coordinates":[-88.88333,13.5]}},{"type":"Feature","properties":{"country_en":"El Salvador","name":"San Marcos Lempa","name_adm0":"El Salvador","name_adm1":"Usulután","name_adm2":"Jiquilisco","name_en":"San Marcos Lempa","iso":"SV"},"geometry":{"type":"Point","coordinates":[-88.69999999999999,13.433329999999998]}},{"type":"Feature","properties":{"country_en":"El Salvador","name":"Santa María Mizata","name_adm0":"El Salvador","name_adm1":"La Libertad","name_adm2":"Teotepeque","name_en":"Santa María Mizata","iso":"SV"},"geometry":{"type":"Point","coordinates":[-89.56667,13.55]}},{"type":"Feature","properties":{"country_en":"El Salvador","name":"El Salvador","name_adm0":"El Salvador","name_en":"El Salvador","iso":"SV"},"geometry":{"type":"Point","coordinates":[-88.91879199999998,13.79687]}},{"type":"Feature","properties":{"country_en":"El Salvador","name":"San Francisco Javier","name_adm0":"El Salvador","name_adm1":"Usulután","name_adm2":"San Francisco Javier","name_en":"San Francisco Javier","iso":"SV"},"geometry":{"type":"Point","coordinates":[-88.56667,13.41667]}},{"type":"Feature","properties":{"country_en":"El Salvador","name":"San Gerardo","name_adm0":"El Salvador","name_adm1":"San Miguel","name_adm2":"San Gerardo","name_en":"San Gerardo","iso":"SV"},"geometry":{"type":"Point","coordinates":[-88.4,13.8]}},{"type":"Feature","properties":{"country_en":"El Salvador","name":"San Luis","name_adm0":"El Salvador","name_adm1":"La Paz","name_adm2":"San Luis","name_en":"San Luis","iso":"SV"},"geometry":{"type":"Point","coordinates":[-89.049339,13.362898]}},{"type":"Feature","properties":{"country_en":"El Salvador","name":"Santa Ana","name_adm0":"El Salvador","name_adm1":"Santa Ana","name_adm2":"Santa Ana","name_en":"Santa Ana","iso":"SV"},"geometry":{"type":"Point","coordinates":[-89.5578,14.014025999999998]}},{"type":"Feature","properties":{"country_en":"El Salvador","name":"San Antonio de la Cruz","name_adm0":"El Salvador","name_adm1":"Chalatenango","name_adm2":"San Antonio de la Cruz","name_en":"San Antonio de la Cruz","iso":"SV"},"geometry":{"type":"Point","coordinates":[-89.063415,14.008695999999999]}},{"type":"Feature","properties":{"country_en":"El Salvador","name":"San Antonio los Ranchos","name_adm0":"El Salvador","name_adm1":"Chalatenango","name_adm2":"San Antonio los Ranchos","name_en":"San Antonio los Ranchos","iso":"SV"},"geometry":{"type":"Point","coordinates":[-89.063415,14.008695999999999]}},{"type":"Feature","properties":{"country_en":"El Salvador","name":"Concepción Quezaltepeque","name_adm0":"El Salvador","name_adm1":"Chalatenango","name_adm2":"Concepción Quezaltepeque","name_en":"Concepción Quezaltepeque","iso":"SV"},"geometry":{"type":"Point","coordinates":[-89.063415,14.008695999999999]}},{"type":"Feature","properties":{"country_en":"El Salvador","name":"Dulce Nombre de María","name_adm0":"El Salvador","name_adm1":"Chalatenango","name_adm2":"Dulce Nombre de María","name_en":"Dulce Nombre de María","iso":"SV"},"geometry":{"type":"Point","coordinates":[-89.007745,14.1627085]}},{"type":"Feature","properties":{"country_en":"El Salvador","name":"Talnique","name_adm0":"El Salvador","name_adm1":"La Libertad","name_adm2":"Talnique","name_en":"Talnique","iso":"SV"},"geometry":{"type":"Point","coordinates":[-89.3903195,13.493468]}},{"type":"Feature","properties":{"country_en":"El Salvador","name":"Tepecoyo","name_adm0":"El Salvador","name_adm1":"La Libertad","name_adm2":"Tepecoyo","name_en":"Tepecoyo","iso":"SV"},"geometry":{"type":"Point","coordinates":[-89.3903195,13.493468]}},{"type":"Feature","properties":{"country_en":"El Salvador","name":"Tapalhuaca","name_adm0":"El Salvador","name_adm1":"La Paz","name_adm2":"Tapalhuaca","name_en":"Tapalhuaca","iso":"SV"},"geometry":{"type":"Point","coordinates":[-88.918533,13.304352999999999]}},{"type":"Feature","properties":{"country_en":"El Salvador","name":"Concepción de Oriente","name_adm0":"El Salvador","name_adm1":"La Unión","name_adm2":"Concepción de Oriente","name_en":"Concepción de Oriente","iso":"SV"},"geometry":{"type":"Point","coordinates":[-87.998943,13.5361185]}},{"type":"Feature","properties":{"country_en":"El Salvador","name":"Nueva Esparta","name_adm0":"El Salvador","name_adm1":"La Unión","name_adm2":"Nueva Esparta","name_en":"Nueva Esparta","iso":"SV"},"geometry":{"type":"Point","coordinates":[-87.998943,13.5361185]}},{"type":"Feature","properties":{"country_en":"El Salvador","name":"Polorós","name_adm0":"El Salvador","name_adm1":"La Unión","name_adm2":"Polorós","name_en":"Polorós","iso":"SV"},"geometry":{"type":"Point","coordinates":[-87.998943,13.5361185]}},{"type":"Feature","properties":{"country_en":"El Salvador","name":"Yayantique","name_adm0":"El Salvador","name_adm1":"La Unión","name_adm2":"Yayantique","name_en":"Yayantique","iso":"SV"},"geometry":{"type":"Point","coordinates":[-87.998943,13.5361185]}},{"type":"Feature","properties":{"country_en":"El Salvador","name":"Yucuaiquín","name_adm0":"El Salvador","name_adm1":"La Unión","name_adm2":"Yucuaiquín","name_en":"Yucuaiquín","iso":"SV"},"geometry":{"type":"Point","coordinates":[-87.998943,13.5361185]}},{"type":"Feature","properties":{"country_en":"El Salvador","name":"Uluazapa","name_adm0":"El Salvador","name_adm1":"San Miguel","name_adm2":"Uluazapa","name_en":"Uluazapa","iso":"SV"},"geometry":{"type":"Point","coordinates":[-88.30862,13.33876]}},{"type":"Feature","properties":{"country_en":"El Salvador","name":"San Simón","name_adm0":"El Salvador","name_adm1":"Morazán","name_adm2":"San Simón","name_en":"San Simón","iso":"SV"},"geometry":{"type":"Point","coordinates":[-88.121852,13.876746]}},{"type":"Feature","properties":{"country_en":"El Salvador","name":"Juayúa","name_adm0":"El Salvador","name_adm1":"Sonsonate","name_adm2":"Juayúa","name_en":"Juayúa","iso":"SV"},"geometry":{"type":"Point","coordinates":[-89.74731399999999,13.849863]}},{"type":"Feature","properties":{"country_en":"El Salvador","name":"San Rafael","name_adm0":"El Salvador","name_adm1":"Chalatenango","name_adm2":"San Rafael","name_en":"San Rafael","iso":"SV"},"geometry":{"type":"Point","coordinates":[-89.063415,14.008695999999999]}},{"type":"Feature","properties":{"country_en":"El Salvador","name":"Lislique","name_adm0":"El Salvador","name_adm1":"La Unión","name_adm2":"Lislique","name_en":"Lislique","iso":"SV"},"geometry":{"type":"Point","coordinates":[-87.998943,13.5361185]}},{"type":"Feature","properties":{"country_en":"El Salvador","name":"La Libertad","name_adm0":"El Salvador","name_adm1":"La Libertad","name_en":"La Libertad","iso":"SV"},"geometry":{"type":"Point","coordinates":[-89.38333,13.75]}},{"type":"Feature","properties":{"country_en":"El Salvador","name":"Acajutla","name_adm0":"El Salvador","name_adm1":"Sonsonate","name_adm2":"Acajutla","name_en":"Acajutla","iso":"SV"},"geometry":{"type":"Point","coordinates":[-89.818384,13.533025]}},{"type":"Feature","properties":{"country_en":"El Salvador","name":"Jiquilisco","name_adm0":"El Salvador","name_adm1":"Usulután","name_adm2":"Jiquilisco","name_en":"Jiquilisco","iso":"SV"},"geometry":{"type":"Point","coordinates":[-88.721723,13.328021]}},{"type":"Feature","properties":{"country_en":"El Salvador","name":"San Jose","name_adm0":"El Salvador","name_adm1":"Santa Ana","name_adm2":"San Sebastián Salitrillo","name_en":"San Jose","iso":"SV"},"geometry":{"type":"Point","coordinates":[-89.41666999999998,14.06667]}},{"type":"Feature","properties":{"country_en":"El Salvador","name":"Zacatecoluca","name_adm0":"El Salvador","name_adm1":"La Paz","name_adm2":"Zacatecoluca","name_en":"Zacatecoluca","iso":"SV"},"geometry":{"type":"Point","coordinates":[-88.86667,13.5]}},{"type":"Feature","properties":{"country_en":"El Salvador","name":"Sonsonate","name_adm0":"El Salvador","name_adm1":"Sonsonate","name_adm2":"Sonsonate","name_en":"Sonsonate","iso":"SV"},"geometry":{"type":"Point","coordinates":[-89.72417,13.718889999999998]}},{"type":"Feature","properties":{"country_en":"El Salvador","name":"San Miquel","name_adm0":"El Salvador","name_adm1":"San Miguel","name_adm2":"San Miguel","name_en":"San Miquel","iso":"SV"},"geometry":{"type":"Point","coordinates":[-88.18333,13.48333]}},{"type":"Feature","properties":{"country_en":"El Salvador","name":"Candelaria","name_adm0":"El Salvador","name_adm1":"Cuscatlán","name_adm2":"El Carmen","name_en":"Candelaria","iso":"SV"},"geometry":{"type":"Point","coordinates":[-88.95,13.75]}},{"type":"Feature","properties":{"country_en":"El Salvador","name":"Coyolar","name_adm0":"El Salvador","name_adm1":"Chalatenango","name_adm2":"Ojos de Agua","name_en":"Coyolar","iso":"SV"},"geometry":{"type":"Point","coordinates":[-88.84999999999998,14.1]}},{"type":"Feature","properties":{"country_en":"El Salvador","name":"El Carmen","name_adm0":"El Salvador","name_adm1":"Cuscatlán","name_adm2":"El Carmen","name_en":"El Carmen","iso":"SV"},"geometry":{"type":"Point","coordinates":[-88.9,13.716669999999999]}},{"type":"Feature","properties":{"country_en":"El Salvador","name":"El Dorado","name_adm0":"El Salvador","name_adm1":"Chalatenango","name_adm2":"Chalatenango","name_en":"El Dorado","iso":"SV"},"geometry":{"type":"Point","coordinates":[-89,14.05]}},{"type":"Feature","properties":{"country_en":"El Salvador","name":"Huizúcar","name_adm0":"El Salvador","name_adm1":"La Libertad","name_adm2":"Huizúcar","name_en":"Huizúcar","iso":"SV"},"geometry":{"type":"Point","coordinates":[-89.23833,13.58944]}},{"type":"Feature","properties":{"country_en":"El Salvador","name":"La Reina","name_adm0":"El Salvador","name_adm1":"Chalatenango","name_adm2":"La Reina","name_en":"La Reina","iso":"SV"},"geometry":{"type":"Point","coordinates":[-89.15,14.2]}},{"type":"Feature","properties":{"country_en":"El Salvador","name":"La Virgen","name_adm0":"El Salvador","name_adm1":"Santa Ana","name_adm2":"Metapán","name_en":"La Virgen","iso":"SV"},"geometry":{"type":"Point","coordinates":[-89.58333,14.350000000000001]}},{"type":"Feature","properties":{"country_en":"El Salvador","name":"Las Chinamas","name_adm0":"El Salvador","name_adm1":"Ahuachapán","name_adm2":"Ahuachapán","name_en":"Las Chinamas","iso":"SV"},"geometry":{"type":"Point","coordinates":[-89.88333,14]}},{"type":"Feature","properties":{"country_en":"El Salvador","name":"Las Vueltas","name_adm0":"El Salvador","name_adm1":"Chalatenango","name_adm2":"Las Vueltas","name_en":"Las Vueltas","iso":"SV"},"geometry":{"type":"Point","coordinates":[-88.88333,14.1]}},{"type":"Feature","properties":{"country_en":"El Salvador","name":"Lislique","name_adm0":"El Salvador","name_adm1":"La Unión","name_adm2":"Lislique","name_en":"Lislique","iso":"SV"},"geometry":{"type":"Point","coordinates":[-87.89917,13.801389999999998]}},{"type":"Feature","properties":{"country_en":"El Salvador","name":"Lolotiquillo","name_adm0":"El Salvador","name_adm1":"Morazán","name_adm2":"Lolotiquillo","name_en":"Lolotiquillo","iso":"SV"},"geometry":{"type":"Point","coordinates":[-88.08332999999999,13.73333]}},{"type":"Feature","properties":{"country_en":"El Salvador","name":"Mercedes la Ceiba","name_adm0":"El Salvador","name_adm1":"La Paz","name_adm2":"Mercedes de Ceiba","name_en":"Mercedes la Ceiba","iso":"SV"},"geometry":{"type":"Point","coordinates":[-88.9,13.63333]}},{"type":"Feature","properties":{"country_en":"El Salvador","name":"Masahuat","name_adm0":"El Salvador","name_adm1":"Santa Ana","name_adm2":"Masahuat","name_en":"Masahuat","iso":"SV"},"geometry":{"type":"Point","coordinates":[-89.43333,14.18333]}},{"type":"Feature","properties":{"country_en":"El Salvador","name":"Nueva Granada","name_adm0":"El Salvador","name_adm1":"Usulután","name_adm2":"Nueva Granada","name_en":"Nueva Granada","iso":"SV"},"geometry":{"type":"Point","coordinates":[-88.45,13.6]}},{"type":"Feature","properties":{"country_en":"El Salvador","name":"Polorós","name_adm0":"El Salvador","name_adm1":"La Unión","name_adm2":"Polorós","name_en":"Polorós","iso":"SV"},"geometry":{"type":"Point","coordinates":[-87.81917,13.81028]}},{"type":"Feature","properties":{"country_en":"El Salvador","name":"San Antonio","name_adm0":"El Salvador","name_adm1":"San Miguel","name_adm2":"San Antonio","name_en":"San Antonio","iso":"SV"},"geometry":{"type":"Point","coordinates":[-88.36666999999998,13.48333]}},{"type":"Feature","properties":{"country_en":"El Salvador","name":"San Antonio de La Cruz","name_adm0":"El Salvador","name_adm1":"Chalatenango","name_adm2":"San Antonio de la Cruz","name_en":"San Antonio de La Cruz","iso":"SV"},"geometry":{"type":"Point","coordinates":[-88.78333,14.01667]}},{"type":"Feature","properties":{"country_en":"El Salvador","name":"San Antonio Silva","name_adm0":"El Salvador","name_adm1":"San Miguel","name_adm2":"San Miguel","name_en":"San Antonio Silva","iso":"SV"},"geometry":{"type":"Point","coordinates":[-88.03028,13.39389]}},{"type":"Feature","properties":{"country_en":"El Salvador","name":"San Bartolomé Perulapía","name_adm0":"El Salvador","name_adm1":"Cuscatlán","name_adm2":"San Bartolomé Perulapía","name_en":"S. Bartolome Perulapia","iso":"SV"},"geometry":{"type":"Point","coordinates":[-89.05083,13.76583]}},{"type":"Feature","properties":{"country_en":"El Salvador","name":"San Jorge","name_adm0":"El Salvador","name_adm1":"San Miguel","name_adm2":"Sesori","name_en":"San Jorge","iso":"SV"},"geometry":{"type":"Point","coordinates":[-88.38333,13.68333]}},{"type":"Feature","properties":{"country_en":"El Salvador","name":"San José El Naranjo","name_adm0":"El Salvador","name_adm1":"Ahuachapán","name_adm2":"Jujutla","name_en":"San José El Naranjo","iso":"SV"},"geometry":{"type":"Point","coordinates":[-89.93083,13.76194]}},{"type":"Feature","properties":{"country_en":"El Salvador","name":"San José Las Flores","name_adm0":"El Salvador","name_adm1":"Chalatenango","name_adm2":"San José Las Flores","name_en":"S. Jose Las Flores","iso":"SV"},"geometry":{"type":"Point","coordinates":[-88.83333,14.05]}},{"type":"Feature","properties":{"country_en":"El Salvador","name":"San Luis de la Reina","name_adm0":"El Salvador","name_adm1":"San Miguel","name_adm2":"San Luis de la Reina","name_en":"San Luis de la Reina","iso":"SV"},"geometry":{"type":"Point","coordinates":[-88.35,13.81667]}},{"type":"Feature","properties":{"country_en":"El Salvador","name":"San Pedro","name_adm0":"El Salvador","name_adm1":"San Miguel","name_adm2":"Chinameca","name_en":"San Pedro","iso":"SV"},"geometry":{"type":"Point","coordinates":[-88.38333,13.433329999999998]}},{"type":"Feature","properties":{"country_en":"El Salvador","name":"San Ramón","name_adm0":"El Salvador","name_adm1":"Cuscatlán","name_adm2":"San Ramón","name_en":"S. Ramon","iso":"SV"},"geometry":{"type":"Point","coordinates":[-88.93333,13.68333]}},{"type":"Feature","properties":{"country_en":"El Salvador","name":"San Simón","name_adm0":"El Salvador","name_adm1":"Morazán","name_adm2":"San Simón","name_en":"S. Simon","iso":"SV"},"geometry":{"type":"Point","coordinates":[-88.23333,13.833329999999998]}},{"type":"Feature","properties":{"country_en":"El Salvador","name":"Santa Cruz Analquito","name_adm0":"El Salvador","name_adm1":"Cuscatlán","name_adm2":"Santa Cruz Analquito","name_en":"Santa Cruz Analquito","iso":"SV"},"geometry":{"type":"Point","coordinates":[-88.95,13.65]}},{"type":"Feature","properties":{"country_en":"El Salvador","name":"Tapalhuaca","name_adm0":"El Salvador","name_adm1":"La Paz","name_adm2":"Tapalhuaca","name_en":"Tapalhuaca","iso":"SV"},"geometry":{"type":"Point","coordinates":[-89.08028,13.560279999999999]}},{"type":"Feature","properties":{"country_en":"El Salvador","name":"Teotepeque","name_adm0":"El Salvador","name_adm1":"La Libertad","name_adm2":"Teotepeque","name_en":"Teotepeque","iso":"SV"},"geometry":{"type":"Point","coordinates":[-89.51833,13.585279999999997]}},{"type":"Feature","properties":{"country_en":"El Salvador","name":"Uluazapa","name_adm0":"El Salvador","name_adm1":"San Miguel","name_adm2":"Uluazapa","name_en":"Uluazapa","iso":"SV"},"geometry":{"type":"Point","coordinates":[-88.06667,13.5]}},{"type":"Feature","properties":{"country_en":"El Salvador","name":"Yayantique","name_adm0":"El Salvador","name_adm1":"La Unión","name_adm2":"Yayantique","name_en":"Yayantique","iso":"SV"},"geometry":{"type":"Point","coordinates":[-88.02222,13.44861]}},{"type":"Feature","properties":{"country_en":"El Salvador","name":"San Emigdio","name_adm0":"El Salvador","name_adm1":"La Paz","name_adm2":"San Emigdio","name_en":"San Emigdio","iso":"SV"},"geometry":{"type":"Point","coordinates":[-88.918533,13.304352999999999]}},{"type":"Feature","properties":{"country_en":"El Salvador","name":"Ahuachapán","name_adm0":"El Salvador","name_adm1":"Ahuachapán","name_adm2":"Ahuachapán","name_en":"Ahuachapán","iso":"SV"},"geometry":{"type":"Point","coordinates":[-89.87777699999998,13.946817999999999]}},{"type":"Feature","properties":{"country_en":"El Salvador","name":"Torola","name_adm0":"El Salvador","name_adm1":"Morazán","name_adm2":"Torola","name_en":"Torola","iso":"SV"},"geometry":{"type":"Point","coordinates":[-88.23333,13.91667]}},{"type":"Feature","properties":{"country_en":"El Salvador","name":"Izalco","name_adm0":"El Salvador","name_adm1":"Sonsonate","name_adm2":"Izalco","name_en":"Izalco","iso":"SV"},"geometry":{"type":"Point","coordinates":[-89.604492,13.786737]}},{"type":"Feature","properties":{"country_en":"El Salvador","name":"Chilanga","name_adm0":"El Salvador","name_adm1":"Morazán","name_adm2":"Chilanga","name_en":"Chilanga","iso":"SV"},"geometry":{"type":"Point","coordinates":[-88.11667,13.716669999999999]}},{"type":"Feature","properties":{"country_en":"El Salvador","name":"Oratorio de Concepción","name_adm0":"El Salvador","name_adm1":"Cuscatlán","name_adm2":"Oratorio de Concepción","name_en":"Oratorio de Concepción","iso":"SV"},"geometry":{"type":"Point","coordinates":[-89.05972,13.816389999999998]}},{"type":"Feature","properties":{"country_en":"El Salvador","name":"San Jerónimo","name_adm0":"El Salvador","name_adm1":"Santa Ana","name_adm2":"Metapán","name_en":"S. Jeronimo","iso":"SV"},"geometry":{"type":"Point","coordinates":[-89.53333,14.38333]}},{"type":"Feature","properties":{"country_en":"El Salvador","name":"Izalco","name_adm0":"El Salvador","name_adm1":"Sonsonate","name_adm2":"Izalco","name_en":"Izalco","iso":"SV"},"geometry":{"type":"Point","coordinates":[-89.67305999999999,13.74472]}},{"type":"Feature","properties":{"country_en":"El Salvador","name":"Sitio del Niño","name_adm0":"El Salvador","name_adm1":"La Libertad","name_adm2":"Opico","name_en":"Sitio del Niño","iso":"SV"},"geometry":{"type":"Point","coordinates":[-89.35833,13.80667]}},{"type":"Feature","properties":{"country_en":"El Salvador","name":"Las Vueltas","name_adm0":"El Salvador","name_adm1":"Chalatenango","name_adm2":"Las Vueltas","name_en":"Las Vueltas","iso":"SV"},"geometry":{"type":"Point","coordinates":[-89.063415,14.008695999999999]}},{"type":"Feature","properties":{"country_en":"El Salvador","name":"El Congo","name_adm0":"El Salvador","name_adm1":"Santa Ana","name_adm2":"El Congo","name_en":"El Congo","iso":"SV"},"geometry":{"type":"Point","coordinates":[-89.555053,13.816243]}},{"type":"Feature","properties":{"country_en":"El Salvador","name":"San Vicente","name_adm0":"El Salvador","name_adm1":"San Vicente","name_adm2":"San Vicente","name_en":"San Vicente","iso":"SV"},"geometry":{"type":"Point","coordinates":[-88.640012,13.565066999999999]}},{"type":"Feature","properties":{"country_en":"El Salvador","name":"Santiago de María","name_adm0":"El Salvador","name_adm1":"Usulután","name_adm2":"Santiago de María","name_en":"Santiago de María","iso":"SV"},"geometry":{"type":"Point","coordinates":[-88.46666999999998,13.48333]}},{"type":"Feature","properties":{"country_en":"El Salvador","name":"El Quebracho","name_adm0":"El Salvador","name_adm1":"San Vicente","name_adm2":"San Vicente","name_en":"El Quebracho","iso":"SV"},"geometry":{"type":"Point","coordinates":[-88.26666999999999,13.91667]}},{"type":"Feature","properties":{"country_en":"El Salvador","name":"San Lorenzo","name_adm0":"El Salvador","name_adm1":"San Vicente","name_adm2":"San Ildefonso","name_en":"San Lorenzo","iso":"SV"},"geometry":{"type":"Point","coordinates":[-88.79999999999998,13.716669999999999]}},{"type":"Feature","properties":{"country_en":"El Salvador","name":"La Cruz","name_adm0":"El Salvador","name_adm1":"Usulután","name_adm2":"Mercedes Umaña","name_en":"La Cruz","iso":"SV"},"geometry":{"type":"Point","coordinates":[-88.48333,13.566669999999998]}},{"type":"Feature","properties":{"country_en":"El Salvador","name":"Mizata","name_adm0":"El Salvador","name_adm1":"La Libertad","name_adm2":"Teotepeque","name_en":"Mizata","iso":"SV"},"geometry":{"type":"Point","coordinates":[-89.58722,13.528609999999999]}},{"type":"Feature","properties":{"country_en":"El Salvador","name":"Flor Amarilla Abajo","name_adm0":"El Salvador","name_adm1":"Santa Ana","name_adm2":"Santa Ana","name_en":"Flor Amarilla Abajo","iso":"SV"},"geometry":{"type":"Point","coordinates":[-89.56722,13.93167]}},{"type":"Feature","properties":{"country_en":"El Salvador","name":"Santiago Nonualco","name_adm0":"El Salvador","name_adm1":"La Paz","name_adm2":"Santiago Nonualco","name_en":"Santiago Nonualco","iso":"SV"},"geometry":{"type":"Point","coordinates":[-88.96713199999999,13.46039]}},{"type":"Feature","properties":{"country_en":"El Salvador","name":"Puerto Gde. Arriba","name_adm0":"El Salvador","name_adm1":"Santa Ana","name_adm2":"Santa Ana","name_en":"Puerto Gde. Arriba","iso":"SV"},"geometry":{"type":"Point","coordinates":[-89.630241,13.854413]}},{"type":"Feature","properties":{"country_en":"El Salvador","name":"Piedra Grande","name_adm0":"El Salvador","name_adm1":"La Paz","name_adm2":"Zacatecoluca","name_en":"Piedra Grande","iso":"SV"},"geometry":{"type":"Point","coordinates":[-88.68333,14.1]}},{"type":"Feature","properties":{"country_en":"El Salvador","name":"El Paraíso","name_adm0":"El Salvador","name_adm1":"Chalatenango","name_adm2":"El Paraíso","name_en":"El Paraíso","iso":"SV"},"geometry":{"type":"Point","coordinates":[-89.121265,14.03984]}},{"type":"Feature","properties":{"country_en":"El Salvador","name":"San Isidro Labrador","name_adm0":"El Salvador","name_adm1":"Chalatenango","name_adm2":"San Isidro Labrador","name_en":"San Isidro Labrador","iso":"SV"},"geometry":{"type":"Point","coordinates":[-88.84999999999998,14]}},{"type":"Feature","properties":{"country_en":"El Salvador","name":"Chiltiupán","name_adm0":"El Salvador","name_adm1":"La Libertad","name_adm2":"Chiltiupán","name_en":"Chiltiupán","iso":"SV"},"geometry":{"type":"Point","coordinates":[-89.437465,13.495805]}},{"type":"Feature","properties":{"country_en":"El Salvador","name":"Jicalapa","name_adm0":"El Salvador","name_adm1":"La Libertad","name_adm2":"Jicalapa","name_en":"Jicalapa","iso":"SV"},"geometry":{"type":"Point","coordinates":[-89.529647,13.5013965]}},{"type":"Feature","properties":{"country_en":"El Salvador","name":"Quezaltepeque","name_adm0":"El Salvador","name_adm1":"La Libertad","name_adm2":"Quezaltepeque","name_en":"Quezaltepeque","iso":"SV"},"geometry":{"type":"Point","coordinates":[-89.309921,13.790331999999998]}},{"type":"Feature","properties":{"country_en":"El Salvador","name":"San Matías","name_adm0":"El Salvador","name_adm1":"La Libertad","name_adm2":"San Matías","name_en":"San Matías","iso":"SV"},"geometry":{"type":"Point","coordinates":[-89.29687499999999,13.880745]}},{"type":"Feature","properties":{"country_en":"El Salvador","name":"Metapán","name_adm0":"El Salvador","name_adm1":"Santa Ana","name_adm2":"Metapán","name_en":"Metapán","iso":"SV"},"geometry":{"type":"Point","coordinates":[-89.352321,14.412069999999998]}},{"type":"Feature","properties":{"country_en":"El Salvador","name":"Santo Tomás","name_adm0":"El Salvador","name_adm1":"San Salvador","name_adm2":"Santo Tomás","name_en":"Santo Tomás","iso":"SV"},"geometry":{"type":"Point","coordinates":[-89.195463,13.681515]}},{"type":"Feature","properties":{"country_en":"El Salvador","name":"Los Anisales","name_adm0":"El Salvador","name_adm1":"Sonsonate","name_adm2":"Salcoatitán","name_en":"Los Anisales","iso":"SV"},"geometry":{"type":"Point","coordinates":[-89.76667,13.866669999999997]}},{"type":"Feature","properties":{"country_en":"El Salvador","name":"Apastepeque","name_adm0":"El Salvador","name_adm1":"San Vicente","name_adm2":"Apastepeque","name_en":"Apastepeque","iso":"SV"},"geometry":{"type":"Point","coordinates":[-88.78333,13.66667]}},{"type":"Feature","properties":{"country_en":"El Salvador","name":"Anamorós","name_adm0":"El Salvador","name_adm1":"La Unión","name_adm2":"Anamorós","name_en":"Anamorós","iso":"SV"},"geometry":{"type":"Point","coordinates":[-87.87361,13.74056]}},{"type":"Feature","properties":{"country_en":"El Salvador","name":"San Isidro","name_adm0":"El Salvador","name_adm1":"Cabañas","name_adm2":"San Isidro","name_en":"San Isidro","iso":"SV"},"geometry":{"type":"Point","coordinates":[-88.5795875,13.851413]}},{"type":"Feature","properties":{"country_en":"El Salvador","name":"Santa Rita","name_adm0":"El Salvador","name_adm1":"Chalatenango","name_adm2":"Santa Rita","name_en":"Santa Rita","iso":"SV"},"geometry":{"type":"Point","coordinates":[-89.063415,14.008695999999999]}},{"type":"Feature","properties":{"country_en":"El Salvador","name":"San Pedro Masahuat","name_adm0":"El Salvador","name_adm1":"La Paz","name_adm2":"San Pedro Masahuat","name_en":"San Pedro Masahuat","iso":"SV"},"geometry":{"type":"Point","coordinates":[-88.918533,13.304352999999999]}},{"type":"Feature","properties":{"country_en":"El Salvador","name":"El Carmen","name_adm0":"El Salvador","name_adm1":"La Unión","name_adm2":"El Carmen","name_en":"El Carmen","iso":"SV"},"geometry":{"type":"Point","coordinates":[-87.978515,13.381603]}},{"type":"Feature","properties":{"country_en":"El Salvador","name":"Intipucá","name_adm0":"El Salvador","name_adm1":"La Unión","name_adm2":"Intipucá","name_en":"Intipucá","iso":"SV"},"geometry":{"type":"Point","coordinates":[-88.01422099999999,13.223903]}},{"type":"Feature","properties":{"country_en":"El Salvador","name":"La Libertad","name_adm0":"El Salvador","name_adm1":"La Libertad","name_adm2":"La Libertad","name_en":"La Libertad","iso":"SV"},"geometry":{"type":"Point","coordinates":[-89.34082,13.488459999999998]}},{"type":"Feature","properties":{"country_en":"El Salvador","name":"Tamanique","name_adm0":"El Salvador","name_adm1":"La Libertad","name_adm2":"Tamanique","name_en":"Tamanique","iso":"SV"},"geometry":{"type":"Point","coordinates":[-89.392147,13.493026]}},{"type":"Feature","properties":{"country_en":"El Salvador","name":"Cojutepeque","name_adm0":"El Salvador","name_adm1":"Cuscatlán","name_adm2":"Cojutepeque","name_en":"Cojutepeque","iso":"SV"},"geometry":{"type":"Point","coordinates":[-88.959045,13.707366999999998]}},{"type":"Feature","properties":{"country_en":"El Salvador","name":"Corinto","name_adm0":"El Salvador","name_adm1":"Morazán","name_adm2":"Corinto","name_en":"Corinto","iso":"SV"},"geometry":{"type":"Point","coordinates":[-87.989501,13.84608]}},{"type":"Feature","properties":{"country_en":"El Salvador","name":"Sensuntepeque","name_adm0":"El Salvador","name_adm1":"Cabañas","name_adm2":"Sensuntepeque","name_en":"Sensuntepeque","iso":"SV"},"geometry":{"type":"Point","coordinates":[-88.63333,13.866669999999997]}},{"type":"Feature","properties":{"country_en":"El Salvador","name":"Ahuachapán","name_adm0":"El Salvador","name_adm1":"Ahuachapán","name_adm2":"Ahuachapán","name_en":"Ahuachapán","iso":"SV"},"geometry":{"type":"Point","coordinates":[-89.845,13.92139]}},{"type":"Feature","properties":{"country_en":"El Salvador","name":"Sociedad","name_adm0":"El Salvador","name_adm1":"Morazán","name_adm2":"Sociedad","name_en":"Sociedad","iso":"SV"},"geometry":{"type":"Point","coordinates":[-88.01667,13.7]}},{"type":"Feature","properties":{"country_en":"El Salvador","name":"San Jorge","name_adm0":"El Salvador","name_adm1":"San Miguel","name_adm2":"San Jorge","name_en":"San Jorge","iso":"SV"},"geometry":{"type":"Point","coordinates":[-88.38333,13.68333]}},{"type":"Feature","properties":{"country_en":"El Salvador","name":"Chirilagua","name_adm0":"El Salvador","name_adm1":"San Miguel","name_adm2":"Chirilagua","name_en":"Chirilagua","iso":"SV"},"geometry":{"type":"Point","coordinates":[-88.13860999999999,13.22028]}},{"type":"Feature","properties":{"country_en":"El Salvador","name":"Conchagua","name_adm0":"El Salvador","name_adm1":"La Unión","name_adm2":"Conchagua","name_en":"Conchagua","iso":"SV"},"geometry":{"type":"Point","coordinates":[-87.86472,13.30778]}},{"type":"Feature","properties":{"country_en":"El Salvador","name":"Olomega","name_adm0":"El Salvador","name_adm1":"La Unión","name_adm2":"El Carmen","name_en":"Olomega","iso":"SV"},"geometry":{"type":"Point","coordinates":[-88.02667,13.31111]}},{"type":"Feature","properties":{"country_en":"El Salvador","name":"Santiago Texacuangos","name_adm0":"El Salvador","name_adm1":"San Salvador","name_adm2":"Santiago Texacuango","name_en":"Santiago Texacuangos","iso":"SV"},"geometry":{"type":"Point","coordinates":[-89.11833,13.642779999999998]}},{"type":"Feature","properties":{"country_en":"El Salvador","name":"San Vicente","name_adm0":"El Salvador","name_adm1":"San Vicente","name_en":"San Vicente","iso":"SV"},"geometry":{"type":"Point","coordinates":[-88.74999999999999,13.51667]}},{"type":"Feature","properties":{"country_en":"El Salvador","name":"Mercedes Umaña","name_adm0":"El Salvador","name_adm1":"Usulután","name_adm2":"Mercedes Umaña","name_en":"Mercedes Umaña","iso":"SV"},"geometry":{"type":"Point","coordinates":[-88.508949,13.530855]}},{"type":"Feature","properties":{"country_en":"El Salvador","name":"Usulután","name_adm0":"El Salvador","name_adm1":"Usulután","name_adm2":"Usulután","name_en":"Usulután","iso":"SV"},"geometry":{"type":"Point","coordinates":[-88.45,13.35]}},{"type":"Feature","properties":{"country_en":"El Salvador","name":"Delicias del Norte","name_adm0":"El Salvador","name_adm1":"San Salvador","name_adm2":"Mejicanos","name_en":"Delicias del Norte","iso":"SV"},"geometry":{"type":"Point","coordinates":[-89.21667,13.73333]}},{"type":"Feature","properties":{"country_en":"El Salvador","name":"San Ignacio","name_adm0":"El Salvador","name_adm1":"Chalatenango","name_adm2":"San Ignacio","name_en":"San Ignacio","iso":"SV"},"geometry":{"type":"Point","coordinates":[-89.18332999999998,14.333329999999998]}},{"type":"Feature","properties":{"country_en":"El Salvador","name":"Jujutla","name_adm0":"El Salvador","name_adm1":"Ahuachapán","name_adm2":"Jujutla","name_en":"Jujutla","iso":"SV"},"geometry":{"type":"Point","coordinates":[-89.85722,13.78694]}},{"type":"Feature","properties":{"country_en":"El Salvador","name":"Cuscatlán","name_adm0":"El Salvador","name_adm1":"Cuscatlán","name_en":"Cuscatlán","iso":"SV"},"geometry":{"type":"Point","coordinates":[-89.03332999999999,13.833329999999998]}},{"type":"Feature","properties":{"country_en":"El Salvador","name":"San Francisco Menéndez","name_adm0":"El Salvador","name_adm1":"Ahuachapán","name_adm2":"San Francisco Menéndez","name_en":"San Francisco Menéndez","iso":"SV"},"geometry":{"type":"Point","coordinates":[-90.01583,13.84306]}},{"type":"Feature","properties":{"country_en":"El Salvador","name":"San Vicente","name_adm0":"El Salvador","name_adm1":"San Vicente","name_adm2":"San Vicente","name_en":"San Vicente","iso":"SV"},"geometry":{"type":"Point","coordinates":[-88.79999999999998,13.63333]}},{"type":"Feature","properties":{"country_en":"El Salvador","name":"Santa Ana","name_adm0":"El Salvador","name_adm1":"Santa Ana","name_adm2":"Santa Ana","name_en":"Santa Ana","iso":"SV"},"geometry":{"type":"Point","coordinates":[-89.55972,13.99417]}},{"type":"Feature","properties":{"country_en":"El Salvador","name":"Santa Rosa Guachipilín","name_adm0":"El Salvador","name_adm1":"Santa Ana","name_adm2":"Santa Rosa Guachipilín","name_en":"Santa Rosa Guachipilín","iso":"SV"},"geometry":{"type":"Point","coordinates":[-89.53308099999998,13.957390999999998]}},{"type":"Feature","properties":{"country_en":"El Salvador","name":"Potonico","name_adm0":"El Salvador","name_adm1":"Chalatenango","name_adm2":"Potonico","name_en":"Potonico","iso":"SV"},"geometry":{"type":"Point","coordinates":[-89.063415,14.008695999999999]}},{"type":"Feature","properties":{"country_en":"El Salvador","name":"La Palma","name_adm0":"El Salvador","name_adm1":"Chalatenango","name_adm2":"La Palma","name_en":"La Palma","iso":"SV"},"geometry":{"type":"Point","coordinates":[-89.12315299999999,14.31482]}},{"type":"Feature","properties":{"country_en":"El Salvador","name":"Suchitoto","name_adm0":"El Salvador","name_adm1":"Cuscatlán","name_adm2":"Suchitoto","name_en":"Suchitoto","iso":"SV"},"geometry":{"type":"Point","coordinates":[-89.07285599999999,13.945646]}},{"type":"Feature","properties":{"country_en":"El Salvador","name":"Tepecoyo","name_adm0":"El Salvador","name_adm1":"La Libertad","name_adm2":"Tepecoyo","name_en":"Tepecoyo","iso":"SV"},"geometry":{"type":"Point","coordinates":[-89.46778,13.70028]}},{"type":"Feature","properties":{"country_en":"El Salvador","name":"Nejapa","name_adm0":"El Salvador","name_adm1":"San Salvador","name_adm2":"Nejapa","name_en":"Nejapa","iso":"SV"},"geometry":{"type":"Point","coordinates":[-89.23139,13.81472]}},{"type":"Feature","properties":{"country_en":"El Salvador","name":"El Carrizal","name_adm0":"El Salvador","name_adm1":"Chalatenango","name_adm2":"Tejutla","name_en":"El Carrizal","iso":"SV"},"geometry":{"type":"Point","coordinates":[-89.08332999999999,14.2]}},{"type":"Feature","properties":{"country_en":"El Salvador","name":"San Pedro Perulapán","name_adm0":"El Salvador","name_adm1":"Cuscatlán","name_adm2":"San Pedro Perulapán","name_en":"San Pedro Perulapán","iso":"SV"},"geometry":{"type":"Point","coordinates":[-89.03888999999998,13.77333]}},{"type":"Feature","properties":{"country_en":"El Salvador","name":"Santa Rosa de Lima","name_adm0":"El Salvador","name_adm1":"La Unión","name_adm2":"Santa Rosa de Lima","name_en":"Santa Rosa de Lima","iso":"SV"},"geometry":{"type":"Point","coordinates":[-87.89361,13.62472]}},{"type":"Feature","properties":{"country_en":"El Salvador","name":"Santa Elena","name_adm0":"El Salvador","name_adm1":"Usulután","name_adm2":"Santa Elena","name_en":"Santa Elena","iso":"SV"},"geometry":{"type":"Point","coordinates":[-88.41666999999998,13.38333]}},{"type":"Feature","properties":{"country_en":"El Salvador","name":"Ciudad Barrios","name_adm0":"El Salvador","name_adm1":"San Miguel","name_adm2":"Ciudad Barrios","name_en":"Ciudad Barrios","iso":"SV"},"geometry":{"type":"Point","coordinates":[-88.26666999999999,13.76667]}},{"type":"Feature","properties":{"country_en":"El Salvador","name":"Ciudad Arce","name_adm0":"El Salvador","name_adm1":"La Libertad","name_adm2":"Ciudad Arce","name_en":"Ciudad Arce","iso":"SV"},"geometry":{"type":"Point","coordinates":[-89.44722,13.84028]}},{"type":"Feature","properties":{"country_en":"El Salvador","name":"Chinameca","name_adm0":"El Salvador","name_adm1":"San Miguel","name_adm2":"Chinameca","name_en":"Chinameca","iso":"SV"},"geometry":{"type":"Point","coordinates":[-88.35,13.5]}},{"type":"Feature","properties":{"country_en":"El Salvador","name":"San Antonio del Monte","name_adm0":"El Salvador","name_adm1":"Sonsonate","name_adm2":"San Antonio del Monte","name_en":"San Antonio del Monte","iso":"SV"},"geometry":{"type":"Point","coordinates":[-89.73833,13.71639]}},{"type":"Feature","properties":{"country_en":"El Salvador","name":"Cuscatancingo","name_adm0":"El Salvador","name_adm1":"San Salvador","name_adm2":"Cuscatancingo","name_en":"Cuscatancingo","iso":"SV"},"geometry":{"type":"Point","coordinates":[-89.17353599999998,13.725951999999998]}},{"type":"Feature","properties":{"country_en":"El Salvador","name":"Sesori","name_adm0":"El Salvador","name_adm1":"San Miguel","name_adm2":"Sesori","name_en":"Sesori","iso":"SV"},"geometry":{"type":"Point","coordinates":[-88.395996,13.752724]}},{"type":"Feature","properties":{"country_en":"El Salvador","name":"Gualococti","name_adm0":"El Salvador","name_adm1":"Morazán","name_adm2":"Gualococti","name_en":"Gualococti","iso":"SV"},"geometry":{"type":"Point","coordinates":[-88.21667,13.81667]}},{"type":"Feature","properties":{"country_en":"El Salvador","name":"San Francisco Morazán","name_adm0":"El Salvador","name_adm1":"Chalatenango","name_adm2":"San Francisco Morazán","name_en":"San Francisco Morazán","iso":"SV"},"geometry":{"type":"Point","coordinates":[-89.05,14.18333]}},{"type":"Feature","properties":{"country_en":"El Salvador","name":"San Juan Talpa","name_adm0":"El Salvador","name_adm1":"La Paz","name_adm2":"San Juan Talpa","name_en":"San Juan Talpa","iso":"SV"},"geometry":{"type":"Point","coordinates":[-89.09083,13.50278]}},{"type":"Feature","properties":{"country_en":"El Salvador","name":"San Rafael Obrajuelo","name_adm0":"El Salvador","name_adm1":"La Paz","name_adm2":"San Rafael Obrajuelo","name_en":"San Rafael Obrajuelo","iso":"SV"},"geometry":{"type":"Point","coordinates":[-88.93333,13.5]}},{"type":"Feature","properties":{"country_en":"El Salvador","name":"Santa Elena","name_adm0":"El Salvador","name_adm1":"Usulután","name_adm2":"Santa Elena","name_en":"Santa Elena","iso":"SV"},"geometry":{"type":"Point","coordinates":[-88.439941,13.333502]}},{"type":"Feature","properties":{"country_en":"El Salvador","name":"Cara Sucia","name_adm0":"El Salvador","name_adm1":"Ahuachapán","name_adm2":"San Francisco Menéndez","name_en":"Cara Sucia","iso":"SV"},"geometry":{"type":"Point","coordinates":[-90.03583,13.77917]}},{"type":"Feature","properties":{"country_en":"El Salvador","name":"Las Cruces","name_adm0":"El Salvador","name_adm1":"Santa Ana","name_adm2":"Chalchuara","name_en":"Las Cruces","iso":"SV"},"geometry":{"type":"Point","coordinates":[-89.65582999999998,13.91389]}},{"type":"Feature","properties":{"country_en":"El Salvador","name":"Santa Ana","name_adm0":"El Salvador","name_adm1":"Santa Ana","name_en":"Santa Ana","iso":"SV"},"geometry":{"type":"Point","coordinates":[-89.58333,14.1]}},{"type":"Feature","properties":{"country_en":"El Salvador","name":"Botoncillal","name_adm0":"El Salvador","name_adm1":"La Libertad","name_adm2":"Colón","name_en":"Botoncillal","iso":"SV"},"geometry":{"type":"Point","coordinates":[-89.35,13.73333]}},{"type":"Feature","properties":{"country_en":"El Salvador","name":"El Paisnal","name_adm0":"El Salvador","name_adm1":"San Salvador","name_adm2":"El Paisnal","name_en":"El Paisnal","iso":"SV"},"geometry":{"type":"Point","coordinates":[-89.21861,13.97361]}},{"type":"Feature","properties":{"country_en":"El Salvador","name":"Ozatlán","name_adm0":"El Salvador","name_adm1":"Usulután","name_adm2":"Ozatlán","name_en":"Ozatlán","iso":"SV"},"geometry":{"type":"Point","coordinates":[-88.5,13.38333]}},{"type":"Feature","properties":{"country_en":"El Salvador","name":"Santo Tomás","name_adm0":"El Salvador","name_adm1":"San Salvador","name_adm2":"Santo Tomás","name_en":"Santo Tomás","iso":"SV"},"geometry":{"type":"Point","coordinates":[-89.13332999999999,13.64083]}},{"type":"Feature","properties":{"country_en":"El Salvador","name":"Nueva Concepción","name_adm0":"El Salvador","name_adm1":"Chalatenango","name_adm2":"Nueva Concepción","name_en":"Nueva Concepción","iso":"SV"},"geometry":{"type":"Point","coordinates":[-89.351806,14.080636999999998]}},{"type":"Feature","properties":{"country_en":"El Salvador","name":"San Agustín","name_adm0":"El Salvador","name_adm1":"Usulután","name_adm2":"San Agustín","name_en":"San Agustín","iso":"SV"},"geometry":{"type":"Point","coordinates":[-88.6,13.433329999999998]}},{"type":"Feature","properties":{"country_en":"El Salvador","name":"El Triunfo","name_adm0":"El Salvador","name_adm1":"Usulután","name_adm2":"El Triunfo","name_en":"El Triunfo","iso":"SV"},"geometry":{"type":"Point","coordinates":[-88.43333,13.566669999999998]}},{"type":"Feature","properties":{"country_en":"El Salvador","name":"Ereguayquín","name_adm0":"El Salvador","name_adm1":"Usulután","name_adm2":"Ereguayquín","name_en":"Ereguayquín","iso":"SV"},"geometry":{"type":"Point","coordinates":[-88.38333,13.35]}},{"type":"Feature","properties":{"country_en":"El Salvador","name":"Estanzuelas","name_adm0":"El Salvador","name_adm1":"Usulután","name_adm2":"Estezuelas","name_en":"Estanzuelas","iso":"SV"},"geometry":{"type":"Point","coordinates":[-88.5,13.65]}},{"type":"Feature","properties":{"country_en":"El Salvador","name":"Guadalupe","name_adm0":"El Salvador","name_adm1":"San Vicente","name_adm2":"Guadalupe","name_en":"Guadalupe","iso":"SV"},"geometry":{"type":"Point","coordinates":[-88.88333,13.61667]}},{"type":"Feature","properties":{"country_en":"El Salvador","name":"Gualache","name_adm0":"El Salvador","name_adm1":"Usulután","name_adm2":"Tecapán","name_en":"Gualache","iso":"SV"},"geometry":{"type":"Point","coordinates":[-88.5,13.41667]}},{"type":"Feature","properties":{"country_en":"El Salvador","name":"San Fernando","name_adm0":"El Salvador","name_adm1":"Chalatenango","name_adm2":"San Fernando","name_en":"San Fernando","iso":"SV"},"geometry":{"type":"Point","coordinates":[-89.03332999999999,14.3]}},{"type":"Feature","properties":{"country_en":"El Salvador","name":"San Antonio Masahuat","name_adm0":"El Salvador","name_adm1":"La Paz","name_adm2":"San Antonio Masahuat","name_en":"San Antonio Masahuat","iso":"SV"},"geometry":{"type":"Point","coordinates":[-89.03917,13.56806]}},{"type":"Feature","properties":{"country_en":"El Salvador","name":"San Francisco Chinameca","name_adm0":"El Salvador","name_adm1":"La Paz","name_adm2":"San Francisco Chinameca","name_en":"San Francisco Chinameca","iso":"SV"},"geometry":{"type":"Point","coordinates":[-89.09639,13.60556]}},{"type":"Feature","properties":{"country_en":"El Salvador","name":"Turín","name_adm0":"El Salvador","name_adm1":"Ahuachapán","name_adm2":"Turín","name_en":"Turín","iso":"SV"},"geometry":{"type":"Point","coordinates":[-89.76611,13.966389999999999]}},{"type":"Feature","properties":{"country_en":"El Salvador","name":"Verapaz","name_adm0":"El Salvador","name_adm1":"San Vicente","name_adm2":"Verapaz","name_en":"Verapaz","iso":"SV"},"geometry":{"type":"Point","coordinates":[-88.86667,13.65]}},{"type":"Feature","properties":{"country_en":"El Salvador","name":"Yoloaiquín","name_adm0":"El Salvador","name_adm1":"Morazán","name_adm2":"Yoloaiquín","name_en":"Yoloaiquín","iso":"SV"},"geometry":{"type":"Point","coordinates":[-88.15,13.76667]}},{"type":"Feature","properties":{"country_en":"El Salvador","name":"Zaragoza","name_adm0":"El Salvador","name_adm1":"La Libertad","name_adm2":"Zaragoza","name_en":"Zaragoza","iso":"SV"},"geometry":{"type":"Point","coordinates":[-89.286403,13.581003]}},{"type":"Feature","properties":{"country_en":"El Salvador","name":"Ojos de Agua","name_adm0":"El Salvador","name_adm1":"Chalatenango","name_adm2":"Ojos de Agua","name_en":"Ojos de Agua","iso":"SV"},"geometry":{"type":"Point","coordinates":[-89.06667,14.13333]}},{"type":"Feature","properties":{"country_en":"El Salvador","name":"Jocoaitique","name_adm0":"El Salvador","name_adm1":"Morazán","name_adm2":"Jocoaitique","name_en":"Jocoaitique","iso":"SV"},"geometry":{"type":"Point","coordinates":[-88.15,13.9]}},{"type":"Feature","properties":{"country_en":"El Salvador","name":"Jiquilisco","name_adm0":"El Salvador","name_adm1":"Usulután","name_adm2":"Jiquilisco","name_en":"Jiquilisco","iso":"SV"},"geometry":{"type":"Point","coordinates":[-88.58333,13.31667]}},{"type":"Feature","properties":{"country_en":"El Salvador","name":"Tacuba","name_adm0":"El Salvador","name_adm1":"Ahuachapán","name_adm2":"Tacuba","name_en":"Tacuba","iso":"SV"},"geometry":{"type":"Point","coordinates":[-89.92971999999999,13.90111]}},{"type":"Feature","properties":{"country_en":"El Salvador","name":"Sonzacate","name_adm0":"El Salvador","name_adm1":"Sonsonate","name_adm2":"Sonzacate","name_en":"Sonzacate","iso":"SV"},"geometry":{"type":"Point","coordinates":[-89.71472,13.73417]}},{"type":"Feature","properties":{"country_en":"El Salvador","name":"Santiago Nonualco","name_adm0":"El Salvador","name_adm1":"La Paz","name_adm2":"Santiago Nonualco","name_en":"Santiago Nonualco","iso":"SV"},"geometry":{"type":"Point","coordinates":[-88.95,13.51667]}},{"type":"Feature","properties":{"country_en":"El Salvador","name":"San Pablo Tacachico","name_adm0":"El Salvador","name_adm1":"La Libertad","name_adm2":"San Pablo Tacachico","name_en":"San Pablo Tacachico","iso":"SV"},"geometry":{"type":"Point","coordinates":[-89.34,13.97556]}},{"type":"Feature","properties":{"country_en":"El Salvador","name":"San Marcos","name_adm0":"El Salvador","name_adm1":"San Salvador","name_adm2":"San Marcos","name_en":"San Marcos","iso":"SV"},"geometry":{"type":"Point","coordinates":[-89.18306,13.65889]}},{"type":"Feature","properties":{"country_en":"El Salvador","name":"San Alejo","name_adm0":"El Salvador","name_adm1":"La Unión","name_adm2":"San Alejo","name_en":"San Alejo","iso":"SV"},"geometry":{"type":"Point","coordinates":[-87.96305999999998,13.431389999999999]}},{"type":"Feature","properties":{"country_en":"El Salvador","name":"Moncagua","name_adm0":"El Salvador","name_adm1":"San Miguel","name_adm2":"Moncagua","name_en":"Moncagua","iso":"SV"},"geometry":{"type":"Point","coordinates":[-88.25,13.53333]}},{"type":"Feature","properties":{"country_en":"El Salvador","name":"Lolotique","name_adm0":"El Salvador","name_adm1":"San Miguel","name_adm2":"Lolotique","name_en":"Lolotique","iso":"SV"},"geometry":{"type":"Point","coordinates":[-88.35,13.55]}},{"type":"Feature","properties":{"country_en":"El Salvador","name":"La Libertad","name_adm0":"El Salvador","name_adm1":"La Libertad","name_adm2":"La Libertad","name_en":"La Libertad","iso":"SV"},"geometry":{"type":"Point","coordinates":[-89.32221999999999,13.488329999999998]}},{"type":"Feature","properties":{"country_en":"El Salvador","name":"Jucuarán","name_adm0":"El Salvador","name_adm1":"Usulután","name_adm2":"Jucuarán","name_en":"Jucuarán","iso":"SV"},"geometry":{"type":"Point","coordinates":[-88.24777999999999,13.25389]}},{"type":"Feature","properties":{"country_en":"El Salvador","name":"Jucuapa","name_adm0":"El Salvador","name_adm1":"Usulután","name_adm2":"Jucuapa","name_en":"Jucuapa","iso":"SV"},"geometry":{"type":"Point","coordinates":[-88.38333,13.51667]}},{"type":"Feature","properties":{"country_en":"El Salvador","name":"Jocoro","name_adm0":"El Salvador","name_adm1":"Morazán","name_adm2":"Jocoro","name_en":"Jocoro","iso":"SV"},"geometry":{"type":"Point","coordinates":[-88.01667,13.61667]}},{"type":"Feature","properties":{"country_en":"El Salvador","name":"El Tránsito","name_adm0":"El Salvador","name_adm1":"San Miguel","name_adm2":"El Tránsito","name_en":"El Tránsito","iso":"SV"},"geometry":{"type":"Point","coordinates":[-88.35,13.35]}},{"type":"Feature","properties":{"country_en":"El Salvador","name":"El Rosario","name_adm0":"El Salvador","name_adm1":"La Paz","name_adm2":"El Rosario","name_en":"El Rosario","iso":"SV"},"geometry":{"type":"Point","coordinates":[-89.02972,13.49778]}},{"type":"Feature","properties":{"country_en":"El Salvador","name":"El Congo","name_adm0":"El Salvador","name_adm1":"Santa Ana","name_adm2":"El Congo","name_en":"El Congo","iso":"SV"},"geometry":{"type":"Point","coordinates":[-89.49583,13.90889]}},{"type":"Feature","properties":{"country_en":"El Salvador","name":"Cuscatancingo","name_adm0":"El Salvador","name_adm1":"San Salvador","name_adm2":"Cuscatancingo","name_en":"Cuscatancingo","iso":"SV"},"geometry":{"type":"Point","coordinates":[-89.18139,13.73611]}},{"type":"Feature","properties":{"country_en":"El Salvador","name":"Corinto","name_adm0":"El Salvador","name_adm1":"Morazán","name_adm2":"Corinto","name_en":"Corinto","iso":"SV"},"geometry":{"type":"Point","coordinates":[-87.97139,13.81083]}},{"type":"Feature","properties":{"country_en":"El Salvador","name":"Concepción de Ataco","name_adm0":"El Salvador","name_adm1":"Ahuachapán","name_adm2":"Concepción de Ataco","name_en":"Concepción de Ataco","iso":"SV"},"geometry":{"type":"Point","coordinates":[-89.84861,13.87028]}},{"type":"Feature","properties":{"country_en":"El Salvador","name":"Candelaria de La Frontera","name_adm0":"El Salvador","name_adm1":"Santa Ana","name_adm2":"Candelaria de la Frontera","name_en":"Candelaria de La Frontera","iso":"SV"},"geometry":{"type":"Point","coordinates":[-89.65,14.11667]}},{"type":"Feature","properties":{"country_en":"El Salvador","name":"Berlín","name_adm0":"El Salvador","name_adm1":"Usulután","name_adm2":"Berlín","name_en":"Berlín","iso":"SV"},"geometry":{"type":"Point","coordinates":[-88.53333,13.5]}},{"type":"Feature","properties":{"country_en":"El Salvador","name":"Suchitoto","name_adm0":"El Salvador","name_adm1":"Cuscatlán","name_adm2":"Suchitoto","name_en":"Suchitoto","iso":"SV"},"geometry":{"type":"Point","coordinates":[-89.02778,13.93806]}},{"type":"Feature","properties":{"country_en":"El Salvador","name":"Panchimalco","name_adm0":"El Salvador","name_adm1":"San Salvador","name_adm2":"Panchimalco","name_en":"Panchimalco","iso":"SV"},"geometry":{"type":"Point","coordinates":[-89.18,13.61278]}},{"type":"Feature","properties":{"country_en":"El Salvador","name":"San Francisco Gotera","name_adm0":"El Salvador","name_adm1":"Morazán","name_adm2":"San Francisco Gotera","name_en":"San Francisco Gotera","iso":"SV"},"geometry":{"type":"Point","coordinates":[-88.10537299999999,13.701696]}},{"type":"Feature","properties":{"country_en":"El Salvador","name":"Mejicanos","name_adm0":"El Salvador","name_adm1":"San Salvador","name_adm2":"Mejicanos","name_en":"Mejicanos","iso":"SV"},"geometry":{"type":"Point","coordinates":[-89.19909599999998,13.720708]}},{"type":"Feature","properties":{"country_en":"El Salvador","name":"Cacaopera","name_adm0":"El Salvador","name_adm1":"Morazán","name_adm2":"Cacaopera","name_en":"Cacaopera","iso":"SV"},"geometry":{"type":"Point","coordinates":[-88.05949999999999,13.772665999999997]}},{"type":"Feature","properties":{"country_en":"El Salvador","name":"Chilanga","name_adm0":"El Salvador","name_adm1":"Morazán","name_adm2":"Chilanga","name_en":"Chilanga","iso":"SV"},"geometry":{"type":"Point","coordinates":[-88.121852,13.876746]}},{"type":"Feature","properties":{"country_en":"El Salvador","name":"San Salvador","name_adm0":"El Salvador","name_adm1":"San Salvador","name_adm2":"San Salvador","name_en":"San Salvador","iso":"SV"},"geometry":{"type":"Point","coordinates":[-89.197998,13.699360999999998]}},{"type":"Feature","properties":{"country_en":"El Salvador","name":"Pasaquina","name_adm0":"El Salvador","name_adm1":"La Unión","name_adm2":"Pasaquina","name_en":"Pasaquina","iso":"SV"},"geometry":{"type":"Point","coordinates":[-87.771835,13.588595]}},{"type":"Feature","properties":{"country_en":"El Salvador","name":"Ayutuxtepeque","name_adm0":"El Salvador","name_adm1":"San Salvador","name_adm2":"Ayutuxtepeque","name_en":"Ayutuxtepeque","iso":"SV"},"geometry":{"type":"Point","coordinates":[-89.21447699999999,13.754057999999999]}},{"type":"Feature","properties":{"country_en":"El Salvador","name":"Barra de Santiago","name_adm0":"El Salvador","name_adm1":"Ahuachapán","name_adm2":"Jujutla","name_en":"Barra de Santiago","iso":"SV"},"geometry":{"type":"Point","coordinates":[-90.00639,13.69722]}},{"type":"Feature","properties":{"country_en":"El Salvador","name":"Caluco","name_adm0":"El Salvador","name_adm1":"Sonsonate","name_adm2":"Caluco","name_en":"Caluco","iso":"SV"},"geometry":{"type":"Point","coordinates":[-89.66222,13.72361]}},{"type":"Feature","properties":{"country_en":"El Salvador","name":"Cinquera","name_adm0":"El Salvador","name_adm1":"Cabañas","name_adm2":"Cinquera","name_en":"Cinquera","iso":"SV"},"geometry":{"type":"Point","coordinates":[-88.96667,13.88333]}},{"type":"Feature","properties":{"country_en":"El Salvador","name":"La Unión","name_adm0":"El Salvador","name_adm1":"La Unión","name_adm2":"La Unión","name_en":"La Unión","iso":"SV"},"geometry":{"type":"Point","coordinates":[-87.84389,13.33694]}},{"type":"Feature","properties":{"country_en":"El Salvador","name":"Juayúa","name_adm0":"El Salvador","name_adm1":"Sonsonate","name_adm2":"Juayúa","name_en":"Juayúa","iso":"SV"},"geometry":{"type":"Point","coordinates":[-89.74556,13.84139]}},{"type":"Feature","properties":{"country_en":"El Salvador","name":"Ilopango","name_adm0":"El Salvador","name_adm1":"San Salvador","name_adm2":"Ilopango","name_en":"Ilopango","iso":"SV"},"geometry":{"type":"Point","coordinates":[-89.10944,13.70167]}},{"type":"Feature","properties":{"country_en":"El Salvador","name":"Dulce Nombre de María","name_adm0":"El Salvador","name_adm1":"Chalatenango","name_adm2":"Dulce Nombre de María","name_en":"Dulce Nombre de María","iso":"SV"},"geometry":{"type":"Point","coordinates":[-89.01667,14.15]}},{"type":"Feature","properties":{"country_en":"El Salvador","name":"San Miguel Tepezontes","name_adm0":"El Salvador","name_adm1":"La Paz","name_adm2":"San Miguel Tepezontes","name_en":"San Miguel Tepezontes","iso":"SV"},"geometry":{"type":"Point","coordinates":[-89.02138999999998,13.6225]}},{"type":"Feature","properties":{"country_en":"El Salvador","name":"Nuevo Edén","name_adm0":"El Salvador","name_adm1":"La Paz","name_adm2":"San Luis","name_en":"Nuevo Edén","iso":"SV"},"geometry":{"type":"Point","coordinates":[-89.08332999999999,13.46667]}},{"type":"Feature","properties":{"country_en":"El Salvador","name":"Osicala","name_adm0":"El Salvador","name_adm1":"Morazán","name_adm2":"Delicias de Concepción","name_en":"Osicala","iso":"SV"},"geometry":{"type":"Point","coordinates":[-88.15,13.8]}},{"type":"Feature","properties":{"country_en":"El Salvador","name":"San Antonio","name_adm0":"El Salvador","name_adm1":"San Miguel","name_adm2":"San Miguel","name_en":"San Antonio","iso":"SV"},"geometry":{"type":"Point","coordinates":[-88.26666999999999,13.833329999999998]}},{"type":"Feature","properties":{"country_en":"El Salvador","name":"Playas Negras","name_adm0":"El Salvador","name_adm1":"La Unión","name_adm2":"Conchagua","name_en":"Playas Negras","iso":"SV"},"geometry":{"type":"Point","coordinates":[-87.94444,13.16583]}},{"type":"Feature","properties":{"country_en":"El Salvador","name":"Chiltiupán","name_adm0":"El Salvador","name_adm1":"La Libertad","name_adm2":"Chiltiupán","name_en":"Chiltiupán","iso":"SV"},"geometry":{"type":"Point","coordinates":[-89.46889,13.59056]}},{"type":"Feature","properties":{"country_en":"El Salvador","name":"Paraíso de Osorio","name_adm0":"El Salvador","name_adm1":"La Paz","name_adm2":"Paraíso de Osorio","name_en":"Paraíso de Osorio","iso":"SV"},"geometry":{"type":"Point","coordinates":[-88.96667,13.63333]}},{"type":"Feature","properties":{"country_en":"El Salvador","name":"Sacacoyo","name_adm0":"El Salvador","name_adm1":"La Libertad","name_adm2":"Sacacoyo","name_en":"Sacacoyo","iso":"SV"},"geometry":{"type":"Point","coordinates":[-89.47194,13.73639]}},{"type":"Feature","properties":{"country_en":"El Salvador","name":"Agua Caliente","name_adm0":"El Salvador","name_adm1":"Chalatenango","name_adm2":"Agua Caliente","name_en":"Agua Caliente","iso":"SV"},"geometry":{"type":"Point","coordinates":[-89.063415,14.008695999999999]}},{"type":"Feature","properties":{"country_en":"El Salvador","name":"Arcatao","name_adm0":"El Salvador","name_adm1":"Chalatenango","name_adm2":"Arcatao","name_en":"Arcatao","iso":"SV"},"geometry":{"type":"Point","coordinates":[-89.063415,14.008695999999999]}},{"type":"Feature","properties":{"country_en":"El Salvador","name":"Victoria","name_adm0":"El Salvador","name_adm1":"Cabañas","name_adm2":"Victoria","name_en":"Victoria","iso":"SV"},"geometry":{"type":"Point","coordinates":[-88.742065,13.91274]}},{"type":"Feature","properties":{"country_en":"El Salvador","name":"Guazapa","name_adm0":"El Salvador","name_adm1":"San Salvador","name_adm2":"Guazapa","name_en":"Guazapa","iso":"SV"},"geometry":{"type":"Point","coordinates":[-89.17306,13.87694]}},{"type":"Feature","properties":{"country_en":"El Salvador","name":"Moncagua","name_adm0":"El Salvador","name_adm1":"San Miguel","name_adm2":"Moncagua","name_en":"Moncagua","iso":"SV"},"geometry":{"type":"Point","coordinates":[-88.30862,13.33876]}},{"type":"Feature","properties":{"country_en":"El Salvador","name":"Aguilares","name_adm0":"El Salvador","name_adm1":"San Salvador","name_adm2":"Aguilares","name_en":"Aguilares","iso":"SV"},"geometry":{"type":"Point","coordinates":[-89.18972,13.95722]}},{"type":"Feature","properties":{"country_en":"El Salvador","name":"Coatepeque","name_adm0":"El Salvador","name_adm1":"Santa Ana","name_adm2":"Coatepeque","name_en":"Coatepeque","iso":"SV"},"geometry":{"type":"Point","coordinates":[-89.50417,13.928609999999999]}},{"type":"Feature","properties":{"country_en":"El Salvador","name":"Metapán","name_adm0":"El Salvador","name_adm1":"Santa Ana","name_adm2":"Metapán","name_en":"Metapán","iso":"SV"},"geometry":{"type":"Point","coordinates":[-89.45,14.333329999999998]}},{"type":"Feature","properties":{"country_en":"El Salvador","name":"Quelepa","name_adm0":"El Salvador","name_adm1":"San Miguel","name_adm2":"Quelepa","name_en":"Quelepa","iso":"SV"},"geometry":{"type":"Point","coordinates":[-88.30862,13.33876]}},{"type":"Feature","properties":{"country_en":"El Salvador","name":"Potero Gde. Abajo","name_adm0":"El Salvador","name_adm1":"Santa Ana","name_adm2":"Santa Ana","name_en":"Potero Gde. Abajo","iso":"SV"},"geometry":{"type":"Point","coordinates":[-89.59861,13.9275]}},{"type":"Feature","properties":{"country_en":"El Salvador","name":"El Paraisal","name_adm0":"El Salvador","name_adm1":"Usulután","name_adm2":"Concepción Batres","name_en":"El Paraisal","iso":"SV"},"geometry":{"type":"Point","coordinates":[-87.60832999999998,13.88583]}},