{"type":"FeatureCollection","features":[{"type":"Feature","properties":{"country_en":"Uganda","name":"Kasese","name_adm0":"Uganda","name_adm1":"Kasese","name_en":"Kasese","iso":"UG"},"geometry":{"type":"Point","coordinates":[29.970702999999997,-0.043945]}},{"type":"Feature","properties":{"country_en":"Uganda","name":"Lira","name_adm0":"Uganda","name_adm1":"Lira","name_en":"Lira","iso":"UG"},"geometry":{"type":"Point","coordinates":[32.854614,2.306505]}},{"type":"Feature","properties":{"country_en":"Uganda","name":"Maruzi","name_adm0":"Uganda","name_adm1":"Apac","name_adm2":"Maruzi","name_en":"Maruzi","iso":"UG"},"geometry":{"type":"Point","coordinates":[32.497558,2.056565]}},{"type":"Feature","properties":{"country_en":"Uganda","name":"Bukedea","name_adm0":"Uganda","name_adm1":"Bukedea","name_adm2":"Bukedea","name_en":"Bukedea","iso":"UG"},"geometry":{"type":"Point","coordinates":[34.05056,1.31694]}},{"type":"Feature","properties":{"country_en":"Uganda","name":"Bugaya","name_adm0":"Uganda","name_adm1":"Kamuli","name_adm2":"Budiope","name_en":"Bugaya","iso":"UG"},"geometry":{"type":"Point","coordinates":[33.244719999999994,1.09139]}},{"type":"Feature","properties":{"country_en":"Uganda","name":"Bugoye","name_adm0":"Uganda","name_adm1":"Kasese","name_adm2":"Busongora","name_en":"Bugoye","iso":"UG"},"geometry":{"type":"Point","coordinates":[30.1,0.3]}},{"type":"Feature","properties":{"country_en":"Uganda","name":"Busiu","name_adm0":"Uganda","name_adm1":"Mbale","name_adm2":"Bungokho","name_en":"Busiu","iso":"UG"},"geometry":{"type":"Point","coordinates":[34.16194,0.91722]}},{"type":"Feature","properties":{"country_en":"Uganda","name":"Naigobia","name_adm0":"Uganda","name_adm1":"Iganga","name_adm2":"Luuka","name_en":"Naigobia","iso":"UG"},"geometry":{"type":"Point","coordinates":[33.35639,0.8261099999999999]}},{"type":"Feature","properties":{"country_en":"Uganda","name":"Naam Okora","name_adm0":"Uganda","name_adm1":"Kitgum","name_adm2":"Chua","name_en":"Naam Okora","iso":"UG"},"geometry":{"type":"Point","coordinates":[33.34639,3.3383299999999996]}},{"type":"Feature","properties":{"country_en":"Uganda","name":"Puranga","name_adm0":"Uganda","name_adm1":"Pader","name_adm2":"Aruu","name_en":"Puranga","iso":"UG"},"geometry":{"type":"Point","coordinates":[32.94694,2.59806]}},{"type":"Feature","properties":{"country_en":"Uganda","name":"Kakoge","name_adm0":"Uganda","name_adm1":"Nakasongola","name_adm2":"Buruli","name_en":"Kakoge","iso":"UG"},"geometry":{"type":"Point","coordinates":[32.45611,1.0566699999999998]}},{"type":"Feature","properties":{"country_en":"Uganda","name":"Kakoro","name_adm0":"Uganda","name_adm1":"Budaka","name_adm2":"Butebo","name_en":"Kakoro","iso":"UG"},"geometry":{"type":"Point","coordinates":[33.16667,1.48333]}},{"type":"Feature","properties":{"country_en":"Uganda","name":"Katugo","name_adm0":"Uganda","name_adm1":"Nakasongola","name_adm2":"Buruli","name_en":"Katugo","iso":"UG"},"geometry":{"type":"Point","coordinates":[32.45417,1.15583]}},{"type":"Feature","properties":{"country_en":"Uganda","name":"Kayunga","name_adm0":"Uganda","name_adm1":"Kayunga","name_adm2":"Ntenjeru","name_en":"Kayunga","iso":"UG"},"geometry":{"type":"Point","coordinates":[32.885,0.7525]}},{"type":"Feature","properties":{"country_en":"Uganda","name":"Kibale","name_adm0":"Uganda","name_adm1":"Rakai","name_adm2":"Kakuuto","name_en":"Kibale","iso":"UG"},"geometry":{"type":"Point","coordinates":[31.58333,-0.33333]}},{"type":"Feature","properties":{"country_en":"Uganda","name":"Bubada","name_adm0":"Uganda","name_adm1":"Butaleja","name_adm2":"Bunyole","name_en":"Bubada","iso":"UG"},"geometry":{"type":"Point","coordinates":[32.48333,0.45]}},{"type":"Feature","properties":{"country_en":"Uganda","name":"Kayonza","name_adm0":"Uganda","name_adm1":"Kayunga","name_adm2":"Bbaale","name_en":"Kayonza","iso":"UG"},"geometry":{"type":"Point","coordinates":[32.85527999999999,0.88583]}},{"type":"Feature","properties":{"country_en":"Uganda","name":"Kazwama","name_adm0":"Uganda","name_adm1":"Nakasongola","name_adm2":"Buruli","name_en":"Kazwama","iso":"UG"},"geometry":{"type":"Point","coordinates":[32.65,1.3333299999999997]}},{"type":"Feature","properties":{"country_en":"Uganda","name":"Kibanga Port","name_adm0":"Uganda","name_adm1":"Mukono","name_adm2":"Mukono","name_en":"Kibanga Port","iso":"UG"},"geometry":{"type":"Point","coordinates":[32.87583,0.17639]}},{"type":"Feature","properties":{"country_en":"Uganda","name":"Nabiswera","name_adm0":"Uganda","name_adm1":"Nakasongola","name_adm2":"Buruli","name_en":"Nabiswera","iso":"UG"},"geometry":{"type":"Point","coordinates":[32.26472,1.46]}},{"type":"Feature","properties":{"country_en":"Uganda","name":"Entebbe","name_adm0":"Uganda","name_adm1":"Wakiso","name_adm2":"Entebbe","name_en":"Entebbe","iso":"UG"},"geometry":{"type":"Point","coordinates":[32.46614399999999,0.054931]}},{"type":"Feature","properties":{"country_en":"Uganda","name":"Kyadondo","name_adm0":"Uganda","name_adm1":"Wakiso","name_adm2":"Kyadondo","name_en":"Kyadondo","iso":"UG"},"geometry":{"type":"Point","coordinates":[32.541503,0.402199]}},{"type":"Feature","properties":{"country_en":"Uganda","name":"Kakiri","name_adm0":"Uganda","name_adm1":"Wakiso","name_adm2":"Busiiro","name_en":"Kakiri","iso":"UG"},"geometry":{"type":"Point","coordinates":[32.375,0.42306]}},{"type":"Feature","properties":{"country_en":"Uganda","name":"Kakumiro","name_adm0":"Uganda","name_adm1":"Kibaale","name_adm2":"Bugangaizi","name_en":"Kakumiro","iso":"UG"},"geometry":{"type":"Point","coordinates":[31.308330000000005,0.7944399999999999]}},{"type":"Feature","properties":{"country_en":"Uganda","name":"Orungo","name_adm0":"Uganda","name_adm1":"Amuria","name_adm2":"Amuria","name_en":"Orungo","iso":"UG"},"geometry":{"type":"Point","coordinates":[33.45722,2.01611]}},{"type":"Feature","properties":{"country_en":"Uganda","name":"Mutukula","name_adm0":"Uganda","name_adm1":"Rakai","name_adm2":"Kakuuto","name_en":"Mutukula","iso":"UG"},"geometry":{"type":"Point","coordinates":[31.39389,-0.95806]}},{"type":"Feature","properties":{"country_en":"Uganda","name":"Lira","name_adm0":"Uganda","name_adm1":"Lira","name_adm2":"Lira","name_en":"Lira","iso":"UG"},"geometry":{"type":"Point","coordinates":[32.89985,2.2499]}},{"type":"Feature","properties":{"country_en":"Uganda","name":"Kole","name_adm0":"Uganda","name_adm1":"Apac","name_adm2":"Kole","name_en":"Kole","iso":"UG"},"geometry":{"type":"Point","coordinates":[32.80034,2.40015]}},{"type":"Feature","properties":{"country_en":"Uganda","name":"Arua","name_adm0":"Uganda","name_adm1":"Arua","name_adm2":"Arua","name_en":"Arua","iso":"UG"},"geometry":{"type":"Point","coordinates":[31.16667,2.96667]}},{"type":"Feature","properties":{"country_en":"Uganda","name":"Buhweju","name_adm0":"Uganda","name_adm1":"Bushenyi","name_adm2":"Buhweju","name_en":"Buhweju","iso":"UG"},"geometry":{"type":"Point","coordinates":[30.30029,-0.35027]}},{"type":"Feature","properties":{"country_en":"Uganda","name":"Muduma","name_adm0":"Uganda","name_adm1":"Mpigi","name_adm2":"Mawokota","name_en":"Muduma","iso":"UG"},"geometry":{"type":"Point","coordinates":[32.29889,0.35139]}},{"type":"Feature","properties":{"country_en":"Uganda","name":"Kitgum","name_adm0":"Uganda","name_adm1":"Kitgum","name_en":"Kitgum","iso":"UG"},"geometry":{"type":"Point","coordinates":[32.9464525,3.387315]}},{"type":"Feature","properties":{"country_en":"Uganda","name":"Kahunge","name_adm0":"Uganda","name_adm1":"Kamwenge","name_adm2":"Kibaale","name_en":"Kahunge","iso":"UG"},"geometry":{"type":"Point","coordinates":[30.41917,0.3480599999999999]}},{"type":"Feature","properties":{"country_en":"Uganda","name":"Wakiso","name_adm0":"Uganda","name_adm1":"Wakiso","name_adm2":"Busiiro","name_en":"Wakiso","iso":"UG"},"geometry":{"type":"Point","coordinates":[32.83333,0.41667]}},{"type":"Feature","properties":{"country_en":"Uganda","name":"Bwambara","name_adm0":"Uganda","name_adm1":"Kisoro","name_adm2":"Bufumbira","name_en":"Bwambara","iso":"UG"},"geometry":{"type":"Point","coordinates":[29.82778,-0.64722]}},{"type":"Feature","properties":{"country_en":"Uganda","name":"Molo","name_adm0":"Uganda","name_adm1":"Tororo","name_adm2":"Tororo","name_en":"Molo","iso":"UG"},"geometry":{"type":"Point","coordinates":[34.17556,0.83278]}},{"type":"Feature","properties":{"country_en":"Uganda","name":"Kalungu","name_adm0":"Uganda","name_adm1":"Masaka","name_adm2":"Kalungu","name_en":"Kalungu","iso":"UG"},"geometry":{"type":"Point","coordinates":[31.758470000000003,-0.16969]}},{"type":"Feature","properties":{"country_en":"Uganda","name":"Agago","name_adm0":"Uganda","name_adm1":"Pader","name_adm2":"Agago","name_en":"Agago","iso":"UG"},"geometry":{"type":"Point","coordinates":[33.33361,2.83382]}},{"type":"Feature","properties":{"country_en":"Uganda","name":"Entebbe","name_adm0":"Uganda","name_adm1":"Wakiso","name_adm2":"Entebbe","name_en":"Entebbe","iso":"UG"},"geometry":{"type":"Point","coordinates":[32.44694,0.06444]}},{"type":"Feature","properties":{"country_en":"Uganda","name":"Kinkiizi","name_adm0":"Uganda","name_adm1":"Kanungu","name_adm2":"Kinkiizi","name_en":"Kinkiizi","iso":"UG"},"geometry":{"type":"Point","coordinates":[29.769859,-0.902214]}},{"type":"Feature","properties":{"country_en":"Uganda","name":"Kalangala","name_adm0":"Uganda","name_adm1":"Kalangala","name_adm2":"Bujumba","name_en":"Kalangala","iso":"UG"},"geometry":{"type":"Point","coordinates":[32.224999999999994,-0.30889]}},{"type":"Feature","properties":{"country_en":"Uganda","name":"Iganga","name_adm0":"Uganda","name_adm1":"Iganga","name_adm2":"Kigulu","name_en":"Iganga","iso":"UG"},"geometry":{"type":"Point","coordinates":[33.46861,0.60917]}},{"type":"Feature","properties":{"country_en":"Uganda","name":"Kamwenge","name_adm0":"Uganda","name_adm1":"Kamwenge","name_en":"Kamwenge","iso":"UG"},"geometry":{"type":"Point","coordinates":[30.4621865,0.24032500000000004]}},{"type":"Feature","properties":{"country_en":"Uganda","name":"Budaka","name_adm0":"Uganda","name_adm1":"Budaka","name_adm2":"Budaka","name_en":"Budaka","iso":"UG"},"geometry":{"type":"Point","coordinates":[33.99221,1.05249]}},{"type":"Feature","properties":{"country_en":"Uganda","name":"Gulu","name_adm0":"Uganda","name_adm1":"Gulu","name_adm2":"Gulu","name_en":"Gulu","iso":"UG"},"geometry":{"type":"Point","coordinates":[32.430009999999996,2.85604]}},{"type":"Feature","properties":{"country_en":"Uganda","name":"Kabale","name_adm0":"Uganda","name_adm1":"Kabale","name_adm2":"Kabale","name_en":"Kabale","iso":"UG"},"geometry":{"type":"Point","coordinates":[29.985879999999998,-1.20774]}},{"type":"Feature","properties":{"country_en":"Uganda","name":"Mukono","name_adm0":"Uganda","name_adm1":"Mukono","name_adm2":"Mukono","name_en":"Mukono","iso":"UG"},"geometry":{"type":"Point","coordinates":[32.775,0.3]}},{"type":"Feature","properties":{"country_en":"Uganda","name":"Kibaale","name_adm0":"Uganda","name_adm1":"Kamwenge","name_adm2":"Kibaale","name_en":"Kibaale","iso":"UG"},"geometry":{"type":"Point","coordinates":[31.066670000000002,0.8]}},{"type":"Feature","properties":{"country_en":"Uganda","name":"Amuru","name_adm0":"Uganda","name_adm1":"Amuru","name_en":"Amuru","iso":"UG"},"geometry":{"type":"Point","coordinates":[31.561488999999998,2.287219]}},{"type":"Feature","properties":{"country_en":"Uganda","name":"Butembe","name_adm0":"Uganda","name_adm1":"Jinja","name_adm2":"Butembe","name_en":"Butembe","iso":"UG"},"geometry":{"type":"Point","coordinates":[33.176822,0.481332]}},{"type":"Feature","properties":{"country_en":"Uganda","name":"Kigulu","name_adm0":"Uganda","name_adm1":"Iganga","name_adm2":"Kigulu","name_en":"Kigulu","iso":"UG"},"geometry":{"type":"Point","coordinates":[33.469333,0.6204569999999999]}},{"type":"Feature","properties":{"country_en":"Uganda","name":"Bufumbira","name_adm0":"Uganda","name_adm1":"Kisoro","name_adm2":"Bufumbira","name_en":"Bufumbira","iso":"UG"},"geometry":{"type":"Point","coordinates":[29.651926999999997,-1.106717]}},{"type":"Feature","properties":{"country_en":"Uganda","name":"Tingey","name_adm0":"Uganda","name_adm1":"Kapchorwa","name_adm2":"Tingey","name_en":"Tingey","iso":"UG"},"geometry":{"type":"Point","coordinates":[34.335536,1.3211599999999997]}},{"type":"Feature","properties":{"country_en":"Uganda","name":"Mawokota","name_adm0":"Uganda","name_adm1":"Mpigi","name_adm2":"Mawokota","name_en":"Mawokota","iso":"UG"},"geometry":{"type":"Point","coordinates":[32.32967299999999,0.22616299999999998]}},{"type":"Feature","properties":{"country_en":"Uganda","name":"Bujumba","name_adm0":"Uganda","name_adm1":"Kalangala","name_adm2":"Bujumba","name_en":"Bujumba","iso":"UG"},"geometry":{"type":"Point","coordinates":[32.2798915,-0.308988]}},{"type":"Feature","properties":{"country_en":"Uganda","name":"Adjumani","name_adm0":"Uganda","name_adm1":"Adjumani","name_en":"Adjumani","iso":"UG"},"geometry":{"type":"Point","coordinates":[31.775206999999998,3.4051279999999995]}},{"type":"Feature","properties":{"country_en":"Uganda","name":"Luuka","name_adm0":"Uganda","name_adm1":"Iganga","name_adm2":"Luuka","name_en":"Luuka","iso":"UG"},"geometry":{"type":"Point","coordinates":[33.382816,0.7696199999999999]}},{"type":"Feature","properties":{"country_en":"Uganda","name":"Katuna","name_adm0":"Uganda","name_adm1":"Kabale","name_adm2":"Ndorwa","name_en":"Katuna","iso":"UG"},"geometry":{"type":"Point","coordinates":[29.21273,-1.2445099999999998]}},{"type":"Feature","properties":{"country_en":"Uganda","name":"Eruba","name_adm0":"Uganda","name_adm1":"Arua","name_adm2":"Vurra","name_en":"Eruba","iso":"UG"},"geometry":{"type":"Point","coordinates":[30.916449999999998,2.95704]}},{"type":"Feature","properties":{"country_en":"Uganda","name":"Aboki","name_adm0":"Uganda","name_adm1":"Apac","name_adm2":"Kole","name_en":"Aboki","iso":"UG"},"geometry":{"type":"Point","coordinates":[32.68861,2.33528]}},{"type":"Feature","properties":{"country_en":"Uganda","name":"Kachung","name_adm0":"Uganda","name_adm1":"Dokolo","name_adm2":"Dokolo","name_en":"Kachung","iso":"UG"},"geometry":{"type":"Point","coordinates":[32.97028,1.8983299999999999]}},{"type":"Feature","properties":{"country_en":"Uganda","name":"Kafunzo","name_adm0":"Uganda","name_adm1":"Ntungamo","name_adm2":"Ruhaama","name_en":"Kafunzo","iso":"UG"},"geometry":{"type":"Point","coordinates":[30.43818,-1.0443]}},{"type":"Feature","properties":{"country_en":"Uganda","name":"Wandi","name_adm0":"Uganda","name_adm1":"Nyadri","name_adm2":"Terego","name_en":"Wandi","iso":"UG"},"geometry":{"type":"Point","coordinates":[32.1,0.85]}},{"type":"Feature","properties":{"country_en":"Uganda","name":"Arua","name_adm0":"Uganda","name_adm1":"Arua","name_en":"Arua","iso":"UG"},"geometry":{"type":"Point","coordinates":[30.886688,3.4627029999999994]}},{"type":"Feature","properties":{"country_en":"Uganda","name":"Jinja","name_adm0":"Uganda","name_adm1":"Jinja","name_en":"Jinja","iso":"UG"},"geometry":{"type":"Point","coordinates":[33.112792,0.552741]}},{"type":"Feature","properties":{"country_en":"Uganda","name":"Kabale","name_adm0":"Uganda","name_adm1":"Kabale","name_en":"Kabale","iso":"UG"},"geometry":{"type":"Point","coordinates":[29.921607,-1.242816]}},{"type":"Feature","properties":{"country_en":"Uganda","name":"Kabarole","name_adm0":"Uganda","name_adm1":"Kabarole","name_en":"Kabarole","iso":"UG"},"geometry":{"type":"Point","coordinates":[30.379552,0.585698]}},{"type":"Feature","properties":{"country_en":"Uganda","name":"Kamuli","name_adm0":"Uganda","name_adm1":"Kamuli","name_en":"Kamuli","iso":"UG"},"geometry":{"type":"Point","coordinates":[33.088073,0.977735]}},{"type":"Feature","properties":{"country_en":"Uganda","name":"Okoro","name_adm0":"Uganda","name_adm1":"Nebbi","name_adm2":"Okoro","name_en":"Okoro","iso":"UG"},"geometry":{"type":"Point","coordinates":[31.476618999999996,2.3226279999999995]}},{"type":"Feature","properties":{"country_en":"Uganda","name":"Kasilo","name_adm0":"Uganda","name_adm1":"Soroti","name_adm2":"Kasilo","name_en":"Kasilo","iso":"UG"},"geometry":{"type":"Point","coordinates":[33.530272999999994,1.823422]}},{"type":"Feature","properties":{"country_en":"Uganda","name":"Apac","name_adm0":"Uganda","name_adm1":"Apac","name_adm2":"Maruzi","name_en":"Apac","iso":"UG"},"geometry":{"type":"Point","coordinates":[32.41667,1.83333]}},{"type":"Feature","properties":{"country_en":"Uganda","name":"Butaleja","name_adm0":"Uganda","name_adm1":"Butaleja","name_adm2":"Bunyole","name_en":"Butaleja","iso":"UG"},"geometry":{"type":"Point","coordinates":[34,0.9166699999999999]}},{"type":"Feature","properties":{"country_en":"Uganda","name":"Buwama","name_adm0":"Uganda","name_adm1":"Mpigi","name_adm2":"Mawokota","name_en":"Buwama","iso":"UG"},"geometry":{"type":"Point","coordinates":[32.09639,0.06083]}},{"type":"Feature","properties":{"country_en":"Uganda","name":"Buyende","name_adm0":"Uganda","name_adm1":"Kamuli","name_adm2":"Budiope","name_en":"Buyende","iso":"UG"},"geometry":{"type":"Point","coordinates":[33.15917,0.9302800000000001]}},{"type":"Feature","properties":{"country_en":"Uganda","name":"Nakifuma","name_adm0":"Uganda","name_adm1":"Mukono","name_adm2":"Nakifuma","name_en":"Nakifuma","iso":"UG"},"geometry":{"type":"Point","coordinates":[32.79,0.54361]}},{"type":"Feature","properties":{"country_en":"Uganda","name":"Namulonge","name_adm0":"Uganda","name_adm1":"Wakiso","name_adm2":"Kyadondo","name_en":"Namulonge","iso":"UG"},"geometry":{"type":"Point","coordinates":[32.6025,0.5297199999999999]}},{"type":"Feature","properties":{"country_en":"Uganda","name":"Namutumba","name_adm0":"Uganda","name_adm1":"Namutumba","name_adm2":"Busiki","name_en":"Namutumba","iso":"UG"},"geometry":{"type":"Point","coordinates":[32.78333,1.88333]}},{"type":"Feature","properties":{"country_en":"Uganda","name":"Kikuta","name_adm0":"Uganda","name_adm1":"Nakasongola","name_adm2":"Buruli","name_en":"Kikuta","iso":"UG"},"geometry":{"type":"Point","coordinates":[32.33736,1.5746099999999998]}},{"type":"Feature","properties":{"country_en":"Uganda","name":"Bushenyi","name_adm0":"Uganda","name_adm1":"Bushenyi","name_adm2":"Igara","name_en":"Bushenyi","iso":"UG"},"geometry":{"type":"Point","coordinates":[30.15797,-0.45917]}},{"type":"Feature","properties":{"country_en":"Uganda","name":"Yumbe","name_adm0":"Uganda","name_adm1":"Yumbe","name_en":"Yumbe","iso":"UG"},"geometry":{"type":"Point","coordinates":[32.304649,1.36519]}},{"type":"Feature","properties":{"country_en":"Uganda","name":"Rwenjura","name_adm0":"Uganda","name_adm1":"Kasese","name_adm2":"Bukonjo","name_en":"Rwenjura","iso":"UG"},"geometry":{"type":"Point","coordinates":[29.883329999999997,0.1]}},{"type":"Feature","properties":{"country_en":"Uganda","name":"Sembabule","name_adm0":"Uganda","name_adm1":"Sembabule","name_adm2":"Mawogola","name_en":"Sembabule","iso":"UG"},"geometry":{"type":"Point","coordinates":[31.44493,-0.13115]}},{"type":"Feature","properties":{"country_en":"Uganda","name":"Pakwach","name_adm0":"Uganda","name_adm1":"Amuru","name_adm2":"Nwoya","name_en":"Pakwach","iso":"UG"},"geometry":{"type":"Point","coordinates":[31.498319999999996,2.4633499999999997]}},{"type":"Feature","properties":{"country_en":"Uganda","name":"Naboa","name_adm0":"Uganda","name_adm1":"Budaka","name_adm2":"Budaka","name_en":"Naboa","iso":"UG"},"geometry":{"type":"Point","coordinates":[34.02056,1.03278]}},{"type":"Feature","properties":{"country_en":"Uganda","name":"Pallisa","name_adm0":"Uganda","name_adm1":"Pallisa","name_adm2":"Pallisa","name_en":"Pallisa","iso":"UG"},"geometry":{"type":"Point","coordinates":[33.77977,1.22593]}},{"type":"Feature","properties":{"country_en":"Uganda","name":"Tororo","name_adm0":"Uganda","name_adm1":"Tororo","name_adm2":"Tororo","name_en":"Tororo","iso":"UG"},"geometry":{"type":"Point","coordinates":[34.08333,0.75]}},{"type":"Feature","properties":{"country_en":"Uganda","name":"Nyadri","name_adm0":"Uganda","name_adm1":"Nyadri","name_en":"Nyadri","iso":"UG"},"geometry":{"type":"Point","coordinates":[32.304649,1.36519]}},{"type":"Feature","properties":{"country_en":"Uganda","name":"Kagoma","name_adm0":"Uganda","name_adm1":"Jinja","name_adm2":"Kagoma","name_en":"Kagoma","iso":"UG"},"geometry":{"type":"Point","coordinates":[33.15,0.616666]}},{"type":"Feature","properties":{"country_en":"Uganda","name":"Kilak","name_adm0":"Uganda","name_adm1":"Amuru","name_adm2":"Kilak","name_en":"Kilak","iso":"UG"},"geometry":{"type":"Point","coordinates":[31.561488999999998,2.287219]}},{"type":"Feature","properties":{"country_en":"Uganda","name":"Kanungu","name_adm0":"Uganda","name_adm1":"Kanungu","name_adm2":"Kinkiizi","name_en":"Kanungu","iso":"UG"},"geometry":{"type":"Point","coordinates":[29.73283,-0.78828]}},{"type":"Feature","properties":{"country_en":"Uganda","name":"Kigezi","name_adm0":"Uganda","name_adm1":"Kisoro","name_adm2":"Kisoro","name_en":"Kigezi","iso":"UG"},"geometry":{"type":"Point","coordinates":[29.6,-0.8]}},{"type":"Feature","properties":{"country_en":"Uganda","name":"Kyotera","name_adm0":"Uganda","name_adm1":"Rakai","name_adm2":"Kyotera","name_en":"Kyotera","iso":"UG"},"geometry":{"type":"Point","coordinates":[31.365794999999995,-0.466913]}},{"type":"Feature","properties":{"country_en":"Uganda","name":"Kaburoron","name_adm0":"Uganda","name_adm1":"Kapchorwa","name_adm2":"Kween","name_en":"Kaburoron","iso":"UG"},"geometry":{"type":"Point","coordinates":[34.61278,1.38778]}},{"type":"Feature","properties":{"country_en":"Uganda","name":"Jonam","name_adm0":"Uganda","name_adm1":"Nebbi","name_adm2":"Jonam","name_en":"Jonam","iso":"UG"},"geometry":{"type":"Point","coordinates":[31.476618999999996,2.3226279999999995]}},{"type":"Feature","properties":{"country_en":"Uganda","name":"Bombo","name_adm0":"Uganda","name_adm1":"Luwero","name_adm2":"Katikamu","name_en":"Bombo","iso":"UG"},"geometry":{"type":"Point","coordinates":[32.51545,0.5738699999999999]}},{"type":"Feature","properties":{"country_en":"Uganda","name":"Mwirasandu","name_adm0":"Uganda","name_adm1":"Ntungamo","name_adm2":"Ruhaama","name_en":"Mwirasandu","iso":"UG"},"geometry":{"type":"Point","coordinates":[30.383329999999997,-0.9833299999999999]}},{"type":"Feature","properties":{"country_en":"Uganda","name":"Seeta","name_adm0":"Uganda","name_adm1":"Mukono","name_adm2":"Nakifuma","name_en":"Seeta","iso":"UG"},"geometry":{"type":"Point","coordinates":[32.842499999999994,0.31805999999999995]}},{"type":"Feature","properties":{"country_en":"Uganda","name":"Sekanyonyi","name_adm0":"Uganda","name_adm1":"Mityana","name_adm2":"Mityana","name_en":"Sekanyonyi","iso":"UG"},"geometry":{"type":"Point","coordinates":[32.12389,0.50889]}},{"type":"Feature","properties":{"country_en":"Uganda","name":"Semuto","name_adm0":"Uganda","name_adm1":"Nakaseke","name_adm2":"Nakaseke","name_en":"Semuto","iso":"UG"},"geometry":{"type":"Point","coordinates":[32.31333,0.62722]}},{"type":"Feature","properties":{"country_en":"Uganda","name":"Aruu","name_adm0":"Uganda","name_adm1":"Pader","name_adm2":"Aruu","name_en":"Aruu","iso":"UG"},"geometry":{"type":"Point","coordinates":[32.723111,2.989027]}},{"type":"Feature","properties":{"country_en":"Uganda","name":"Kyenjojo","name_adm0":"Uganda","name_adm1":"Kyenjojo","name_en":"Kyenjojo","iso":"UG"},"geometry":{"type":"Point","coordinates":[30.786437,0.583089]}},{"type":"Feature","properties":{"country_en":"Uganda","name":"Paidha","name_adm0":"Uganda","name_adm1":"Nebbi","name_adm2":"Okoro","name_en":"Paidha","iso":"UG"},"geometry":{"type":"Point","coordinates":[30.985509999999998,2.4166899999999996]}},{"type":"Feature","properties":{"country_en":"Uganda","name":"Soroti","name_adm0":"Uganda","name_adm1":"Soroti","name_adm2":"Soroti","name_en":"Soroti","iso":"UG"},"geometry":{"type":"Point","coordinates":[33.61113,1.71464]}},{"type":"Feature","properties":{"country_en":"Uganda","name":"Masaka","name_adm0":"Uganda","name_adm1":"Masaka","name_adm2":"Masaka","name_en":"Masaka","iso":"UG"},"geometry":{"type":"Point","coordinates":[31.73409,-0.33379]}},{"type":"Feature","properties":{"country_en":"Uganda","name":"Kaberamaido","name_adm0":"Uganda","name_adm1":"Kaberamaido","name_adm2":"Kaberamaido","name_en":"Kaberamaido","iso":"UG"},"geometry":{"type":"Point","coordinates":[33.15944,1.7388899999999998]}},{"type":"Feature","properties":{"country_en":"Uganda","name":"Ayivu","name_adm0":"Uganda","name_adm1":"Arua","name_adm2":"Ayivu","name_en":"Ayivu","iso":"UG"},"geometry":{"type":"Point","coordinates":[30.901794,3.0241489999999995]}},{"type":"Feature","properties":{"country_en":"Uganda","name":"Ibuje","name_adm0":"Uganda","name_adm1":"Apac","name_adm2":"Maruzi","name_en":"Ibuje","iso":"UG"},"geometry":{"type":"Point","coordinates":[32.37691,1.8970200000000002]}},{"type":"Feature","properties":{"country_en":"Uganda","name":"Namwendwa","name_adm0":"Uganda","name_adm1":"Kamuli","name_adm2":"Bugabula","name_en":"Namwendwa","iso":"UG"},"geometry":{"type":"Point","coordinates":[33.26360999999999,0.91722]}},{"type":"Feature","properties":{"country_en":"Uganda","name":"Bulopa","name_adm0":"Uganda","name_adm1":"Kamuli","name_adm2":"Bugabula","name_en":"Bulopa","iso":"UG"},"geometry":{"type":"Point","coordinates":[33.25082999999999,0.84833]}},{"type":"Feature","properties":{"country_en":"Uganda","name":"Nakasongola","name_adm0":"Uganda","name_adm1":"Nakasongola","name_adm2":"Buruli","name_en":"Nakasongola","iso":"UG"},"geometry":{"type":"Point","coordinates":[32.33333,1.3333299999999997]}},{"type":"Feature","properties":{"country_en":"Uganda","name":"Kikungiri","name_adm0":"Uganda","name_adm1":"Kabale","name_adm2":"Kabale","name_en":"Kikungiri","iso":"UG"},"geometry":{"type":"Point","coordinates":[29.998329999999996,-1.3480599999999998]}},{"type":"Feature","properties":{"country_en":"Uganda","name":"Masaka","name_adm0":"Uganda","name_adm1":"Masaka","name_adm2":"Masaka","name_en":"Masaka","iso":"UG"},"geometry":{"type":"Point","coordinates":[31.724395000000005,-0.32146]}},{"type":"Feature","properties":{"country_en":"Uganda","name":"Bujenje","name_adm0":"Uganda","name_adm1":"Masindi","name_adm2":"Bujenje","name_en":"Bujenje","iso":"UG"},"geometry":{"type":"Point","coordinates":[31.696758,1.678914]}},{"type":"Feature","properties":{"country_en":"Uganda","name":"Katera","name_adm0":"Uganda","name_adm1":"Kiboga","name_adm2":"Kiboga","name_en":"Katera","iso":"UG"},"geometry":{"type":"Point","coordinates":[32.01222,0.68972]}},{"type":"Feature","properties":{"country_en":"Uganda","name":"East Moyo","name_adm0":"Uganda","name_adm1":"Adjumani","name_adm2":"East Moyo","name_en":"East Moyo","iso":"UG"},"geometry":{"type":"Point","coordinates":[31.775206999999998,3.4051279999999995]}},{"type":"Feature","properties":{"country_en":"Uganda","name":"Buzaaya","name_adm0":"Uganda","name_adm1":"Kamuli","name_adm2":"Buzaaya","name_en":"Buzaaya","iso":"UG"},"geometry":{"type":"Point","coordinates":[33.088073,0.977735]}},{"type":"Feature","properties":{"country_en":"Uganda","name":"Erute","name_adm0":"Uganda","name_adm1":"Lira","name_adm2":"Erute","name_en":"Erute","iso":"UG"},"geometry":{"type":"Point","coordinates":[32.854614,2.306505]}},{"type":"Feature","properties":{"country_en":"Uganda","name":"Dokolo","name_adm0":"Uganda","name_adm1":"Dokolo","name_adm2":"Dokolo","name_en":"Dokolo","iso":"UG"},"geometry":{"type":"Point","coordinates":[33.06137,1.93607]}},{"type":"Feature","properties":{"country_en":"Uganda","name":"Kwania","name_adm0":"Uganda","name_adm1":"Apac","name_adm2":"Kwania","name_en":"Kwania","iso":"UG"},"geometry":{"type":"Point","coordinates":[32.497558,2.056565]}},{"type":"Feature","properties":{"country_en":"Uganda","name":"Madi-Okollo","name_adm0":"Uganda","name_adm1":"Arua","name_adm2":"Madi-Okollo","name_en":"Madi-Okollo","iso":"UG"},"geometry":{"type":"Point","coordinates":[30.886688,3.4627029999999994]}},{"type":"Feature","properties":{"country_en":"Uganda","name":"Ndorwa","name_adm0":"Uganda","name_adm1":"Kabale","name_adm2":"Ndorwa","name_en":"Ndorwa","iso":"UG"},"geometry":{"type":"Point","coordinates":[29.921607,-1.242816]}},{"type":"Feature","properties":{"country_en":"Uganda","name":"Kateng","name_adm0":"Uganda","name_adm1":"Soroti","name_adm2":"Kasilo","name_en":"Kateng","iso":"UG"},"geometry":{"type":"Point","coordinates":[33.23333,1.5]}},{"type":"Feature","properties":{"country_en":"Uganda","name":"Wakiso","name_adm0":"Uganda","name_adm1":"Wakiso","name_en":"Wakiso","iso":"UG"},"geometry":{"type":"Point","coordinates":[32.496185,0.060424000000000005]}},{"type":"Feature","properties":{"country_en":"Uganda","name":"Kagadi","name_adm0":"Uganda","name_adm1":"Kibaale","name_adm2":"Buyaga","name_en":"Kagadi","iso":"UG"},"geometry":{"type":"Point","coordinates":[30.79667,0.9605599999999999]}},{"type":"Feature","properties":{"country_en":"Uganda","name":"Kumi","name_adm0":"Uganda","name_adm1":"Kumi","name_adm2":"Kumi","name_en":"Kumi","iso":"UG"},"geometry":{"type":"Point","coordinates":[33.93611,1.4608299999999999]}},{"type":"Feature","properties":{"country_en":"Uganda","name":"Kabwoya","name_adm0":"Uganda","name_adm1":"Hoima","name_adm2":"Buhaguzi","name_en":"Kabwoya","iso":"UG"},"geometry":{"type":"Point","coordinates":[31.07556,1.25861]}},{"type":"Feature","properties":{"country_en":"Uganda","name":"Kalabi","name_adm0":"Uganda","name_adm1":"Kaabong","name_adm2":"Dodoth","name_en":"Kalabi","iso":"UG"},"geometry":{"type":"Point","coordinates":[31.78333,0.9833299999999999]}},{"type":"Feature","properties":{"country_en":"Uganda","name":"Moyo","name_adm0":"Uganda","name_adm1":"Moyo","name_en":"Moyo","iso":"UG"},"geometry":{"type":"Point","coordinates":[31.725768999999996,3.59703]}},{"type":"Feature","properties":{"country_en":"Uganda","name":"Katakwi","name_adm0":"Uganda","name_adm1":"Katakwi","name_en":"Katakwi","iso":"UG"},"geometry":{"type":"Point","coordinates":[33.795747,2.2467285]}},{"type":"Feature","properties":{"country_en":"Uganda","name":"Rakai","name_adm0":"Uganda","name_adm1":"Rakai","name_en":"Rakai","iso":"UG"},"geometry":{"type":"Point","coordinates":[31.365794999999995,-0.466913]}},{"type":"Feature","properties":{"country_en":"Uganda","name":"Rukungiri","name_adm0":"Uganda","name_adm1":"Rukungiri","name_en":"Rukungiri","iso":"UG"},"geometry":{"type":"Point","coordinates":[29.721287999999998,-0.5693085]}},{"type":"Feature","properties":{"country_en":"Uganda","name":"Soroti","name_adm0":"Uganda","name_adm1":"Soroti","name_en":"Soroti","iso":"UG"},"geometry":{"type":"Point","coordinates":[33.530272999999994,1.823422]}},{"type":"Feature","properties":{"country_en":"Uganda","name":"Lukaya","name_adm0":"Uganda","name_adm1":"Masaka","name_adm2":"Kalungu","name_en":"Lukaya","iso":"UG"},"geometry":{"type":"Point","coordinates":[31.853890000000003,-0.11305999999999998]}},{"type":"Feature","properties":{"country_en":"Uganda","name":"Kabale","name_adm0":"Uganda","name_adm1":"Kabale","name_adm2":"Kabale","name_en":"Kabale","iso":"UG"},"geometry":{"type":"Point","coordinates":[29.98993,-1.24857]}},{"type":"Feature","properties":{"country_en":"Uganda","name":"Agoro","name_adm0":"Uganda","name_adm1":"Kitgum","name_adm2":"Lamwo","name_en":"Agoro","iso":"UG"},"geometry":{"type":"Point","coordinates":[33.036939999999994,3.75944]}},{"type":"Feature","properties":{"country_en":"Uganda","name":"Akilok","name_adm0":"Uganda","name_adm1":"Kitgum","name_adm2":"Chua","name_en":"Akilok","iso":"UG"},"geometry":{"type":"Point","coordinates":[33.51222,3.52083]}},{"type":"Feature","properties":{"country_en":"Uganda","name":"Bugondo","name_adm0":"Uganda","name_adm1":"Soroti","name_adm2":"Kasilo","name_en":"Bugondo","iso":"UG"},"geometry":{"type":"Point","coordinates":[33.30056,1.59056]}},{"type":"Feature","properties":{"country_en":"Uganda","name":"Bugwe","name_adm0":"Uganda","name_adm1":"Namutumba","name_adm2":"Busiki","name_en":"Bugwe","iso":"UG"},"geometry":{"type":"Point","coordinates":[31.58333,1]}},{"type":"Feature","properties":{"country_en":"Uganda","name":"Bukomero","name_adm0":"Uganda","name_adm1":"Kiboga","name_adm2":"Kiboga","name_en":"Bukomero","iso":"UG"},"geometry":{"type":"Point","coordinates":[32.02861,0.6975]}},{"type":"Feature","properties":{"country_en":"Uganda","name":"Busaba","name_adm0":"Uganda","name_adm1":"Butaleja","name_adm2":"Bunyole","name_en":"Busaba","iso":"UG"},"geometry":{"type":"Point","coordinates":[31.91667,0.5]}},{"type":"Feature","properties":{"country_en":"Uganda","name":"Busunju","name_adm0":"Uganda","name_adm1":"Mityana","name_adm2":"Mityana","name_en":"Busunju","iso":"UG"},"geometry":{"type":"Point","coordinates":[32.19278,0.56778]}},{"type":"Feature","properties":{"country_en":"Uganda","name":"Butiru","name_adm0":"Uganda","name_adm1":"Manafwa","name_adm2":"Bubulo","name_en":"Butiru","iso":"UG"},"geometry":{"type":"Point","coordinates":[32.56667,1.9666699999999997]}},{"type":"Feature","properties":{"country_en":"Uganda","name":"Galiraya","name_adm0":"Uganda","name_adm1":"Kayunga","name_adm2":"Bbaale","name_en":"Galiraya","iso":"UG"},"geometry":{"type":"Point","coordinates":[32.86749999999999,1.31306]}},{"type":"Feature","properties":{"country_en":"Uganda","name":"Gogonyo","name_adm0":"Uganda","name_adm1":"Pallisa","name_adm2":"Pallisa","name_en":"Gogonyo","iso":"UG"},"geometry":{"type":"Point","coordinates":[33.59611,1.23389]}},{"type":"Feature","properties":{"country_en":"Uganda","name":"Iganga","name_adm0":"Uganda","name_adm1":"Iganga","name_adm2":"Luuka","name_en":"Iganga","iso":"UG"},"geometry":{"type":"Point","coordinates":[33.23333,0.71667]}},{"type":"Feature","properties":{"country_en":"Uganda","name":"Iyingo","name_adm0":"Uganda","name_adm1":"Kamuli","name_adm2":"Budiope","name_en":"Iyingo","iso":"UG"},"geometry":{"type":"Point","coordinates":[33.3,1.2999999999999998]}},{"type":"Feature","properties":{"country_en":"Uganda","name":"Mukongoro","name_adm0":"Uganda","name_adm1":"Kumi","name_adm2":"Kumi","name_en":"Mukongoro","iso":"UG"},"geometry":{"type":"Point","coordinates":[33.88721999999999,1.30167]}},{"type":"Feature","properties":{"country_en":"Uganda","name":"Nabingora","name_adm0":"Uganda","name_adm1":"Mubende","name_adm2":"Buwekula","name_en":"Nabingora","iso":"UG"},"geometry":{"type":"Point","coordinates":[31.16556,0.50667]}},{"type":"Feature","properties":{"country_en":"Uganda","name":"Oraba","name_adm0":"Uganda","name_adm1":"Koboko","name_adm2":"Koboko","name_en":"Oraba","iso":"UG"},"geometry":{"type":"Point","coordinates":[30.889349999999997,3.5341499999999995]}},{"type":"Feature","properties":{"country_en":"Uganda","name":"Pigire","name_adm0":"Uganda","name_adm1":"Soroti","name_adm2":"Kasilo","name_en":"Pigire","iso":"UG"},"geometry":{"type":"Point","coordinates":[33.33333,1.46667]}},{"type":"Feature","properties":{"country_en":"Uganda","name":"Tiriri","name_adm0":"Uganda","name_adm1":"Soroti","name_adm2":"Soroti","name_en":"Tiriri","iso":"UG"},"geometry":{"type":"Point","coordinates":[33.46806,1.8802799999999997]}},{"type":"Feature","properties":{"country_en":"Uganda","name":"Akum","name_adm0":"Uganda","name_adm1":"Kumi","name_adm2":"Kumi","name_en":"Akum","iso":"UG"},"geometry":{"type":"Point","coordinates":[33.89999999999999,1.46667]}},{"type":"Feature","properties":{"country_en":"Uganda","name":"Bugiri","name_adm0":"Uganda","name_adm1":"Bugiri","name_adm2":"Bukooli","name_en":"Bugiri","iso":"UG"},"geometry":{"type":"Point","coordinates":[32.78333,1.3333299999999997]}},{"type":"Feature","properties":{"country_en":"Uganda","name":"Gayaza","name_adm0":"Uganda","name_adm1":"Isingiro","name_adm2":"Isingiro","name_en":"Gayaza","iso":"UG"},"geometry":{"type":"Point","coordinates":[30.805279999999996,-0.81611]}},{"type":"Feature","properties":{"country_en":"Uganda","name":"Lamwo","name_adm0":"Uganda","name_adm1":"Kitgum","name_adm2":"Lamwo","name_en":"Lamwo","iso":"UG"},"geometry":{"type":"Point","coordinates":[32.8016,3.5297199999999997]}},{"type":"Feature","properties":{"country_en":"Uganda","name":"Arua","name_adm0":"Uganda","name_adm1":"Arua","name_adm2":"Ayivu","name_en":"Arua","iso":"UG"},"geometry":{"type":"Point","coordinates":[30.911050000000003,3.02013]}},{"type":"Feature","properties":{"country_en":"Uganda","name":"Gaba","name_adm0":"Uganda","name_adm1":"Kampala","name_adm2":"Kampala","name_en":"Gaba","iso":"UG"},"geometry":{"type":"Point","coordinates":[32.62722,0.26472]}},{"type":"Feature","properties":{"country_en":"Uganda","name":"Mukono","name_adm0":"Uganda","name_adm1":"Mukono","name_adm2":"Mukono","name_en":"Mukono","iso":"UG"},"geometry":{"type":"Point","coordinates":[32.75528,0.35333]}},{"type":"Feature","properties":{"country_en":"Uganda","name":"Mbale","name_adm0":"Uganda","name_adm1":"Mbale","name_adm2":"Mbale","name_en":"Mbale","iso":"UG"},"geometry":{"type":"Point","coordinates":[34.17503,1.08209]}},{"type":"Feature","properties":{"country_en":"Uganda","name":"Kampala","name_adm0":"Uganda","name_adm1":"Kampala","name_adm2":"Kampala","name_en":"Kampala","iso":"UG"},"geometry":{"type":"Point","coordinates":[32.58219,0.31627999999999995]}},{"type":"Feature","properties":{"country_en":"Uganda","name":"Kisoro","name_adm0":"Uganda","name_adm1":"Kisoro","name_adm2":"Kisoro","name_en":"Kisoro","iso":"UG"},"geometry":{"type":"Point","coordinates":[29.68497,-1.28538]}},{"type":"Feature","properties":{"country_en":"Uganda","name":"Nakitoma","name_adm0":"Uganda","name_adm1":"Nakasongola","name_adm2":"Buruli","name_en":"Nakitoma","iso":"UG"},"geometry":{"type":"Point","coordinates":[32.09332,1.52853]}},{"type":"Feature","properties":{"country_en":"Uganda","name":"Fort Portal","name_adm0":"Uganda","name_adm1":"Kabarole","name_adm2":"Fort Portal","name_en":"Fort Portal","iso":"UG"},"geometry":{"type":"Point","coordinates":[30.274799999999995,0.66174]}},{"type":"Feature","properties":{"country_en":"Uganda","name":"Kajansi","name_adm0":"Uganda","name_adm1":"Wakiso","name_adm2":"Busiiro","name_en":"Kajansi","iso":"UG"},"geometry":{"type":"Point","coordinates":[32.52222,0.20806]}},{"type":"Feature","properties":{"country_en":"Uganda","name":"Makerere","name_adm0":"Uganda","name_adm1":"Kampala","name_adm2":"Kampala","name_en":"Makerere","iso":"UG"},"geometry":{"type":"Point","coordinates":[32.56667,0.33333]}},{"type":"Feature","properties":{"country_en":"Uganda","name":"Kotido","name_adm0":"Uganda","name_adm1":"Kotido","name_adm2":"Jie","name_en":"Kotido","iso":"UG"},"geometry":{"type":"Point","coordinates":[34,3]}},{"type":"Feature","properties":{"country_en":"Uganda","name":"Kampala","name_adm0":"Uganda","name_adm1":"Kampala","name_en":"Kampala","iso":"UG"},"geometry":{"type":"Point","coordinates":[32.555236,0.34821799999999997]}},{"type":"Feature","properties":{"country_en":"Uganda","name":"Luwero","name_adm0":"Uganda","name_adm1":"Luwero","name_adm2":"Katikamu","name_en":"Luwero","iso":"UG"},"geometry":{"type":"Point","coordinates":[32.51028,0.78194]}},{"type":"Feature","properties":{"country_en":"Uganda","name":"Gulu","name_adm0":"Uganda","name_adm1":"Gulu","name_adm2":"Gulu","name_en":"Gulu","iso":"UG"},"geometry":{"type":"Point","coordinates":[32.29899,2.77457]}},{"type":"Feature","properties":{"country_en":"Uganda","name":"Mbarara","name_adm0":"Uganda","name_adm1":"Mbarara","name_adm2":"Mbarara","name_en":"Mbarara","iso":"UG"},"geometry":{"type":"Point","coordinates":[30.648509999999998,-0.60467]}},{"type":"Feature","properties":{"country_en":"Uganda","name":"Pader","name_adm0":"Uganda","name_adm1":"Pader","name_en":"Pader","iso":"UG"},"geometry":{"type":"Point","coordinates":[32.920197,2.817114]}},{"type":"Feature","properties":{"country_en":"Uganda","name":"Apac","name_adm0":"Uganda","name_adm1":"Apac","name_en":"Apac","iso":"UG"},"geometry":{"type":"Point","coordinates":[32.497558,2.056565]}},{"type":"Feature","properties":{"country_en":"Uganda","name":"Amuria","name_adm0":"Uganda","name_adm1":"Amuria","name_adm2":"Amuria","name_en":"Amuria","iso":"UG"},"geometry":{"type":"Point","coordinates":[33.66667,2.08333]}},{"type":"Feature","properties":{"country_en":"Uganda","name":"Mayuge","name_adm0":"Uganda","name_adm1":"Mayuge","name_en":"Mayuge","iso":"UG"},"geometry":{"type":"Point","coordinates":[33.53302,0.433612]}},{"type":"Feature","properties":{"country_en":"Uganda","name":"Jinja","name_adm0":"Uganda","name_adm1":"Jinja","name_adm2":"Jinja","name_en":"Jinja","iso":"UG"},"geometry":{"type":"Point","coordinates":[33.20317,0.43901999999999997]}},{"type":"Feature","properties":{"country_en":"Uganda","name":"Biso","name_adm0":"Uganda","name_adm1":"Masindi","name_adm2":"Bujenje","name_en":"Biso","iso":"UG"},"geometry":{"type":"Point","coordinates":[31.418739999999996,1.76019]}},{"type":"Feature","properties":{"country_en":"Uganda","name":"Kiboga","name_adm0":"Uganda","name_adm1":"Kiboga","name_adm2":"Kiboga","name_en":"Kiboga","iso":"UG"},"geometry":{"type":"Point","coordinates":[31.77417,0.9161099999999999]}},{"type":"Feature","properties":{"country_en":"Uganda","name":"Dufile","name_adm0":"Uganda","name_adm1":"Moyo","name_adm2":"West Moyo","name_en":"Dufile","iso":"UG"},"geometry":{"type":"Point","coordinates":[31.92363,3.56411]}},{"type":"Feature","properties":{"country_en":"Uganda","name":"Kidera","name_adm0":"Uganda","name_adm1":"Kamuli","name_adm2":"Budiope","name_en":"Kidera","iso":"UG"},"geometry":{"type":"Point","coordinates":[32.80861,1.3377799999999997]}},{"type":"Feature","properties":{"country_en":"Uganda","name":"Kangole","name_adm0":"Uganda","name_adm1":"Moroto","name_adm2":"Bokora","name_en":"Kangole","iso":"UG"},"geometry":{"type":"Point","coordinates":[34.48694,2.43556]}},{"type":"Feature","properties":{"country_en":"Uganda","name":"Kachumbala","name_adm0":"Uganda","name_adm1":"Bukedea","name_adm2":"Bukedea","name_en":"Kachumbala","iso":"UG"},"geometry":{"type":"Point","coordinates":[34.10667,1.20556]}},{"type":"Feature","properties":{"country_en":"Uganda","name":"Lyantonde","name_adm0":"Uganda","name_adm1":"Lyantonde","name_adm2":"Kabula","name_en":"Lyantonde","iso":"UG"},"geometry":{"type":"Point","coordinates":[31.149719999999995,-0.33749999999999997]}},{"type":"Feature","properties":{"country_en":"Uganda","name":"Madi Opei","name_adm0":"Uganda","name_adm1":"Kitgum","name_adm2":"Lamwo","name_en":"Madi Opei","iso":"UG"},"geometry":{"type":"Point","coordinates":[33.10194,3.59111]}},{"type":"Feature","properties":{"country_en":"Uganda","name":"Katikamu","name_adm0":"Uganda","name_adm1":"Luwero","name_adm2":"Katikamu","name_en":"Katikamu","iso":"UG"},"geometry":{"type":"Point","coordinates":[32.524681,0.739325]}},{"type":"Feature","properties":{"country_en":"Uganda","name":"Aringa","name_adm0":"Uganda","name_adm1":"Yumbe","name_adm2":"Aringa","name_en":"Aringa","iso":"UG"},"geometry":{"type":"Point","coordinates":[32.304649,1.36519]}},{"type":"Feature","properties":{"country_en":"Uganda","name":"Ngora","name_adm0":"Uganda","name_adm1":"Kumi","name_adm2":"Ngora","name_en":"Ngora","iso":"UG"},"geometry":{"type":"Point","coordinates":[33.77721999999999,1.4313899999999997]}},{"type":"Feature","properties":{"country_en":"Uganda","name":"Buruli","name_adm0":"Uganda","name_adm1":"Nakasongola","name_adm2":"Buruli","name_en":"Buruli","iso":"UG"},"geometry":{"type":"Point","coordinates":[32.287399,1.1150415]}},{"type":"Feature","properties":{"country_en":"Uganda","name":"Kyakarnihanda","name_adm0":"Uganda","name_adm1":"Kabarole","name_adm2":"Burahya","name_en":"Kyakarnihanda","iso":"UG"},"geometry":{"type":"Point","coordinates":[30.282783,0.4736079999999999]}},{"type":"Feature","properties":{"country_en":"Uganda","name":"Vurra","name_adm0":"Uganda","name_adm1":"Arua","name_adm2":"Vurra","name_en":"Vurra","iso":"UG"},"geometry":{"type":"Point","coordinates":[30.886688,3.4627029999999994]}},{"type":"Feature","properties":{"country_en":"Uganda","name":"Kyaka","name_adm0":"Uganda","name_adm1":"Kyenjojo","name_adm2":"Kyaka","name_en":"Kyaka","iso":"UG"},"geometry":{"type":"Point","coordinates":[30.786437,0.583089]}},{"type":"Feature","properties":{"country_en":"Uganda","name":"Buwekula","name_adm0":"Uganda","name_adm1":"Mubende","name_adm2":"Buwekula","name_en":"Buwekula","iso":"UG"},"geometry":{"type":"Point","coordinates":[32.11853,0.387265]}},{"type":"Feature","properties":{"country_en":"Uganda","name":"Masindi","name_adm0":"Uganda","name_adm1":"Masindi","name_adm2":"Bujenje","name_en":"Masindi","iso":"UG"},"geometry":{"type":"Point","coordinates":[31.637369999999997,1.5928399999999998]}},{"type":"Feature","properties":{"country_en":"Uganda","name":"Moroto","name_adm0":"Uganda","name_adm1":"Moroto","name_adm2":"Matheniko","name_en":"Moroto","iso":"UG"},"geometry":{"type":"Point","coordinates":[34.5,2.58333]}},{"type":"Feature","properties":{"country_en":"Uganda","name":"Mulago","name_adm0":"Uganda","name_adm1":"Kampala","name_adm2":"Kampala","name_en":"Mulago","iso":"UG"},"geometry":{"type":"Point","coordinates":[32.58333,0.35]}},{"type":"Feature","properties":{"country_en":"Uganda","name":"Tororo","name_adm0":"Uganda","name_adm1":"Tororo","name_en":"Tororo","iso":"UG"},"geometry":{"type":"Point","coordinates":[33.934707,0.6622539999999999]}},{"type":"Feature","properties":{"country_en":"Uganda","name":"Busia","name_adm0":"Uganda","name_adm1":"Busia","name_en":"Busia","iso":"UG"},"geometry":{"type":"Point","coordinates":[34.009895,0.45647399999999994]}},{"type":"Feature","properties":{"country_en":"Uganda","name":"Atura","name_adm0":"Uganda","name_adm1":"Oyam","name_adm2":"Oyam","name_en":"Atura","iso":"UG"},"geometry":{"type":"Point","coordinates":[32.34206,2.12607]}},{"type":"Feature","properties":{"country_en":"Uganda","name":"Bugana","name_adm0":"Uganda","name_adm1":"Masindi","name_adm2":"Bujenje","name_en":"Bugana","iso":"UG"},"geometry":{"type":"Point","coordinates":[31.507309999999997,2.0642]}},{"type":"Feature","properties":{"country_en":"Uganda","name":"Kele","name_adm0":"Uganda","name_adm1":"Kaberamaido","name_adm2":"Kaberamaido","name_en":"Kele","iso":"UG"},"geometry":{"type":"Point","coordinates":[33.16667,1.65]}},{"type":"Feature","properties":{"country_en":"Uganda","name":"Zigot","name_adm0":"Uganda","name_adm1":"Mityana","name_adm2":"Busujju","name_en":"Zigot","iso":"UG"},"geometry":{"type":"Point","coordinates":[32.145,0.38389]}},{"type":"Feature","properties":{"country_en":"Uganda","name":"Kabarole","name_adm0":"Uganda","name_adm1":"Kabarole","name_adm2":"Fort Portal","name_en":"Kabarole","iso":"UG"},"geometry":{"type":"Point","coordinates":[30.26667,0.6499999999999999]}},{"type":"Feature","properties":{"country_en":"Uganda","name":"Amolatar","name_adm0":"Uganda","name_adm1":"Amolatar","name_adm2":"Kioga","name_en":"Amolatar","iso":"UG"},"geometry":{"type":"Point","coordinates":[32.75,1.66667]}},{"type":"Feature","properties":{"country_en":"Uganda","name":"Arapoo","name_adm0":"Uganda","name_adm1":"Soroti","name_adm2":"Kasilo","name_en":"Arapoo","iso":"UG"},"geometry":{"type":"Point","coordinates":[33.25,1.41667]}},{"type":"Feature","properties":{"country_en":"Uganda","name":"Bamunanika","name_adm0":"Uganda","name_adm1":"Luwero","name_adm2":"Bamunanika","name_en":"Bamunanika","iso":"UG"},"geometry":{"type":"Point","coordinates":[32.60778,0.68833]}},{"type":"Feature","properties":{"country_en":"Uganda","name":"Boroboro","name_adm0":"Uganda","name_adm1":"Lira","name_adm2":"Erute","name_en":"Boroboro","iso":"UG"},"geometry":{"type":"Point","coordinates":[32.91833,2.18167]}},{"type":"Feature","properties":{"country_en":"Uganda","name":"Mutai","name_adm0":"Uganda","name_adm1":"Jinja","name_adm2":"Kagoma","name_en":"Mutai","iso":"UG"},"geometry":{"type":"Point","coordinates":[33.206939999999996,0.5825]}},{"type":"Feature","properties":{"country_en":"Uganda","name":"Mutir","name_adm0":"Uganda","name_adm1":"Nebbi","name_adm2":"Jonam","name_en":"Mutir","iso":"UG"},"geometry":{"type":"Point","coordinates":[31.40788,2.7453]}},{"type":"Feature","properties":{"country_en":"Uganda","name":"Nakalama","name_adm0":"Uganda","name_adm1":"Iganga","name_adm2":"Kigulu","name_en":"Nakalama","iso":"UG"},"geometry":{"type":"Point","coordinates":[33.50889,0.6319399999999998]}},{"type":"Feature","properties":{"country_en":"Uganda","name":"Nalweyo","name_adm0":"Uganda","name_adm1":"Kibaale","name_adm2":"Bugangaizi","name_en":"Nalweyo","iso":"UG"},"geometry":{"type":"Point","coordinates":[31.26667,1.11667]}},{"type":"Feature","properties":{"country_en":"Uganda","name":"Naminage","name_adm0":"Uganda","name_adm1":"Kamuli","name_adm2":"Buzaaya","name_en":"Naminage","iso":"UG"},"geometry":{"type":"Point","coordinates":[33.18139,0.86583]}},{"type":"Feature","properties":{"country_en":"Uganda","name":"Namungalwe","name_adm0":"Uganda","name_adm1":"Iganga","name_adm2":"Kigulu","name_en":"Namungalwe","iso":"UG"},"geometry":{"type":"Point","coordinates":[33.4925,0.71722]}},{"type":"Feature","properties":{"country_en":"Uganda","name":"Aduku","name_adm0":"Uganda","name_adm1":"Apac","name_adm2":"Kwania","name_en":"Aduku","iso":"UG"},"geometry":{"type":"Point","coordinates":[32.71694,1.9975]}},{"type":"Feature","properties":{"country_en":"Uganda","name":"Agule","name_adm0":"Uganda","name_adm1":"Pallisa","name_adm2":"Pallisa","name_en":"Agule","iso":"UG"},"geometry":{"type":"Point","coordinates":[33.71166999999999,1.25944]}},{"type":"Feature","properties":{"country_en":"Uganda","name":"Kikandwa","name_adm0":"Uganda","name_adm1":"Mukono","name_adm2":"Nakifuma","name_en":"Kikandwa","iso":"UG"},"geometry":{"type":"Point","coordinates":[32.78333,0.4666699999999999]}},{"type":"Feature","properties":{"country_en":"Uganda","name":"Kiwumulo","name_adm0":"Uganda","name_adm1":"Mubende","name_adm2":"Buwekula","name_en":"Kiwumulo","iso":"UG"},"geometry":{"type":"Point","coordinates":[31.799999999999997,0.48333]}},{"type":"Feature","properties":{"country_en":"Uganda","name":"Lale","name_adm0":"Uganda","name_adm1":"Soroti","name_adm2":"Soroti","name_en":"Lale","iso":"UG"},"geometry":{"type":"Point","coordinates":[33.46666999999999,1.68333]}},{"type":"Feature","properties":{"country_en":"Uganda","name":"Omodoi","name_adm0":"Uganda","name_adm1":"Kaberamaido","name_adm2":"Kalaki","name_en":"Omodoi","iso":"UG"},"geometry":{"type":"Point","coordinates":[33.56667,1.65]}},{"type":"Feature","properties":{"country_en":"Uganda","name":"Mbale","name_adm0":"Uganda","name_adm1":"Mbale","name_adm2":"Mbale","name_en":"Mbale","iso":"UG"},"geometry":{"type":"Point","coordinates":[34.191,1.016]}},{"type":"Feature","properties":{"country_en":"Uganda","name":"Pallisa","name_adm0":"Uganda","name_adm1":"Pallisa","name_adm2":"Pallisa","name_en":"Pallisa","iso":"UG"},"geometry":{"type":"Point","coordinates":[33.70944,1.145]}},{"type":"Feature","properties":{"country_en":"Uganda","name":"Nakapiripirit","name_adm0":"Uganda","name_adm1":"Nakapiripirit","name_en":"Nakapiripirit","iso":"UG"},"geometry":{"type":"Point","coordinates":[34.70684,1.7949409999999997]}},{"type":"Feature","properties":{"country_en":"Uganda","name":"Kaliro","name_adm0":"Uganda","name_adm1":"Kaliro","name_adm2":"Bulamogi","name_en":"Kaliro","iso":"UG"},"geometry":{"type":"Point","coordinates":[33.5,1]}},{"type":"Feature","properties":{"country_en":"Uganda","name":"Kapeka","name_adm0":"Uganda","name_adm1":"Nakaseke","name_adm2":"Nakaseke","name_en":"Kapeka","iso":"UG"},"geometry":{"type":"Point","coordinates":[32.23556,0.69111]}},{"type":"Feature","properties":{"country_en":"Uganda","name":"Katoke","name_adm0":"Uganda","name_adm1":"Kyenjojo","name_adm2":"Mwenge","name_en":"Katoke","iso":"UG"},"geometry":{"type":"Point","coordinates":[30.682499999999997,0.7583299999999998]}},{"type":"Feature","properties":{"country_en":"Uganda","name":"Yumbe","name_adm0":"Uganda","name_adm1":"Yumbe","name_adm2":"Aringa","name_en":"Yumbe","iso":"UG"},"geometry":{"type":"Point","coordinates":[31.187,3.44037]}},{"type":"Feature","properties":{"country_en":"Uganda","name":"Zirobwe","name_adm0":"Uganda","name_adm1":"Luwero","name_adm2":"Bamunanika","name_en":"Zirobwe","iso":"UG"},"geometry":{"type":"Point","coordinates":[32.68943999999999,0.67944]}},{"type":"Feature","properties":{"country_en":"Uganda","name":"Zitwe","name_adm0":"Uganda","name_adm1":"Mukono","name_adm2":"Buikwe","name_en":"Zitwe","iso":"UG"},"geometry":{"type":"Point","coordinates":[32.88333,0.95]}},{"type":"Feature","properties":{"country_en":"Uganda","name":"Hoima","name_adm0":"Uganda","name_adm1":"Hoima","name_adm2":"Bugahya","name_en":"Hoima","iso":"UG"},"geometry":{"type":"Point","coordinates":[31.24906,1.55358]}},{"type":"Feature","properties":{"country_en":"Uganda","name":"Kakuuto","name_adm0":"Uganda","name_adm1":"Rakai","name_adm2":"Kakuuto","name_en":"Kakuuto","iso":"UG"},"geometry":{"type":"Point","coordinates":[31.365794999999995,-0.466913]}},{"type":"Feature","properties":{"country_en":"Uganda","name":"Kibuku","name_adm0":"Uganda","name_adm1":"Pallisa","name_adm2":"Kibuku","name_en":"Kibuku","iso":"UG"},"geometry":{"type":"Point","coordinates":[33.7975,1.04333]}},{"type":"Feature","properties":{"country_en":"Uganda","name":"Farajok","name_adm0":"Uganda","name_adm1":"Kitgum","name_adm2":"Lamwo","name_en":"Farajok","iso":"UG"},"geometry":{"type":"Point","coordinates":[32.51667,3.96667]}},{"type":"Feature","properties":{"country_en":"Uganda","name":"Busia","name_adm0":"Uganda","name_adm1":"Busia","name_adm2":"Samia-Bugwe","name_en":"Busia","iso":"UG"},"geometry":{"type":"Point","coordinates":[34,0.41667]}},{"type":"Feature","properties":{"country_en":"Uganda","name":"Mbarara","name_adm0":"Uganda","name_adm1":"Mbarara","name_adm2":"Mbarara","name_en":"Mbarara","iso":"UG"},"geometry":{"type":"Point","coordinates":[30.599999999999998,-0.5]}},{"type":"Feature","properties":{"country_en":"Uganda","name":"Buyaga","name_adm0":"Uganda","name_adm1":"Kibaale","name_adm2":"Buyaga","name_en":"Buyaga","iso":"UG"},"geometry":{"type":"Point","coordinates":[30.942992999999998,0.899468]}},{"type":"Feature","properties":{"country_en":"Uganda","name":"Bukoto","name_adm0":"Uganda","name_adm1":"Masaka","name_adm2":"Bukoto","name_en":"Bukoto","iso":"UG"},"geometry":{"type":"Point","coordinates":[31.726369,-0.262117]}},{"type":"Feature","properties":{"country_en":"Uganda","name":"Kibanda","name_adm0":"Uganda","name_adm1":"Masindi","name_adm2":"Kibanda","name_en":"Kibanda","iso":"UG"},"geometry":{"type":"Point","coordinates":[31.690063,1.7630269999999997]}},{"type":"Feature","properties":{"country_en":"Uganda","name":"Kotido","name_adm0":"Uganda","name_adm1":"Kotido","name_en":"Kotido","iso":"UG"},"geometry":{"type":"Point","coordinates":[33.776779,3.7212310000000004]}},{"type":"Feature","properties":{"country_en":"Uganda","name":"Ntungamo","name_adm0":"Uganda","name_adm1":"Ntungamo","name_en":"Ntungamo","iso":"UG"},"geometry":{"type":"Point","coordinates":[30.190429,-0.800487]}},{"type":"Feature","properties":{"country_en":"Uganda","name":"Kibale","name_adm0":"Uganda","name_adm1":"Kibaale","name_adm2":"Buyaga","name_en":"Kibale","iso":"UG"},"geometry":{"type":"Point","coordinates":[30.63333,1.01667]}},{"type":"Feature","properties":{"country_en":"Uganda","name":"Bugangaizi","name_adm0":"Uganda","name_adm1":"Kibaale","name_adm2":"Bugangaizi","name_en":"Bugangaizi","iso":"UG"},"geometry":{"type":"Point","coordinates":[30.942992999999998,0.899468]}},{"type":"Feature","properties":{"country_en":"Uganda","name":"Nyabushozi","name_adm0":"Uganda","name_adm1":"Kiruhuura","name_adm2":"Nyabushozi","name_en":"Nyabushozi","iso":"UG"},"geometry":{"type":"Point","coordinates":[30.93544,-0.4879605]}},{"type":"Feature","properties":{"country_en":"Uganda","name":"Oyam","name_adm0":"Uganda","name_adm1":"Oyam","name_en":"Oyam","iso":"UG"},"geometry":{"type":"Point","coordinates":[32.246305,2.236277]}},{"type":"Feature","properties":{"country_en":"Uganda","name":"Mityana","name_adm0":"Uganda","name_adm1":"Mityana","name_en":"Mityana","iso":"UG"},"geometry":{"type":"Point","coordinates":[32.049179,0.401684]}},{"type":"Feature","properties":{"country_en":"Uganda","name":"Ntenjeru","name_adm0":"Uganda","name_adm1":"Kayunga","name_adm2":"Ntenjeru","name_en":"Ntenjeru","iso":"UG"},"geometry":{"type":"Point","coordinates":[33.007221,0.857588]}},{"type":"Feature","properties":{"country_en":"Uganda","name":"Sheema","name_adm0":"Uganda","name_adm1":"Bushenyi","name_adm2":"Sheema","name_en":"Sheema","iso":"UG"},"geometry":{"type":"Point","coordinates":[30.093612,-0.28015]}},{"type":"Feature","properties":{"country_en":"Uganda","name":"Kyabadazza","name_adm0":"Uganda","name_adm1":"Mpigi","name_adm2":"Butambala","name_en":"Kyabadazza","iso":"UG"},"geometry":{"type":"Point","coordinates":[32.18333,0.11666999999999998]}},{"type":"Feature","properties":{"country_en":"Uganda","name":"Bugadi","name_adm0":"Uganda","name_adm1":"Mayuge","name_adm2":"Bunya","name_en":"Bugadi","iso":"UG"},"geometry":{"type":"Point","coordinates":[33.48971999999999,0.31416999999999995]}},{"type":"Feature","properties":{"country_en":"Uganda","name":"Kalisizo","name_adm0":"Uganda","name_adm1":"Rakai","name_adm2":"Kyotera","name_en":"Kalisizo","iso":"UG"},"geometry":{"type":"Point","coordinates":[31.4,-0.36667]}},{"type":"Feature","properties":{"country_en":"Uganda","name":"Kasangati","name_adm0":"Uganda","name_adm1":"Wakiso","name_adm2":"Kyadondo","name_en":"Kasangati","iso":"UG"},"geometry":{"type":"Point","coordinates":[32.58639,0.43806]}},{"type":"Feature","properties":{"country_en":"Uganda","name":"Kasanje","name_adm0":"Uganda","name_adm1":"Wakiso","name_adm2":"Busiiro","name_en":"Kasanje","iso":"UG"},"geometry":{"type":"Point","coordinates":[32.39694,0.1525]}},{"type":"Feature","properties":{"country_en":"Uganda","name":"Kiryandongo","name_adm0":"Uganda","name_adm1":"Masindi","name_adm2":"Kibanda","name_en":"Kiryandongo","iso":"UG"},"geometry":{"type":"Point","coordinates":[31.31785,1.63715]}},{"type":"Feature","properties":{"country_en":"Uganda","name":"Kiwoko","name_adm0":"Uganda","name_adm1":"Nakaseke","name_adm2":"Nakaseke","name_en":"Kiwoko","iso":"UG"},"geometry":{"type":"Point","coordinates":[32.35306,0.84639]}},{"type":"Feature","properties":{"country_en":"Uganda","name":"Matiri","name_adm0":"Uganda","name_adm1":"Kyenjojo","name_adm2":"Mwenge","name_en":"Matiri","iso":"UG"},"geometry":{"type":"Point","coordinates":[30.76333,0.57667]}},{"type":"Feature","properties":{"country_en":"Uganda","name":"Matuga","name_adm0":"Uganda","name_adm1":"Wakiso","name_adm2":"Kyadondo","name_en":"Matuga","iso":"UG"},"geometry":{"type":"Point","coordinates":[32.52139,0.46917]}},{"type":"Feature","properties":{"country_en":"Uganda","name":"Mayenze","name_adm0":"Uganda","name_adm1":"Manafwa","name_adm2":"Bubulo","name_en":"Mayenze","iso":"UG"},"geometry":{"type":"Point","coordinates":[34.27944,0.9416699999999999]}},{"type":"Feature","properties":{"country_en":"Uganda","name":"Bale","name_adm0":"Uganda","name_adm1":"Kayunga","name_adm2":"Bbaale","name_en":"Bale","iso":"UG"},"geometry":{"type":"Point","coordinates":[32.87694,1.0902799999999997]}},{"type":"Feature","properties":{"country_en":"Uganda","name":"Abari","name_adm0":"Uganda","name_adm1":"Soroti","name_adm2":"Soroti","name_en":"Abari","iso":"UG"},"geometry":{"type":"Point","coordinates":[33.43333,1.76667]}},{"type":"Feature","properties":{"country_en":"Uganda","name":"Bobi","name_adm0":"Uganda","name_adm1":"Gulu","name_adm2":"Omoro","name_en":"Bobi","iso":"UG"},"geometry":{"type":"Point","coordinates":[32.35736,2.55573]}},{"type":"Feature","properties":{"country_en":"Uganda","name":"Bundibugyo","name_adm0":"Uganda","name_adm1":"Bundibugyo","name_adm2":"Bwamba","name_en":"Bundibugyo","iso":"UG"},"geometry":{"type":"Point","coordinates":[30.05,0.83333]}},{"type":"Feature","properties":{"country_en":"Uganda","name":"Kinoni","name_adm0":"Uganda","name_adm1":"Mbarara","name_adm2":"Rwampara","name_en":"Kinoni","iso":"UG"},"geometry":{"type":"Point","coordinates":[30.493889999999997,-0.70111]}},{"type":"Feature","properties":{"country_en":"Uganda","name":"Ntungamo","name_adm0":"Uganda","name_adm1":"Ntungamo","name_adm2":"Ruhaama","name_en":"Ntungamo","iso":"UG"},"geometry":{"type":"Point","coordinates":[30.389,-1]}},{"type":"Feature","properties":{"country_en":"Uganda","name":"Ibanda","name_adm0":"Uganda","name_adm1":"Ibanda","name_adm2":"Ibanda","name_en":"Ibanda","iso":"UG"},"geometry":{"type":"Point","coordinates":[30.555999999999997,-0.081]}},{"type":"Feature","properties":{"country_en":"Uganda","name":"Kaberamaido","name_adm0":"Uganda","name_adm1":"Kaberamaido","name_adm2":"Kaberamaido","name_en":"Kaberamaido","iso":"UG"},"geometry":{"type":"Point","coordinates":[33.22576,1.75732]}},{"type":"Feature","properties":{"country_en":"Uganda","name":"Kiboga","name_adm0":"Uganda","name_adm1":"Kiboga","name_adm2":"Kiboga","name_en":"Kiboga","iso":"UG"},"geometry":{"type":"Point","coordinates":[31.93283,0.85]}},{"type":"Feature","properties":{"country_en":"Uganda","name":"Nakaseke","name_adm0":"Uganda","name_adm1":"Nakaseke","name_adm2":"Nakaseke","name_en":"Nakaseke","iso":"UG"},"geometry":{"type":"Point","coordinates":[32.18968,1.04063]}},{"type":"Feature","properties":{"country_en":"Uganda","name":"Rhino Camp","name_adm0":"Uganda","name_adm1":"Arua","name_adm2":"Madi-Okollo","name_en":"Rhino Camp","iso":"UG"},"geometry":{"type":"Point","coordinates":[31.396329999999995,2.97279]}},{"type":"Feature","properties":{"country_en":"Uganda","name":"Bunya","name_adm0":"Uganda","name_adm1":"Mayuge","name_adm2":"Bunya","name_en":"Bunya","iso":"UG"},"geometry":{"type":"Point","coordinates":[33.53302,0.433612]}},{"type":"Feature","properties":{"country_en":"Uganda","name":"Terego","name_adm0":"Uganda","name_adm1":"Nyadri","name_adm2":"Terego","name_en":"Terego","iso":"UG"},"geometry":{"type":"Point","coordinates":[32.304649,1.36519]}},{"type":"Feature","properties":{"country_en":"Uganda","name":"Butambala","name_adm0":"Uganda","name_adm1":"Mpigi","name_adm2":"Butambala","name_en":"Butambala","iso":"UG"},"geometry":{"type":"Point","coordinates":[32.442626,0.395504]}},{"type":"Feature","properties":{"country_en":"Uganda","name":"Kamudini","name_adm0":"Uganda","name_adm1":"Oyam","name_adm2":"Oyam","name_en":"Kamudini","iso":"UG"},"geometry":{"type":"Point","coordinates":[32.33762,2.2471]}},{"type":"Feature","properties":{"country_en":"Uganda","name":"Burahya","name_adm0":"Uganda","name_adm1":"Kabarole","name_adm2":"Burahya","name_en":"Burahya","iso":"UG"},"geometry":{"type":"Point","coordinates":[30.282783,0.4736079999999999]}},{"type":"Feature","properties":{"country_en":"Uganda","name":"Bunyaruguru","name_adm0":"Uganda","name_adm1":"Bushenyi","name_adm2":"Bunyaruguru","name_en":"Bunyaruguru","iso":"UG"},"geometry":{"type":"Point","coordinates":[30.088806,-0.208739]}},{"type":"Feature","properties":{"country_en":"Uganda","name":"Igara","name_adm0":"Uganda","name_adm1":"Bushenyi","name_adm2":"Igara","name_en":"Igara","iso":"UG"},"geometry":{"type":"Point","coordinates":[30.093612,-0.28015]}},{"type":"Feature","properties":{"country_en":"Uganda","name":"Samia-Bugwe","name_adm0":"Uganda","name_adm1":"Busia","name_adm2":"Samia-Bugwe","name_en":"Samia-Bugwe","iso":"UG"},"geometry":{"type":"Point","coordinates":[34.009895,0.45647399999999994]}},{"type":"Feature","properties":{"country_en":"Uganda","name":"Usuk","name_adm0":"Uganda","name_adm1":"Katakwi","name_adm2":"Usuk","name_en":"Usuk","iso":"UG"},"geometry":{"type":"Point","coordinates":[33.795747,2.2467285]}},{"type":"Feature","properties":{"country_en":"Uganda","name":"Kween","name_adm0":"Uganda","name_adm1":"Kapchorwa","name_adm2":"Kween","name_en":"Kween","iso":"UG"},"geometry":{"type":"Point","coordinates":[34.3624875,1.3059719999999997]}},{"type":"Feature","properties":{"country_en":"Uganda","name":"Rwampara","name_adm0":"Uganda","name_adm1":"Mbarara","name_adm2":"Rwampara","name_en":"Rwampara","iso":"UG"},"geometry":{"type":"Point","coordinates":[30.925139999999995,-0.6399399999999998]}},{"type":"Feature","properties":{"country_en":"Uganda","name":"Kaabong","name_adm0":"Uganda","name_adm1":"Kaabong","name_adm2":"Dodoth","name_en":"Kaabong","iso":"UG"},"geometry":{"type":"Point","coordinates":[34,3.58333]}},{"type":"Feature","properties":{"country_en":"Uganda","name":"Bbaale","name_adm0":"Uganda","name_adm1":"Kayunga","name_adm2":"Bbaale","name_en":"Bbaale","iso":"UG"},"geometry":{"type":"Point","coordinates":[33.007221,0.857588]}},{"type":"Feature","properties":{"country_en":"Uganda","name":"Jie","name_adm0":"Uganda","name_adm1":"Kotido","name_adm2":"Jie","name_en":"Jie","iso":"UG"},"geometry":{"type":"Point","coordinates":[34.109802,3.003347]}},{"type":"Feature","properties":{"country_en":"Uganda","name":"Kassanda","name_adm0":"Uganda","name_adm1":"Mubende","name_adm2":"Kassanda","name_en":"Kassanda","iso":"UG"},"geometry":{"type":"Point","coordinates":[32.11853,0.387265]}},{"type":"Feature","properties":{"country_en":"Uganda","name":"Moroto","name_adm0":"Uganda","name_adm1":"Lira","name_adm2":"Moroto","name_en":"Moroto","iso":"UG"},"geometry":{"type":"Point","coordinates":[32.854614,2.306505]}},{"type":"Feature","properties":{"country_en":"Uganda","name":"Hoima","name_adm0":"Uganda","name_adm1":"Hoima","name_en":"Hoima","iso":"UG"},"geometry":{"type":"Point","coordinates":[30.966027000000004,1.533305]}},{"type":"Feature","properties":{"country_en":"Uganda","name":"Kalangala","name_adm0":"Uganda","name_adm1":"Kalangala","name_en":"Kalangala","iso":"UG"},"geometry":{"type":"Point","coordinates":[32.255859,-0.304869]}},{"type":"Feature","properties":{"country_en":"Uganda","name":"Kapchorwa","name_adm0":"Uganda","name_adm1":"Kapchorwa","name_en":"Kapchorwa","iso":"UG"},"geometry":{"type":"Point","coordinates":[34.3624875,1.3059719999999997]}},{"type":"Feature","properties":{"country_en":"Uganda","name":"Kiboga","name_adm0":"Uganda","name_adm1":"Kiboga","name_en":"Kiboga","iso":"UG"},"geometry":{"type":"Point","coordinates":[31.992187,0.703107]}},{"type":"Feature","properties":{"country_en":"Uganda","name":"Uganda","name_adm0":"Uganda","name_en":"Uganda","iso":"UG"},"geometry":{"type":"Point","coordinates":[32.304649,1.36519]}},{"type":"Feature","properties":{"country_en":"Uganda","name":"Kisoro","name_adm0":"Uganda","name_adm1":"Kisoro","name_en":"Kisoro","iso":"UG"},"geometry":{"type":"Point","coordinates":[29.651926999999997,-1.106717]}},{"type":"Feature","properties":{"country_en":"Uganda","name":"Atiak","name_adm0":"Uganda","name_adm1":"Amuru","name_adm2":"Kilak","name_en":"Atiak","iso":"UG"},"geometry":{"type":"Point","coordinates":[31.439820000000005,2.40053]}},{"type":"Feature","properties":{"country_en":"Uganda","name":"Kanoni","name_adm0":"Uganda","name_adm1":"Mpigi","name_adm2":"Gomba","name_en":"Kanoni","iso":"UG"},"geometry":{"type":"Point","coordinates":[31.7,-0.23332999999999998]}},{"type":"Feature","properties":{"country_en":"Uganda","name":"Kapchorwa","name_adm0":"Uganda","name_adm1":"Kapchorwa","name_adm2":"Tingey","name_en":"Kapchorwa","iso":"UG"},"geometry":{"type":"Point","coordinates":[34.40388,1.38487]}},{"type":"Feature","properties":{"country_en":"Uganda","name":"Nebbi","name_adm0":"Uganda","name_adm1":"Nebbi","name_en":"Nebbi","iso":"UG"},"geometry":{"type":"Point","coordinates":[31.476618999999996,2.3226279999999995]}},{"type":"Feature","properties":{"country_en":"Uganda","name":"Sipi","name_adm0":"Uganda","name_adm1":"Kapchorwa","name_adm2":"Tingey","name_en":"Sipi","iso":"UG"},"geometry":{"type":"Point","coordinates":[34.37417,1.30972]}},{"type":"Feature","properties":{"country_en":"Uganda","name":"Nakasongola","name_adm0":"Uganda","name_adm1":"Nakasongola","name_en":"Nakasongola","iso":"UG"},"geometry":{"type":"Point","coordinates":[32.287399,1.1150415]}},{"type":"Feature","properties":{"country_en":"Uganda","name":"Mukono","name_adm0":"Uganda","name_adm1":"Mukono","name_en":"Mukono","iso":"UG"},"geometry":{"type":"Point","coordinates":[32.860107,0.37971199999999994]}},{"type":"Feature","properties":{"country_en":"Uganda","name":"Magamaga","name_adm0":"Uganda","name_adm1":"Jinja","name_adm2":"Butembe","name_en":"Magamaga","iso":"UG"},"geometry":{"type":"Point","coordinates":[33.3375,0.51361]}},{"type":"Feature","properties":{"country_en":"Uganda","name":"Rubirizi","name_adm0":"Uganda","name_adm1":"Bushenyi","name_adm2":"Bunyaruguru","name_en":"Rubirizi","iso":"UG"},"geometry":{"type":"Point","coordinates":[29.96667,-1]}},{"type":"Feature","properties":{"country_en":"Uganda","name":"Mpigi","name_adm0":"Uganda","name_adm1":"Mpigi","name_en":"Mpigi","iso":"UG"},"geometry":{"type":"Point","coordinates":[32.442626,0.395504]}},{"type":"Feature","properties":{"country_en":"Uganda","name":"Kaba","name_adm0":"Uganda","name_adm1":"Kasese","name_adm2":"Busongora","name_en":"Kaba","iso":"UG"},"geometry":{"type":"Point","coordinates":[30.416669999999996,0.4]}},{"type":"Feature","properties":{"country_en":"Uganda","name":"Kamuli","name_adm0":"Uganda","name_adm1":"Kamuli","name_adm2":"Bugabula","name_en":"Kamuli","iso":"UG"},"geometry":{"type":"Point","coordinates":[33.13333,1.08333]}},{"type":"Feature","properties":{"country_en":"Uganda","name":"Kasese","name_adm0":"Uganda","name_adm1":"Kasese","name_adm2":"Busongora","name_en":"Kasese","iso":"UG"},"geometry":{"type":"Point","coordinates":[30.035880000000002,0.11457]}},{"type":"Feature","properties":{"country_en":"Uganda","name":"Kawanda","name_adm0":"Uganda","name_adm1":"Wakiso","name_adm2":"Kyadondo","name_en":"Kawanda","iso":"UG"},"geometry":{"type":"Point","coordinates":[32.53639,0.3775]}},{"type":"Feature","properties":{"country_en":"Uganda","name":"Port Bell","name_adm0":"Uganda","name_adm1":"Kampala","name_adm2":"Kampala","name_en":"Port Bell","iso":"UG"},"geometry":{"type":"Point","coordinates":[32.65972,0.29111]}},{"type":"Feature","properties":{"country_en":"Uganda","name":"Luwero","name_adm0":"Uganda","name_adm1":"Luwero","name_en":"Luwero","iso":"UG"},"geometry":{"type":"Point","coordinates":[32.472839,0.8143649999999999]}},{"type":"Feature","properties":{"country_en":"Uganda","name":"Mubende","name_adm0":"Uganda","name_adm1":"Mubende","name_en":"Mubende","iso":"UG"},"geometry":{"type":"Point","coordinates":[32.11853,0.387265]}},{"type":"Feature","properties":{"country_en":"Uganda","name":"Gulu","name_adm0":"Uganda","name_adm1":"Gulu","name_en":"Gulu","iso":"UG"},"geometry":{"type":"Point","coordinates":[31.683025,2.280434]}},{"type":"Feature","properties":{"country_en":"Uganda","name":"Bundibugyo","name_adm0":"Uganda","name_adm1":"Bundibugyo","name_en":"Bundibugyo","iso":"UG"},"geometry":{"type":"Point","coordinates":[30.275082999999995,1.018231]}},{"type":"Feature","properties":{"country_en":"Uganda","name":"Bushenyi","name_adm0":"Uganda","name_adm1":"Bushenyi","name_en":"Bushenyi","iso":"UG"},"geometry":{"type":"Point","coordinates":[30.093612,-0.28015]}},{"type":"Feature","properties":{"country_en":"Uganda","name":"Masindi","name_adm0":"Uganda","name_adm1":"Masindi","name_en":"Masindi","iso":"UG"},"geometry":{"type":"Point","coordinates":[31.690063,1.7630269999999997]}},{"type":"Feature","properties":{"country_en":"Uganda","name":"Mbale","name_adm0":"Uganda","name_adm1":"Mbale","name_en":"Mbale","iso":"UG"},"geometry":{"type":"Point","coordinates":[34.257087,0.849692]}},{"type":"Feature","properties":{"country_en":"Uganda","name":"Mbarara","name_adm0":"Uganda","name_adm1":"Mbarara","name_en":"Mbarara","iso":"UG"},"geometry":{"type":"Point","coordinates":[30.925139999999995,-0.6399399999999998]}},{"type":"Feature","properties":{"country_en":"Uganda","name":"Moroto","name_adm0":"Uganda","name_adm1":"Moroto","name_en":"Moroto","iso":"UG"},"geometry":{"type":"Point","coordinates":[34.365234,2.547987]}},{"type":"Feature","properties":{"country_en":"Uganda","name":"Kibaale","name_adm0":"Uganda","name_adm1":"Kibaale","name_en":"Kibaale","iso":"UG"},"geometry":{"type":"Point","coordinates":[30.942992999999998,0.899468]}},{"type":"Feature","properties":{"country_en":"Uganda","name":"Kumi","name_adm0":"Uganda","name_adm1":"Kumi","name_en":"Kumi","iso":"UG"},"geometry":{"type":"Point","coordinates":[33.879656,1.502551]}},{"type":"Feature","properties":{"country_en":"Uganda","name":"Pallisa","name_adm0":"Uganda","name_adm1":"Pallisa","name_en":"Pallisa","iso":"UG"},"geometry":{"type":"Point","coordinates":[33.793029999999995,1.209092]}},{"type":"Feature","properties":{"country_en":"Uganda","name":"Butebo","name_adm0":"Uganda","name_adm1":"Budaka","name_adm2":"Butebo","name_en":"Butebo","iso":"UG"},"geometry":{"type":"Point","coordinates":[32.304649,1.36519]}},{"type":"Feature","properties":{"country_en":"Uganda","name":"Bunyole","name_adm0":"Uganda","name_adm1":"Butaleja","name_adm2":"Bunyole","name_en":"Bunyole","iso":"UG"},"geometry":{"type":"Point","coordinates":[32.304649,1.36519]}},{"type":"Feature","properties":{"country_en":"Uganda","name":"Busiki","name_adm0":"Uganda","name_adm1":"Namutumba","name_adm2":"Busiki","name_en":"Busiki","iso":"UG"},"geometry":{"type":"Point","coordinates":[32.304649,1.36519]}},{"type":"Feature","properties":{"country_en":"Uganda","name":"Bukooli","name_adm0":"Uganda","name_adm1":"Bugiri","name_adm2":"Bukooli","name_en":"Bukooli","iso":"UG"},"geometry":{"type":"Point","coordinates":[32.304649,1.36519]}},{"type":"Feature","properties":{"country_en":"Uganda","name":"Kalaki","name_adm0":"Uganda","name_adm1":"Kaberamaido","name_adm2":"Kalaki","name_en":"Kalaki","iso":"UG"},"geometry":{"type":"Point","coordinates":[33.014576,1.679462]}},{"type":"Feature","properties":{"country_en":"Uganda","name":"Kabula","name_adm0":"Uganda","name_adm1":"Lyantonde","name_adm2":"Kabula","name_en":"Kabula","iso":"UG"},"geometry":{"type":"Point","coordinates":[32.304649,1.36519]}},{"type":"Feature","properties":{"country_en":"Uganda","name":"Bamunanika","name_adm0":"Uganda","name_adm1":"Luwero","name_adm2":"Bamunanika","name_en":"Bamunanika","iso":"UG"},"geometry":{"type":"Point","coordinates":[32.472839,0.8143649999999999]}},{"type":"Feature","properties":{"country_en":"Uganda","name":"Pian","name_adm0":"Uganda","name_adm1":"Nakapiripirit","name_adm2":"Pian","name_en":"Pian","iso":"UG"},"geometry":{"type":"Point","coordinates":[34.70684,1.7949409999999997]}},{"type":"Feature","properties":{"country_en":"Uganda","name":"Pokot","name_adm0":"Uganda","name_adm1":"Nakapiripirit","name_adm2":"Pokot","name_en":"Pokot","iso":"UG"},"geometry":{"type":"Point","coordinates":[34.70684,1.7949409999999997]}},{"type":"Feature","properties":{"country_en":"Uganda","name":"Ruhaama","name_adm0":"Uganda","name_adm1":"Ntungamo","name_adm2":"Ruhaama","name_en":"Ruhaama","iso":"UG"},"geometry":{"type":"Point","coordinates":[30.190429,-0.800487]}},{"type":"Feature","properties":{"country_en":"Uganda","name":"Bulamogi","name_adm0":"Uganda","name_adm1":"Kaliro","name_adm2":"Bulamogi","name_en":"Bulamogi","iso":"UG"},"geometry":{"type":"Point","coordinates":[32.304649,1.36519]}},{"type":"Feature","properties":{"country_en":"Uganda","name":"Lwemiyaga","name_adm0":"Uganda","name_adm1":"Sembabule","name_adm2":"Lwemiyaga","name_en":"Lwemiyaga","iso":"UG"},"geometry":{"type":"Point","coordinates":[31.552733999999997,0.142822]}},{"type":"Feature","properties":{"country_en":"Uganda","name":"Busiiro","name_adm0":"Uganda","name_adm1":"Wakiso","name_adm2":"Busiiro","name_en":"Busiiro","iso":"UG"},"geometry":{"type":"Point","coordinates":[32.550833,0.200156]}},{"type":"Feature","properties":{"country_en":"Uganda","name":"Sanga","name_adm0":"Uganda","name_adm1":"Kiruhuura","name_adm2":"Nyabushozi","name_en":"Sanga","iso":"UG"},"geometry":{"type":"Point","coordinates":[30.618889999999997,-0.5469399999999999]}},{"type":"Feature","properties":{"country_en":"Uganda","name":"Ntoroko","name_adm0":"Uganda","name_adm1":"Bundibugyo","name_adm2":"Ntoroko","name_en":"Ntoroko","iso":"UG"},"geometry":{"type":"Point","coordinates":[30.481109999999997,1.04111]}},{"type":"Feature","properties":{"country_en":"Uganda","name":"Kumi","name_adm0":"Uganda","name_adm1":"Kumi","name_adm2":"Kumi","name_en":"Kumi","iso":"UG"},"geometry":{"type":"Point","coordinates":[33.95,1.5]}},{"type":"Feature","properties":{"country_en":"Uganda","name":"Mityana","name_adm0":"Uganda","name_adm1":"Mityana","name_adm2":"Mityana","name_en":"Mityana","iso":"UG"},"geometry":{"type":"Point","coordinates":[32.06697,0.43213]}},{"type":"Feature","properties":{"country_en":"Uganda","name":"Sembabule","name_adm0":"Uganda","name_adm1":"Sembabule","name_en":"Sembabule","iso":"UG"},"geometry":{"type":"Point","coordinates":[31.552733999999997,0.142822]}},{"type":"Feature","properties":{"country_en":"Uganda","name":"Kiruhuura","name_adm0":"Uganda","name_adm1":"Kiruhuura","name_en":"Kiruhuura","iso":"UG"},"geometry":{"type":"Point","coordinates":[30.93544,-0.4879605]}},{"type":"Feature","properties":{"country_en":"Uganda","name":"Bungokho","name_adm0":"Uganda","name_adm1":"Mbale","name_adm2":"Bungokho","name_en":"Bungokho","iso":"UG"},"geometry":{"type":"Point","coordinates":[34.257087,0.849692]}},{"type":"Feature","properties":{"country_en":"Uganda","name":"Nakifuma","name_adm0":"Uganda","name_adm1":"Mukono","name_adm2":"Nakifuma","name_en":"Nakifuma","iso":"UG"},"geometry":{"type":"Point","coordinates":[32.860107,0.37971199999999994]}},{"type":"Feature","properties":{"country_en":"Uganda","name":"Bokora","name_adm0":"Uganda","name_adm1":"Moroto","name_adm2":"Bokora","name_en":"Bokora","iso":"UG"},"geometry":{"type":"Point","coordinates":[34.365234,2.547987]}},{"type":"Feature","properties":{"country_en":"Uganda","name":"Matheniko","name_adm0":"Uganda","name_adm1":"Moroto","name_adm2":"Matheniko","name_en":"Matheniko","iso":"UG"},"geometry":{"type":"Point","coordinates":[34.65623,2.531297]}},{"type":"Feature","properties":{"country_en":"Uganda","name":"West Moyo","name_adm0":"Uganda","name_adm1":"Moyo","name_adm2":"West Moyo","name_en":"West Moyo","iso":"UG"},"geometry":{"type":"Point","coordinates":[31.725768999999996,3.59703]}},{"type":"Feature","properties":{"country_en":"Uganda","name":"Bulisa","name_adm0":"Uganda","name_adm1":"Masindi","name_adm2":"Bujenje","name_en":"Bulisa","iso":"UG"},"geometry":{"type":"Point","coordinates":[31.37838,2.178951]}},{"type":"Feature","properties":{"country_en":"Uganda","name":"Masindi Port","name_adm0":"Uganda","name_adm1":"Masindi","name_adm2":"Kibanda","name_en":"Masindi Port","iso":"UG"},"geometry":{"type":"Point","coordinates":[32.08608,1.6960599999999997]}},{"type":"Feature","properties":{"country_en":"Uganda","name":"Kilembe","name_adm0":"Uganda","name_adm1":"Kasese","name_adm2":"Busongora","name_en":"Kilembe","iso":"UG"},"geometry":{"type":"Point","coordinates":[30.013019999999997,0.19835]}},{"type":"Feature","properties":{"country_en":"Uganda","name":"Masaka","name_adm0":"Uganda","name_adm1":"Masaka","name_en":"Masaka","iso":"UG"},"geometry":{"type":"Point","coordinates":[31.726369,-0.262117]}},{"type":"Feature","properties":{"country_en":"Uganda","name":"Ngora","name_adm0":"Uganda","name_adm1":"Kumi","name_adm2":"Ngora","name_en":"Ngora","iso":"UG"},"geometry":{"type":"Point","coordinates":[33.7403,1.48351]}},{"type":"Feature","properties":{"country_en":"Uganda","name":"Anaka","name_adm0":"Uganda","name_adm1":"Amuru","name_adm2":"Nwoya","name_en":"Anaka","iso":"UG"},"geometry":{"type":"Point","coordinates":[31.947489999999995,2.6011399999999996]}},{"type":"Feature","properties":{"country_en":"Uganda","name":"Jinja","name_adm0":"Uganda","name_adm1":"Jinja","name_adm2":"Jinja","name_en":"Jinja","iso":"UG"},"geometry":{"type":"Point","coordinates":[33.315,0.511]}},{"type":"Feature","properties":{"country_en":"Uganda","name":"Kampala","name_adm0":"Uganda","name_adm1":"Kampala","name_adm2":"Kampala","name_en":"Kampala","iso":"UG"},"geometry":{"type":"Point","coordinates":[32.58313,0.33507999999999993]}},{"type":"Feature","properties":{"country_en":"Uganda","name":"Nwoya","name_adm0":"Uganda","name_adm1":"Amuru","name_adm2":"Nwoya","name_en":"Nwoya","iso":"UG"},"geometry":{"type":"Point","coordinates":[32.00106,2.63422]}},{"type":"Feature","properties":{"country_en":"Uganda","name":"Lira","name_adm0":"Uganda","name_adm1":"Lira","name_adm2":"Lira","name_en":"Lira","iso":"UG"},"geometry":{"type":"Point","coordinates":[32.953,2.274]}},{"type":"Feature","properties":{"country_en":"Uganda","name":"Soroti","name_adm0":"Uganda","name_adm1":"Soroti","name_adm2":"Soroti","name_en":"Soroti","iso":"UG"},"geometry":{"type":"Point","coordinates":[33.59432,1.78481]}},{"type":"Feature","properties":{"country_en":"Uganda","name":"Kisoro","name_adm0":"Uganda","name_adm1":"Kisoro","name_adm2":"Kisoro","name_en":"Kisoro","iso":"UG"},"geometry":{"type":"Point","coordinates":[29.68113,-1.20662]}},{"type":"Feature","properties":{"country_en":"Uganda","name":"Bukedea","name_adm0":"Uganda","name_adm1":"Bukedea","name_adm2":"Bukedea","name_en":"Bukedea","iso":"UG"},"geometry":{"type":"Point","coordinates":[34.13333,1.36667]}},{"type":"Feature","properties":{"country_en":"Uganda","name":"Omoro","name_adm0":"Uganda","name_adm1":"Gulu","name_adm2":"Omoro","name_en":"Omoro","iso":"UG"},"geometry":{"type":"Point","coordinates":[31.683025,2.280434]}},{"type":"Feature","properties":{"country_en":"Uganda","name":"Buhaguzi","name_adm0":"Uganda","name_adm1":"Hoima","name_adm2":"Buhaguzi","name_en":"Buhaguzi","iso":"UG"},"geometry":{"type":"Point","coordinates":[30.966027000000004,1.533305]}},{"type":"Feature","properties":{"country_en":"Uganda","name":"Bugweri","name_adm0":"Uganda","name_adm1":"Iganga","name_adm2":"Bugweri","name_en":"Bugweri","iso":"UG"},"geometry":{"type":"Point","coordinates":[33.382816,0.7696199999999999]}},{"type":"Feature","properties":{"country_en":"Uganda","name":"Budiope","name_adm0":"Uganda","name_adm1":"Kamuli","name_adm2":"Budiope","name_en":"Budiope","iso":"UG"},"geometry":{"type":"Point","coordinates":[33.088073,0.977735]}},{"type":"Feature","properties":{"country_en":"Uganda","name":"Bukonjo","name_adm0":"Uganda","name_adm1":"Kasese","name_adm2":"Bukonjo","name_en":"Bukonjo","iso":"UG"},"geometry":{"type":"Point","coordinates":[29.970702999999997,-0.043945]}},{"type":"Feature","properties":{"country_en":"Uganda","name":"Busongora","name_adm0":"Uganda","name_adm1":"Kasese","name_adm2":"Busongora","name_en":"Busongora","iso":"UG"},"geometry":{"type":"Point","coordinates":[30.017538999999996,-0.115104]}},{"type":"Feature","properties":{"country_en":"Uganda","name":"Bugabula","name_adm0":"Uganda","name_adm1":"Kamuli","name_adm2":"Bugabula","name_en":"Bugabula","iso":"UG"},"geometry":{"type":"Point","coordinates":[33.124372,0.943869]}},{"type":"Feature","properties":{"country_en":"Uganda","name":"Bugahya","name_adm0":"Uganda","name_adm1":"Hoima","name_adm2":"Bugahya","name_en":"Bugahya","iso":"UG"},"geometry":{"type":"Point","coordinates":[31.337814,1.446608]}},{"type":"Feature","properties":{"country_en":"Uganda","name":"Chua","name_adm0":"Uganda","name_adm1":"Kitgum","name_adm2":"Chua","name_en":"Chua","iso":"UG"},"geometry":{"type":"Point","coordinates":[32.876044,3.293052]}},{"type":"Feature","properties":{"country_en":"Uganda","name":"Padyere","name_adm0":"Uganda","name_adm1":"Nebbi","name_adm2":"Padyere","name_en":"Padyere","iso":"UG"},"geometry":{"type":"Point","coordinates":[31.476618999999996,2.3226279999999995]}},{"type":"Feature","properties":{"country_en":"Uganda","name":"Kisoko","name_adm0":"Uganda","name_adm1":"Tororo","name_adm2":"Kisoko","name_en":"Kisoko","iso":"UG"},"geometry":{"type":"Point","coordinates":[33.934707,0.6622539999999999]}},{"type":"Feature","properties":{"country_en":"Uganda","name":"Busujju","name_adm0":"Uganda","name_adm1":"Mityana","name_adm2":"Busujju","name_en":"Busujju","iso":"UG"},"geometry":{"type":"Point","coordinates":[32.049179,0.401684]}},{"type":"Feature","properties":{"country_en":"Uganda","name":"Mawogola","name_adm0":"Uganda","name_adm1":"Sembabule","name_adm2":"Mawogola","name_en":"Mawogola","iso":"UG"},"geometry":{"type":"Point","coordinates":[31.552733999999997,0.142822]}},{"type":"Feature","properties":{"country_en":"Uganda","name":"Kabwohe","name_adm0":"Uganda","name_adm1":"Bushenyi","name_adm2":"Sheema","name_en":"Kabwohe","iso":"UG"},"geometry":{"type":"Point","coordinates":[30.44361,-0.61917]}},{"type":"Feature","properties":{"country_en":"Uganda","name":"Mpondwe","name_adm0":"Uganda","name_adm1":"Kasese","name_adm2":"Bukonjo","name_en":"Mpondwe","iso":"UG"},"geometry":{"type":"Point","coordinates":[29.764999999999997,0.09499999999999999]}},{"type":"Feature","properties":{"country_en":"Uganda","name":"Mubende","name_adm0":"Uganda","name_adm1":"Mubende","name_adm2":"Buwekula","name_en":"Mubende","iso":"UG"},"geometry":{"type":"Point","coordinates":[31.416669999999996,0.5]}},{"type":"Feature","properties":{"country_en":"Uganda","name":"Vurra","name_adm0":"Uganda","name_adm1":"Arua","name_adm2":"Vurra","name_en":"Vurra","iso":"UG"},"geometry":{"type":"Point","coordinates":[30.88248,2.90906]}},{"type":"Feature","properties":{"country_en":"Uganda","name":"Dodoth","name_adm0":"Uganda","name_adm1":"Kaabong","name_adm2":"Dodoth","name_en":"Dodoth","iso":"UG"},"geometry":{"type":"Point","coordinates":[32.304649,1.36519]}},{"type":"Feature","properties":{"country_en":"Uganda","name":"Bubulo","name_adm0":"Uganda","name_adm1":"Manafwa","name_adm2":"Bubulo","name_en":"Bubulo","iso":"UG"},"geometry":{"type":"Point","coordinates":[32.304649,1.36519]}},{"type":"Feature","properties":{"country_en":"Uganda","name":"Kayunga","name_adm0":"Uganda","name_adm1":"Kayunga","name_en":"Kayunga","iso":"UG"},"geometry":{"type":"Point","coordinates":[33.007221,0.857588]}},{"type":"Feature","properties":{"country_en":"Uganda","name":"Kaberamaido","name_adm0":"Uganda","name_adm1":"Kaberamaido","name_en":"Kaberamaido","iso":"UG"},"geometry":{"type":"Point","coordinates":[33.014576,1.679462]}},{"type":"Feature","properties":{"country_en":"Uganda","name":"Otuke","name_adm0":"Uganda","name_adm1":"Lira","name_adm2":"Otuke","name_en":"Otuke","iso":"UG"},"geometry":{"type":"Point","coordinates":[33.50065,2.50038]}},{"type":"Feature","properties":{"country_en":"Uganda","name":"Bukomansimbi","name_adm0":"Uganda","name_adm1":"Masaka","name_adm2":"Bukomansimbi","name_en":"Bukomansimbi","iso":"UG"},"geometry":{"type":"Point","coordinates":[31.60417,-0.15778]}},{"type":"Feature","properties":{"country_en":"Uganda","name":"Maracha","name_adm0":"Uganda","name_adm1":"Nyadri","name_adm2":"Maracha","name_en":"Maracha","iso":"UG"},"geometry":{"type":"Point","coordinates":[30.925159999999998,3.2509099999999997]}},{"type":"Feature","properties":{"country_en":"Uganda","name":"Moroto","name_adm0":"Uganda","name_adm1":"Moroto","name_adm2":"Moroto","name_en":"Moroto","iso":"UG"},"geometry":{"type":"Point","coordinates":[34.64395,2.6389]}},{"type":"Feature","properties":{"country_en":"Uganda","name":"Isingiro","name_adm0":"Uganda","name_adm1":"Isingiro","name_adm2":"Isingiro","name_en":"Isingiro","iso":"UG"},"geometry":{"type":"Point","coordinates":[30.87175,-0.83354]}},{"type":"Feature","properties":{"country_en":"Uganda","name":"Koboko","name_adm0":"Uganda","name_adm1":"Koboko","name_adm2":"Koboko","name_en":"Koboko","iso":"UG"},"geometry":{"type":"Point","coordinates":[30.999999999999996,3.5]}},{"type":"Feature","properties":{"country_en":"Uganda","name":"Serere","name_adm0":"Uganda","name_adm1":"Soroti","name_adm2":"Serere","name_en":"Serere","iso":"UG"},"geometry":{"type":"Point","coordinates":[33.45528,1.49417]}},{"type":"Feature","properties":{"country_en":"Uganda","name":"Mityana","name_adm0":"Uganda","name_adm1":"Mityana","name_adm2":"Mityana","name_en":"Mityana","iso":"UG"},"geometry":{"type":"Point","coordinates":[32.02278,0.4175]}},{"type":"Feature","properties":{"country_en":"Uganda","name":"Kanungu","name_adm0":"Uganda","name_adm1":"Kanungu","name_en":"Kanungu","iso":"UG"},"geometry":{"type":"Point","coordinates":[29.649696,-0.96675]}},{"type":"Feature","properties":{"country_en":"Uganda","name":"Kalongo","name_adm0":"Uganda","name_adm1":"Pader","name_adm2":"Agago","name_en":"Kalongo","iso":"UG"},"geometry":{"type":"Point","coordinates":[33.38889,3.03028]}},{"type":"Feature","properties":{"country_en":"Uganda","name":"Nebbi","name_adm0":"Uganda","name_adm1":"Nebbi","name_adm2":"Padyere","name_en":"Nebbi","iso":"UG"},"geometry":{"type":"Point","coordinates":[31.187249999999995,2.46182]}},{"type":"Feature","properties":{"country_en":"Uganda","name":"Kyenjojo","name_adm0":"Uganda","name_adm1":"Kyenjojo","name_adm2":"Mwenge","name_en":"Kyenjojo","iso":"UG"},"geometry":{"type":"Point","coordinates":[30.66667,0.66667]}},{"type":"Feature","properties":{"country_en":"Uganda","name":"Bwamba","name_adm0":"Uganda","name_adm1":"Bundibugyo","name_adm2":"Bwamba","name_en":"Bwamba","iso":"UG"},"geometry":{"type":"Point","coordinates":[30.275082999999995,1.018231]}},{"type":"Feature","properties":{"country_en":"Uganda","name":"Bunyangabu","name_adm0":"Uganda","name_adm1":"Kabarole","name_adm2":"Bunyangabu","name_en":"Bunyangabu","iso":"UG"},"geometry":{"type":"Point","coordinates":[30.379552,0.585698]}},{"type":"Feature","properties":{"country_en":"Uganda","name":"Busesa","name_adm0":"Uganda","name_adm1":"Iganga","name_adm2":"Bugweri","name_en":"Busesa","iso":"UG"},"geometry":{"type":"Point","coordinates":[33.59056,0.61972]}},{"type":"Feature","properties":{"country_en":"Uganda","name":"Loyoro","name_adm0":"Uganda","name_adm1":"Kaabong","name_adm2":"Dodoth","name_en":"Loyoro","iso":"UG"},"geometry":{"type":"Point","coordinates":[32.53333,2.23333]}},{"type":"Feature","properties":{"country_en":"Uganda","name":"Iganga","name_adm0":"Uganda","name_adm1":"Iganga","name_en":"Iganga","iso":"UG"},"geometry":{"type":"Point","coordinates":[33.382816,0.7696199999999999]}},{"type":"Feature","properties":{"country_en":"Uganda","name":"Kisoro","name_adm0":"Uganda","name_adm1":"Kisoro","name_en":"Kisoro","iso":"UG"},"geometry":{"type":"Point","coordinates":[29.679222,-1.279543]}},{"type":"Feature","properties":{"country_en":"Uganda","name":"Wera","name_adm0":"Uganda","name_adm1":"Amuria","name_adm2":"Amuria","name_en":"Wera","iso":"UG"},"geometry":{"type":"Point","coordinates":[33.76611,1.8411099999999998]}},{"type":"Feature","properties":{"country_en":"Uganda","name":"Kisomoro","name_adm0":"Uganda","name_adm1":"Kabarole","name_adm2":"Bunyangabu","name_en":"Kisomoro","iso":"UG"},"geometry":{"type":"Point","coordinates":[30.1375,0.56389]}},{"type":"Feature","properties":{"country_en":"Uganda","name":"Tororo","name_adm0":"Uganda","name_adm1":"Tororo","name_adm2":"Tororo","name_en":"Tororo","iso":"UG"},"geometry":{"type":"Point","coordinates":[34.18085,0.69299]}},{"type":"Feature","properties":{"country_en":"Uganda","name":"Ibanda","name_adm0":"Uganda","name_adm1":"Ibanda","name_adm2":"Ibanda","name_en":"Ibanda","iso":"UG"},"geometry":{"type":"Point","coordinates":[30.496159999999996,-0.13398]}},{"type":"Feature","properties":{"country_en":"Uganda","name":"Nabilatuk","name_adm0":"Uganda","name_adm1":"Nakapiripirit","name_adm2":"Pian","name_en":"Nabilatuk","iso":"UG"},"geometry":{"type":"Point","coordinates":[34.58417,2.02056]}},{"type":"Feature","properties":{"country_en":"Uganda","name":"Myanzi","name_adm0":"Uganda","name_adm1":"Mubende","name_adm2":"Kassanda","name_en":"Myanzi","iso":"UG"},"geometry":{"type":"Point","coordinates":[31.89972,0.44222]}},{"type":"Feature","properties":{"country_en":"Uganda","name":"Katojo","name_adm0":"Uganda","name_adm1":"Kasese","name_adm2":"Bukonjo","name_en":"Katojo","iso":"UG"},"geometry":{"type":"Point","coordinates":[29.80167,-0.03972]}},{"type":"Feature","properties":{"country_en":"Uganda","name":"Goli","name_adm0":"Uganda","name_adm1":"Nebbi","name_adm2":"Padyere","name_en":"Goli","iso":"UG"},"geometry":{"type":"Point","coordinates":[31.02963,2.3875599999999997]}},{"type":"Feature","properties":{"country_en":"Uganda","name":"Amuria","name_adm0":"Uganda","name_adm1":"Amuria","name_adm2":"Amuria","name_en":"Amuria","iso":"UG"},"geometry":{"type":"Point","coordinates":[33.65111,2.00361]}},{"type":"Feature","properties":{"country_en":"Uganda","name":"Kilak","name_adm0":"Uganda","name_adm1":"Amuru","name_adm2":"Kilak","name_en":"Kilak","iso":"UG"},"geometry":{"type":"Point","coordinates":[32.17612,2.84107]}},{"type":"Feature","properties":{"country_en":"Uganda","name":"Kagulu","name_adm0":"Uganda","name_adm1":"Kamuli","name_adm2":"Budiope","name_en":"Kagulu","iso":"UG"},"geometry":{"type":"Point","coordinates":[33.305,1.2327799999999998]}},{"type":"Feature","properties":{"country_en":"Uganda","name":"Adilang","name_adm0":"Uganda","name_adm1":"Pader","name_adm2":"Agago","name_en":"Adilang","iso":"UG"},"geometry":{"type":"Point","coordinates":[33.49306,2.71917]}},{"type":"Feature","properties":{"country_en":"Uganda","name":"Kiriri","name_adm0":"Uganda","name_adm1":"Mpigi","name_adm2":"Gomba","name_en":"Kiriri","iso":"UG"},"geometry":{"type":"Point","coordinates":[32.036109999999994,0.2075]}},{"type":"Feature","properties":{"country_en":"Uganda","name":"Kasanda","name_adm0":"Uganda","name_adm1":"Mubende","name_adm2":"Kassanda","name_en":"Kasanda","iso":"UG"},"geometry":{"type":"Point","coordinates":[31.80222,0.55667]}},{"type":"Feature","properties":{"country_en":"Uganda","name":"Nabyeso","name_adm0":"Uganda","name_adm1":"Apac","name_adm2":"Kwania","name_en":"Nabyeso","iso":"UG"},"geometry":{"type":"Point","coordinates":[32.79556,1.85194]}},{"type":"Feature","properties":{"country_en":"Uganda","name":"Bugiri","name_adm0":"Uganda","name_adm1":"Bugiri","name_en":"Bugiri","iso":"UG"},"geometry":{"type":"Point","coordinates":[32.304649,1.36519]}},{"type":"Feature","properties":{"country_en":"Uganda","name":"Katwe","name_adm0":"Uganda","name_adm1":"Kasese","name_adm2":"Bukonjo","name_en":"Katwe","iso":"UG"},"geometry":{"type":"Point","coordinates":[29.830279999999995,-0.14167]}},{"type":"Feature","properties":{"country_en":"Uganda","name":"Budaka","name_adm0":"Uganda","name_adm1":"Budaka","name_adm2":"Budaka","name_en":"Budaka","iso":"UG"},"geometry":{"type":"Point","coordinates":[33.92556,1.00389]}},{"type":"Feature","properties":{"country_en":"Uganda","name":"Padibe","name_adm0":"Uganda","name_adm1":"Kitgum","name_adm2":"Lamwo","name_en":"Padibe","iso":"UG"},"geometry":{"type":"Point","coordinates":[32.848609999999994,3.44583]}},{"type":"Feature","properties":{"country_en":"Uganda","name":"Parombo","name_adm0":"Uganda","name_adm1":"Nebbi","name_adm2":"Padyere","name_en":"Parombo","iso":"UG"},"geometry":{"type":"Point","coordinates":[31.20294,2.3035599999999996]}},{"type":"Feature","properties":{"country_en":"Uganda","name":"Otuboi","name_adm0":"Uganda","name_adm1":"Kaberamaido","name_adm2":"Kalaki","name_en":"Otuboi","iso":"UG"},"geometry":{"type":"Point","coordinates":[33.29889,1.89417]}},{"type":"Feature","properties":{"country_en":"Uganda","name":"Ntwetwe","name_adm0":"Uganda","name_adm1":"Kiboga","name_adm2":"Kiboga","name_en":"Ntwetwe","iso":"UG"},"geometry":{"type":"Point","coordinates":[31.574170000000002,0.9547199999999999]}},{"type":"Feature","properties":{"country_en":"Uganda","name":"Pajule","name_adm0":"Uganda","name_adm1":"Pader","name_adm2":"Aruu","name_en":"Pajule","iso":"UG"},"geometry":{"type":"Point","coordinates":[32.94389,2.93972]}},{"type":"Feature","properties":{"country_en":"Uganda","name":"Kabasanda","name_adm0":"Uganda","name_adm1":"Mpigi","name_adm2":"Butambala","name_en":"Kabasanda","iso":"UG"},"geometry":{"type":"Point","coordinates":[32.21111,0.27166999999999997]}},{"type":"Feature","properties":{"country_en":"Uganda","name":"Kamuge","name_adm0":"Uganda","name_adm1":"Pallisa","name_adm2":"Pallisa","name_en":"Kamuge","iso":"UG"},"geometry":{"type":"Point","coordinates":[33.81417,1.1399999999999997]}},{"type":"Feature","properties":{"country_en":"Uganda","name":"Kalangalo","name_adm0":"Uganda","name_adm1":"Mityana","name_adm2":"Mityana","name_en":"Kalangalo","iso":"UG"},"geometry":{"type":"Point","coordinates":[31.95389,0.56722]}},{"type":"Feature","properties":{"country_en":"Uganda","name":"Kalaki","name_adm0":"Uganda","name_adm1":"Kaberamaido","name_adm2":"Kalaki","name_en":"Kalaki","iso":"UG"},"geometry":{"type":"Point","coordinates":[33.34167,1.7924999999999998]}},{"type":"Feature","properties":{"country_en":"Uganda","name":"Kitgum Matidi","name_adm0":"Uganda","name_adm1":"Kitgum","name_adm2":"Chua","name_en":"Kitgum Matidi","iso":"UG"},"geometry":{"type":"Point","coordinates":[33.09306,3.2366699999999997]}},{"type":"Feature","properties":{"country_en":"Uganda","name":"Akokoro","name_adm0":"Uganda","name_adm1":"Apac","name_adm2":"Maruzi","name_en":"Akokoro","iso":"UG"},"geometry":{"type":"Point","coordinates":[32.3963,1.70022]}},{"type":"Feature","properties":{"country_en":"Uganda","name":"Kiruhura","name_adm0":"Uganda","name_adm1":"Kiruhuura","name_adm2":"Nyabushozi","name_en":"Kiruhura","iso":"UG"},"geometry":{"type":"Point","coordinates":[30.844460000000005,-0.19664]}},{"type":"Feature","properties":{"country_en":"Uganda","name":"Koboko","name_adm0":"Uganda","name_adm1":"Koboko","name_adm2":"Koboko","name_en":"Koboko","iso":"UG"},"geometry":{"type":"Point","coordinates":[30.95994,3.41364]}},{"type":"Feature","properties":{"country_en":"Uganda","name":"Maracha","name_adm0":"Uganda","name_adm1":"Nyadri","name_adm2":"Maracha","name_en":"Maracha","iso":"UG"},"geometry":{"type":"Point","coordinates":[30.95532,3.27042]}},{"type":"Feature","properties":{"country_en":"Uganda","name":"Nkoko","name_adm0":"Uganda","name_adm1":"Kibaale","name_adm2":"Bugangaizi","name_en":"Nkoko","iso":"UG"},"geometry":{"type":"Point","coordinates":[31.417499999999997,0.9677799999999999]}},{"type":"Feature","properties":{"country_en":"Uganda","name":"Malima","name_adm0":"Uganda","name_adm1":"Kamuli","name_adm2":"Budiope","name_en":"Malima","iso":"UG"},"geometry":{"type":"Point","coordinates":[33.06167,1.32167]}},{"type":"Feature","properties":{"country_en":"Uganda","name":"Ndolwa","name_adm0":"Uganda","name_adm1":"Kamuli","name_adm2":"Budiope","name_en":"Ndolwa","iso":"UG"},"geometry":{"type":"Point","coordinates":[33.07943999999999,1.1961099999999998]}},{"type":"Feature","properties":{"country_en":"Uganda","name":"Namasale","name_adm0":"Uganda","name_adm1":"Amolatar","name_adm2":"Kioga","name_en":"Namasale","iso":"UG"},"geometry":{"type":"Point","coordinates":[32.61667,1.5]}},{"type":"Feature","properties":{"country_en":"Uganda","name":"Ntusi","name_adm0":"Uganda","name_adm1":"Sembabule","name_adm2":"Lwemiyaga","name_en":"Ntusi","iso":"UG"},"geometry":{"type":"Point","coordinates":[31.17306,0.061939999999999995]}},{"type":"Feature","properties":{"country_en":"Uganda","name":"War","name_adm0":"Uganda","name_adm1":"Nebbi","name_adm2":"Okoro","name_en":"War","iso":"UG"},"geometry":{"type":"Point","coordinates":[30.88884,2.60038]}},{"type":"Feature","properties":{"country_en":"Uganda","name":"Mweya","name_adm0":"Uganda","name_adm1":"Kasese","name_adm2":"Busongora","name_en":"Mweya","iso":"UG"},"geometry":{"type":"Point","coordinates":[29.905759,-0.191316]}},{"type":"Feature","properties":{"country_en":"Uganda","name":"Kyarusozi","name_adm0":"Uganda","name_adm1":"Kabarole","name_adm2":"Burahya","name_en":"Kyarusozi","iso":"UG"},"geometry":{"type":"Point","coordinates":[30.53111,0.78417]}},{"type":"Feature","properties":{"country_en":"Uganda","name":"Kyere","name_adm0":"Uganda","name_adm1":"Soroti","name_adm2":"Serere","name_en":"Kyere","iso":"UG"},"geometry":{"type":"Point","coordinates":[33.6,1.48333]}},{"type":"Feature","properties":{"country_en":"Uganda","name":"Nsangi","name_adm0":"Uganda","name_adm1":"Wakiso","name_adm2":"Busiiro","name_en":"Nsangi","iso":"UG"},"geometry":{"type":"Point","coordinates":[32.44056,0.27611]}},{"type":"Feature","properties":{"country_en":"Uganda","name":"Amenu","name_adm0":"Uganda","name_adm1":"Katakwi","name_adm2":"Usuk","name_en":"Amenu","iso":"UG"},"geometry":{"type":"Point","coordinates":[34.1,1.68333]}},{"type":"Feature","properties":{"country_en":"Uganda","name":"Kikagati","name_adm0":"Uganda","name_adm1":"Isingiro","name_adm2":"Isingiro","name_en":"Kikagati","iso":"UG"},