{"type":"FeatureCollection","features":[{"type":"Feature","properties":{"country_en":"Virgin Islands, U.S.","name":"Canaan","name_adm0":"US Virgin Islands","name_adm1":"Saint Croix Island","name_adm2":"Northcentral","name_en":"Canaan","iso":"VI"},"geometry":{"type":"Point","coordinates":[-64.79653,17.760249999999996]}},{"type":"Feature","properties":{"country_en":"Virgin Islands, U.S.","name":"Clifton Hill","name_adm0":"US Virgin Islands","name_adm1":"Saint Croix Island","name_adm2":"Southcentral","name_en":"Clifton Hill","iso":"VI"},"geometry":{"type":"Point","coordinates":[-64.77515,17.72581]}},{"type":"Feature","properties":{"country_en":"Virgin Islands, U.S.","name":"Annaberg","name_adm0":"US Virgin Islands","name_adm1":"Saint Croix Island","name_adm2":"Southcentral","name_en":"Annaberg","iso":"VI"},"geometry":{"type":"Point","coordinates":[-64.77431,17.711639999999996]}},{"type":"Feature","properties":{"country_en":"Virgin Islands, U.S.","name":"Calabash Boom","name_adm0":"US Virgin Islands","name_adm1":"Saint John Island","name_adm2":"Coral Bay","name_en":"Calabash Boom","iso":"VI"},"geometry":{"type":"Point","coordinates":[-64.70319,18.327729999999995]}},{"type":"Feature","properties":{"country_en":"Virgin Islands, U.S.","name":"Hoffman","name_adm0":"US Virgin Islands","name_adm1":"Saint Thomas Island","name_adm2":"Tutu","name_en":"Hoffman","iso":"VI"},"geometry":{"type":"Point","coordinates":[-64.89485999999998,18.33357]}},{"type":"Feature","properties":{"country_en":"Virgin Islands, U.S.","name":"Altona","name_adm0":"US Virgin Islands","name_adm1":"Saint Croix Island","name_adm2":"Anna's Hope","name_en":"Altona","iso":"VI"},"geometry":{"type":"Point","coordinates":[-64.69403,17.7447]}},{"type":"Feature","properties":{"country_en":"Virgin Islands, U.S.","name":"Anguilla","name_adm0":"US Virgin Islands","name_adm1":"Saint Croix Island","name_adm2":"Southcentral","name_en":"Anguilla","iso":"VI"},"geometry":{"type":"Point","coordinates":[-64.77986999999999,17.70664]}},{"type":"Feature","properties":{"country_en":"Virgin Islands, U.S.","name":"Annas Hope","name_adm0":"US Virgin Islands","name_adm1":"Saint Croix Island","name_adm2":"Anna's Hope","name_en":"Annas Hope","iso":"VI"},"geometry":{"type":"Point","coordinates":[-64.72874999999999,17.72831]}},{"type":"Feature","properties":{"country_en":"Virgin Islands, U.S.","name":"Seven Hills","name_adm0":"US Virgin Islands","name_adm1":"Saint Croix Island","name_adm2":"East End","name_en":"Seven Hills","iso":"VI"},"geometry":{"type":"Point","coordinates":[-64.65125,17.74581]}},{"type":"Feature","properties":{"country_en":"Virgin Islands, U.S.","name":"Windsor","name_adm0":"US Virgin Islands","name_adm1":"Saint Croix Island","name_adm2":"Northcentral","name_en":"Windsor","iso":"VI"},"geometry":{"type":"Point","coordinates":[-64.77376,17.75858]}},{"type":"Feature","properties":{"country_en":"Virgin Islands, U.S.","name":"Charlotte Amalie","name_adm0":"US Virgin Islands","name_adm1":"Saint Thomas Island","name_adm2":"Charlotte Amalie","name_en":"Charlotte Amalie","iso":"VI"},"geometry":{"type":"Point","coordinates":[-64.96156,18.336719999999996]}},{"type":"Feature","properties":{"country_en":"Virgin Islands, U.S.","name":"Lerkenlund","name_adm0":"US Virgin Islands","name_adm1":"Saint Thomas Island","name_adm2":"Northside","name_en":"Lerkenlund","iso":"VI"},"geometry":{"type":"Point","coordinates":[-64.94015,18.36023]}},{"type":"Feature","properties":{"country_en":"Virgin Islands, U.S.","name":"Saint Thomas Island","name_adm0":"US Virgin Islands","name_adm1":"Saint Thomas Island","name_en":"Saint Thomas Island","iso":"VI"},"geometry":{"type":"Point","coordinates":[-64.96941,18.32713]}},{"type":"Feature","properties":{"country_en":"Virgin Islands, U.S.","name":"Sion Farm","name_adm0":"US Virgin Islands","name_adm1":"Saint Croix Island","name_adm2":"Sion Farm","name_en":"Sion Farm","iso":"VI"},"geometry":{"type":"Point","coordinates":[-64.763685,17.7778925]}},{"type":"Feature","properties":{"country_en":"Virgin Islands, U.S.","name":"Coral Bay","name_adm0":"US Virgin Islands","name_adm1":"Saint John Island","name_adm2":"Coral Bay","name_en":"Coral Bay","iso":"VI"},"geometry":{"type":"Point","coordinates":[-64.71319,18.34801]}},{"type":"Feature","properties":{"country_en":"Virgin Islands, U.S.","name":"Christiansted","name_adm0":"US Virgin Islands","name_adm1":"Saint Croix Island","name_adm2":"Christiansted","name_en":"Christiansted","iso":"VI"},"geometry":{"type":"Point","coordinates":[-64.7032,17.74664]}},{"type":"Feature","properties":{"country_en":"Virgin Islands, U.S.","name":"East End","name_adm0":"US Virgin Islands","name_adm1":"Saint John Island","name_adm2":"East End","name_en":"East End","iso":"VI"},"geometry":{"type":"Point","coordinates":[-64.67458,18.33968]}},{"type":"Feature","properties":{"country_en":"Virgin Islands, U.S.","name":"Little Fountain","name_adm0":"US Virgin Islands","name_adm1":"Saint Croix Island","name_adm2":"Northcentral","name_en":"Little Fountain","iso":"VI"},"geometry":{"type":"Point","coordinates":[-64.79376,17.75164]}},{"type":"Feature","properties":{"country_en":"Virgin Islands, U.S.","name":"Central","name_adm0":"US Virgin Islands","name_adm1":"Saint John Island","name_adm2":"Central","name_en":"Central","iso":"VI"},"geometry":{"type":"Point","coordinates":[-64.748675,18.441715]}},{"type":"Feature","properties":{"country_en":"Virgin Islands, U.S.","name":"Lameshur","name_adm0":"US Virgin Islands","name_adm1":"Saint John Island","name_adm2":"Central","name_en":"Lameshur","iso":"VI"},"geometry":{"type":"Point","coordinates":[-64.72458,18.32051]}},{"type":"Feature","properties":{"country_en":"Virgin Islands, U.S.","name":"Leinster Bay","name_adm0":"US Virgin Islands","name_adm1":"Saint John Island","name_adm2":"Central","name_en":"Leinster Bay","iso":"VI"},"geometry":{"type":"Point","coordinates":[-64.72041,18.36329]}},{"type":"Feature","properties":{"country_en":"Virgin Islands, U.S.","name":"Mandal","name_adm0":"US Virgin Islands","name_adm1":"Saint Thomas Island","name_adm2":"Tutu","name_en":"Mandal","iso":"VI"},"geometry":{"type":"Point","coordinates":[-64.89848,18.35551]}},{"type":"Feature","properties":{"country_en":"Virgin Islands, U.S.","name":"Shoys","name_adm0":"US Virgin Islands","name_adm1":"Saint Croix Island","name_adm2":"East End","name_en":"Shoys","iso":"VI"},"geometry":{"type":"Point","coordinates":[-64.68236,17.75525]}},{"type":"Feature","properties":{"country_en":"Virgin Islands, U.S.","name":"Hermitage","name_adm0":"US Virgin Islands","name_adm1":"Saint John Island","name_adm2":"Central","name_en":"Hermitage","iso":"VI"},"geometry":{"type":"Point","coordinates":[-64.70014,18.35634]}},{"type":"Feature","properties":{"country_en":"Virgin Islands, U.S.","name":"East End","name_adm0":"US Virgin Islands","name_adm1":"Saint Thomas Island","name_adm2":"East End","name_en":"East End","iso":"VI"},"geometry":{"type":"Point","coordinates":[-64.852466,18.31827]}},{"type":"Feature","properties":{"country_en":"Virgin Islands, U.S.","name":"Northcentral","name_adm0":"US Virgin Islands","name_adm1":"Saint Croix Island","name_adm2":"Northcentral","name_en":"Northcentral","iso":"VI"},"geometry":{"type":"Point","coordinates":[-64.79187,17.785304]}},{"type":"Feature","properties":{"country_en":"Virgin Islands, U.S.","name":"Monte","name_adm0":"US Virgin Islands","name_adm1":"Saint John Island","name_adm2":"Cruz Bay","name_en":"Monte","iso":"VI"},"geometry":{"type":"Point","coordinates":[-64.77625,18.32079]}},{"type":"Feature","properties":{"country_en":"Virgin Islands, U.S.","name":"Nadir","name_adm0":"US Virgin Islands","name_adm1":"Saint Thomas Island","name_adm2":"Southside","name_en":"Nadir","iso":"VI"},"geometry":{"type":"Point","coordinates":[-64.8782,18.32218]}},{"type":"Feature","properties":{"country_en":"Virgin Islands, U.S.","name":"Orange Grove","name_adm0":"US Virgin Islands","name_adm1":"Saint Croix Island","name_adm2":"Anna's Hope","name_en":"Orange Grove","iso":"VI"},"geometry":{"type":"Point","coordinates":[-64.71930999999998,17.74553]}},{"type":"Feature","properties":{"country_en":"Virgin Islands, U.S.","name":"Petronella","name_adm0":"US Virgin Islands","name_adm1":"Saint Croix Island","name_adm2":"Anna's Hope","name_en":"Petronella","iso":"VI"},"geometry":{"type":"Point","coordinates":[-64.66792,17.72747]}},{"type":"Feature","properties":{"country_en":"Virgin Islands, U.S.","name":"Solitude","name_adm0":"US Virgin Islands","name_adm1":"Saint Croix Island","name_adm2":"East End","name_en":"Solitude","iso":"VI"},"geometry":{"type":"Point","coordinates":[-64.63125,17.75608]}},{"type":"Feature","properties":{"country_en":"Virgin Islands, U.S.","name":"Northside","name_adm0":"US Virgin Islands","name_adm1":"Saint Thomas Island","name_adm2":"Northside","name_en":"Northside","iso":"VI"},"geometry":{"type":"Point","coordinates":[-64.951171,18.359739]}},{"type":"Feature","properties":{"country_en":"Virgin Islands, U.S.","name":"Grange","name_adm0":"US Virgin Islands","name_adm1":"Saint Croix Island","name_adm2":"Anna's Hope","name_en":"Grange","iso":"VI"},"geometry":{"type":"Point","coordinates":[-64.72153,17.73108]}},{"type":"Feature","properties":{"country_en":"Virgin Islands, U.S.","name":"Palestina","name_adm0":"US Virgin Islands","name_adm1":"Saint John Island","name_adm2":"Coral Bay","name_en":"Palestina","iso":"VI"},"geometry":{"type":"Point","coordinates":[-64.7068,18.34884]}},{"type":"Feature","properties":{"country_en":"Virgin Islands, U.S.","name":"Paradise","name_adm0":"US Virgin Islands","name_adm1":"Saint Croix Island","name_adm2":"Southcentral","name_en":"Paradise","iso":"VI"},"geometry":{"type":"Point","coordinates":[-64.81487,17.70442]}},{"type":"Feature","properties":{"country_en":"Virgin Islands, U.S.","name":"Carden","name_adm0":"US Virgin Islands","name_adm1":"Saint Croix Island","name_adm2":"East End","name_en":"Carden","iso":"VI"},"geometry":{"type":"Point","coordinates":[-64.6407,17.75886]}},{"type":"Feature","properties":{"country_en":"Virgin Islands, U.S.","name":"Susannaberg","name_adm0":"US Virgin Islands","name_adm1":"Saint John Island","name_adm2":"Cruz Bay","name_en":"Susannaberg","iso":"VI"},"geometry":{"type":"Point","coordinates":[-64.77292,18.34134]}},{"type":"Feature","properties":{"country_en":"Virgin Islands, U.S.","name":"Mary Point","name_adm0":"US Virgin Islands","name_adm1":"Saint John Island","name_adm2":"Central","name_en":"Mary Point","iso":"VI"},"geometry":{"type":"Point","coordinates":[-64.7418,18.36523]}},{"type":"Feature","properties":{"country_en":"Virgin Islands, U.S.","name":"Nazareth","name_adm0":"US Virgin Islands","name_adm1":"Saint Thomas Island","name_adm2":"East End","name_en":"Nazareth","iso":"VI"},"geometry":{"type":"Point","coordinates":[-64.85486,18.32079]}},{"type":"Feature","properties":{"country_en":"Virgin Islands, U.S.","name":"Cane Valley","name_adm0":"US Virgin Islands","name_adm1":"Saint Croix Island","name_adm2":"Northwest","name_en":"Cane Valley","iso":"VI"},"geometry":{"type":"Point","coordinates":[-64.84653,17.71942]}},{"type":"Feature","properties":{"country_en":"Virgin Islands, U.S.","name":"Emmaus","name_adm0":"US Virgin Islands","name_adm1":"Saint John Island","name_adm2":"Coral Bay","name_en":"Emmaus","iso":"VI"},"geometry":{"type":"Point","coordinates":[-64.71791,18.34801]}},{"type":"Feature","properties":{"country_en":"Virgin Islands, U.S.","name":"Humbug","name_adm0":"US Virgin Islands","name_adm1":"Saint Croix Island","name_adm2":"Southcentral","name_en":"Humbug","iso":"VI"},"geometry":{"type":"Point","coordinates":[-64.7307,17.7122]}},{"type":"Feature","properties":{"country_en":"Virgin Islands, U.S.","name":"Morningstar","name_adm0":"US Virgin Islands","name_adm1":"Saint Croix Island","name_adm2":"Sion Farm","name_en":"Morningstar","iso":"VI"},"geometry":{"type":"Point","coordinates":[-64.76126,17.75831]}},{"type":"Feature","properties":{"country_en":"Virgin Islands, U.S.","name":"Mount Pleasant","name_adm0":"US Virgin Islands","name_adm1":"Saint John Island","name_adm2":"Central","name_en":"Mount Pleasant","iso":"VI"},"geometry":{"type":"Point","coordinates":[-64.73653,18.35579]}},{"type":"Feature","properties":{"country_en":"Virgin Islands, U.S.","name":"Allandale","name_adm0":"US Virgin Islands","name_adm1":"Saint Croix Island","name_adm2":"Northwest","name_en":"Allandale","iso":"VI"},"geometry":{"type":"Point","coordinates":[-64.84015,17.72803]}},{"type":"Feature","properties":{"country_en":"Virgin Islands, U.S.","name":"Beck Grove","name_adm0":"US Virgin Islands","name_adm1":"Saint Croix Island","name_adm2":"Northwest","name_en":"Beck Grove","iso":"VI"},"geometry":{"type":"Point","coordinates":[-64.85014999999999,17.72525]}},{"type":"Feature","properties":{"country_en":"Virgin Islands, U.S.","name":"Beeston Hill","name_adm0":"US Virgin Islands","name_adm1":"Saint Croix Island","name_adm2":"Anna's Hope","name_en":"Beeston Hill","iso":"VI"},"geometry":{"type":"Point","coordinates":[-64.72237,17.73664]}},{"type":"Feature","properties":{"country_en":"Virgin Islands, U.S.","name":"Belvedere","name_adm0":"US Virgin Islands","name_adm1":"Saint Croix Island","name_adm2":"Northcentral","name_en":"Belvedere","iso":"VI"},"geometry":{"type":"Point","coordinates":[-64.79875999999999,17.77636]}},{"type":"Feature","properties":{"country_en":"Virgin Islands, U.S.","name":"Bethlehem Old Work","name_adm0":"US Virgin Islands","name_adm1":"Saint Croix Island","name_adm2":"Sion Farm","name_en":"Bethlehem Old Work","iso":"VI"},"geometry":{"type":"Point","coordinates":[-64.79376,17.73136]}},{"type":"Feature","properties":{"country_en":"Virgin Islands, U.S.","name":"Betzys Jewell","name_adm0":"US Virgin Islands","name_adm1":"Saint Croix Island","name_adm2":"Northcentral","name_en":"Betzys Jewell","iso":"VI"},"geometry":{"type":"Point","coordinates":[-64.7957,17.75942]}},{"type":"Feature","properties":{"country_en":"Virgin Islands, U.S.","name":"Bonne Esperance","name_adm0":"US Virgin Islands","name_adm1":"Saint Croix Island","name_adm2":"Sion Farm","name_en":"Bonne Esperance","iso":"VI"},"geometry":{"type":"Point","coordinates":[-64.76931,17.74331]}},{"type":"Feature","properties":{"country_en":"Virgin Islands, U.S.","name":"Bugbyhole","name_adm0":"US Virgin Islands","name_adm1":"Saint Croix Island","name_adm2":"Anna's Hope","name_en":"Bugbyhole","iso":"VI"},"geometry":{"type":"Point","coordinates":[-64.70403,17.72581]}},{"type":"Feature","properties":{"country_en":"Virgin Islands, U.S.","name":"Canaan","name_adm0":"US Virgin Islands","name_adm1":"Saint Thomas Island","name_adm2":"Northside","name_en":"Canaan","iso":"VI"},"geometry":{"type":"Point","coordinates":[-64.9207,18.35718]}},{"type":"Feature","properties":{"country_en":"Virgin Islands, U.S.","name":"Caret Bay Estate","name_adm0":"US Virgin Islands","name_adm1":"Saint Thomas Island","name_adm2":"Northside","name_en":"Caret Bay Estate","iso":"VI"},"geometry":{"type":"Point","coordinates":[-64.97598,18.363839999999996]}},{"type":"Feature","properties":{"country_en":"Virgin Islands, U.S.","name":"Concordia","name_adm0":"US Virgin Islands","name_adm1":"Saint Croix Island","name_adm2":"Southwest","name_en":"Concordia","iso":"VI"},"geometry":{"type":"Point","coordinates":[-64.87348,17.68609]}},{"type":"Feature","properties":{"country_en":"Virgin Islands, U.S.","name":"Cooper","name_adm0":"US Virgin Islands","name_adm1":"Saint Croix Island","name_adm2":"Southcentral","name_en":"Cooper","iso":"VI"},"geometry":{"type":"Point","coordinates":[-64.80987,17.6947]}},{"type":"Feature","properties":{"country_en":"Virgin Islands, U.S.","name":"Diamond Keturah","name_adm0":"US Virgin Islands","name_adm1":"Saint Croix Island","name_adm2":"Anna's Hope","name_en":"Diamond Keturah","iso":"VI"},"geometry":{"type":"Point","coordinates":[-64.71376,17.7047]}},{"type":"Feature","properties":{"country_en":"Virgin Islands, U.S.","name":"Envy","name_adm0":"US Virgin Islands","name_adm1":"Saint Croix Island","name_adm2":"Southcentral","name_en":"Envy","iso":"VI"},"geometry":{"type":"Point","coordinates":[-64.80291999999999,17.699419999999996]}},{"type":"Feature","properties":{"country_en":"Virgin Islands, U.S.","name":"Fort Frederick","name_adm0":"US Virgin Islands","name_adm1":"Saint Croix Island","name_adm2":"Frederiksted","name_en":"Fort Frederick","iso":"VI"},"geometry":{"type":"Point","coordinates":[-64.88292,17.71525]}},{"type":"Feature","properties":{"country_en":"Virgin Islands, U.S.","name":"Fredensborg","name_adm0":"US Virgin Islands","name_adm1":"Saint Croix Island","name_adm2":"Sion Farm","name_en":"Fredensborg","iso":"VI"},"geometry":{"type":"Point","coordinates":[-64.78153,17.73497]}},{"type":"Feature","properties":{"country_en":"Virgin Islands, U.S.","name":"Fredensdal","name_adm0":"US Virgin Islands","name_adm1":"Saint Croix Island","name_adm2":"Anna's Hope","name_en":"Fredensdal","iso":"VI"},"geometry":{"type":"Point","coordinates":[-64.71209,17.73997]}},{"type":"Feature","properties":{"country_en":"Virgin Islands, U.S.","name":"Frederiks Haab","name_adm0":"US Virgin Islands","name_adm1":"Saint Croix Island","name_adm2":"Northwest","name_en":"Frederiks Haab","iso":"VI"},"geometry":{"type":"Point","coordinates":[-64.86348,17.71275]}},{"type":"Feature","properties":{"country_en":"Virgin Islands, U.S.","name":"Friedensfeld","name_adm0":"US Virgin Islands","name_adm1":"Saint Croix Island","name_adm2":"Sion Farm","name_en":"Friedensfeld","iso":"VI"},"geometry":{"type":"Point","coordinates":[-64.78042,17.74608]}},{"type":"Feature","properties":{"country_en":"Virgin Islands, U.S.","name":"Glynn","name_adm0":"US Virgin Islands","name_adm1":"Saint Croix Island","name_adm2":"Sion Farm","name_en":"Glynn","iso":"VI"},"geometry":{"type":"Point","coordinates":[-64.77458999999999,17.74831]}},{"type":"Feature","properties":{"country_en":"Virgin Islands, U.S.","name":"Golden Grove","name_adm0":"US Virgin Islands","name_adm1":"Saint Croix Island","name_adm2":"Southcentral","name_en":"Golden Grove","iso":"VI"},"geometry":{"type":"Point","coordinates":[-64.80098,17.71553]}},{"type":"Feature","properties":{"country_en":"Virgin Islands, U.S.","name":"Granard","name_adm0":"US Virgin Islands","name_adm1":"Saint Croix Island","name_adm2":"Anna's Hope","name_en":"Granard","iso":"VI"},"geometry":{"type":"Point","coordinates":[-64.7157,17.71303]}},{"type":"Feature","properties":{"country_en":"Virgin Islands, U.S.","name":"Jealousy","name_adm0":"US Virgin Islands","name_adm1":"Saint Croix Island","name_adm2":"Northcentral","name_en":"Jealousy","iso":"VI"},"geometry":{"type":"Point","coordinates":[-64.80376,17.73553]}},{"type":"Feature","properties":{"country_en":"Virgin Islands, U.S.","name":"Laprey Valley","name_adm0":"US Virgin Islands","name_adm1":"Saint Croix Island","name_adm2":"Anna's Hope","name_en":"Laprey Valley","iso":"VI"},"geometry":{"type":"Point","coordinates":[-64.68625,17.72636]}},{"type":"Feature","properties":{"country_en":"Virgin Islands, U.S.","name":"Libanon Hill","name_adm0":"US Virgin Islands","name_adm1":"Saint Croix Island","name_adm2":"Northcentral","name_en":"Libanon Hill","iso":"VI"},"geometry":{"type":"Point","coordinates":[-64.78541999999999,17.75442]}},{"type":"Feature","properties":{"country_en":"Virgin Islands, U.S.","name":"Longford","name_adm0":"US Virgin Islands","name_adm1":"Saint Croix Island","name_adm2":"Anna's Hope","name_en":"Longford","iso":"VI"},"geometry":{"type":"Point","coordinates":[-64.69487,17.71609]}},{"type":"Feature","properties":{"country_en":"Virgin Islands, U.S.","name":"Lowrys Hill","name_adm0":"US Virgin Islands","name_adm1":"Saint Croix Island","name_adm2":"Anna's Hope","name_en":"Lowrys Hill","iso":"VI"},"geometry":{"type":"Point","coordinates":[-64.67236,17.73914]}},{"type":"Feature","properties":{"country_en":"Virgin Islands, U.S.","name":"Mon Bijou","name_adm0":"US Virgin Islands","name_adm1":"Saint Croix Island","name_adm2":"Northcentral","name_en":"Mon Bijou","iso":"VI"},"geometry":{"type":"Point","coordinates":[-64.78876,17.74831]}},{"type":"Feature","properties":{"country_en":"Virgin Islands, U.S.","name":"Mount Pleasant","name_adm0":"US Virgin Islands","name_adm1":"Saint Croix Island","name_adm2":"Northcentral","name_en":"Mount Pleasant","iso":"VI"},"geometry":{"type":"Point","coordinates":[-64.8007,17.74581]}},{"type":"Feature","properties":{"country_en":"Virgin Islands, U.S.","name":"Munster","name_adm0":"US Virgin Islands","name_adm1":"Saint Croix Island","name_adm2":"Anna's Hope","name_en":"Munster","iso":"VI"},"geometry":{"type":"Point","coordinates":[-64.68792,17.72303]}},{"type":"Feature","properties":{"country_en":"Virgin Islands, U.S.","name":"Negro Bay","name_adm0":"US Virgin Islands","name_adm1":"Saint Croix Island","name_adm2":"Southcentral","name_en":"Negro Bay","iso":"VI"},"geometry":{"type":"Point","coordinates":[-64.80737,17.70803]}},{"type":"Feature","properties":{"country_en":"Virgin Islands, U.S.","name":"Nugent","name_adm0":"US Virgin Islands","name_adm1":"Saint Croix Island","name_adm2":"Anna's Hope","name_en":"Nugent","iso":"VI"},"geometry":{"type":"Point","coordinates":[-64.67736,17.7172]}},{"type":"Feature","properties":{"country_en":"Virgin Islands, U.S.","name":"Oxford","name_adm0":"US Virgin Islands","name_adm1":"Saint Croix Island","name_adm2":"Northwest","name_en":"Oxford","iso":"VI"},"geometry":{"type":"Point","coordinates":[-64.86097999999998,17.73914]}},{"type":"Feature","properties":{"country_en":"Virgin Islands, U.S.","name":"Pearl","name_adm0":"US Virgin Islands","name_adm1":"Saint Croix Island","name_adm2":"Southcentral","name_en":"Pearl","iso":"VI"},"geometry":{"type":"Point","coordinates":[-64.73376,17.716359999999998]}},{"type":"Feature","properties":{"country_en":"Virgin Islands, U.S.","name":"Pearson Gardens","name_adm0":"US Virgin Islands","name_adm1":"Saint Thomas Island","name_adm2":"Charlotte Amalie","name_en":"Pearson Gardens","iso":"VI"},"geometry":{"type":"Point","coordinates":[-64.9182,18.340229999999995]}},{"type":"Feature","properties":{"country_en":"Virgin Islands, U.S.","name":"Profit","name_adm0":"US Virgin Islands","name_adm1":"Saint Croix Island","name_adm2":"Southcentral","name_en":"Profit","iso":"VI"},"geometry":{"type":"Point","coordinates":[-64.78042,17.7172]}},{"type":"Feature","properties":{"country_en":"Virgin Islands, U.S.","name":"Punch","name_adm0":"US Virgin Islands","name_adm1":"Saint Croix Island","name_adm2":"Northwest","name_en":"Punch","iso":"VI"},"geometry":{"type":"Point","coordinates":[-64.8682,17.7422]}},{"type":"Feature","properties":{"country_en":"Virgin Islands, U.S.","name":"Santa Maria Estate","name_adm0":"US Virgin Islands","name_adm1":"Saint Thomas Island","name_adm2":"Northside","name_en":"Santa Maria Estate","iso":"VI"},"geometry":{"type":"Point","coordinates":[-64.9782,18.35857]}},{"type":"Feature","properties":{"country_en":"Virgin Islands, U.S.","name":"Smithfield","name_adm0":"US Virgin Islands","name_adm1":"Saint Croix Island","name_adm2":"Southwest","name_en":"Smithfield","iso":"VI"},"geometry":{"type":"Point","coordinates":[-64.88042,17.6997]}},{"type":"Feature","properties":{"country_en":"Virgin Islands, U.S.","name":"Spanish Town","name_adm0":"US Virgin Islands","name_adm1":"Saint Croix Island","name_adm2":"Southcentral","name_en":"Spanish Town","iso":"VI"},"geometry":{"type":"Point","coordinates":[-64.77292,17.7172]}},{"type":"Feature","properties":{"country_en":"Virgin Islands, U.S.","name":"Springfield","name_adm0":"US Virgin Islands","name_adm1":"Saint Croix Island","name_adm2":"Northwest","name_en":"Springfield","iso":"VI"},"geometry":{"type":"Point","coordinates":[-64.83209,17.73108]}},{"type":"Feature","properties":{"country_en":"Virgin Islands, U.S.","name":"Strawberry Hill","name_adm0":"US Virgin Islands","name_adm1":"Saint Croix Island","name_adm2":"Sion Farm","name_en":"Strawberry Hill","iso":"VI"},"geometry":{"type":"Point","coordinates":[-64.76097999999999,17.7322]}},{"type":"Feature","properties":{"country_en":"Virgin Islands, U.S.","name":"Williams Delight","name_adm0":"US Virgin Islands","name_adm1":"Saint Croix Island","name_adm2":"Southwest","name_en":"Williams Delight","iso":"VI"},"geometry":{"type":"Point","coordinates":[-64.83541999999998,17.69998]}},{"type":"Feature","properties":{"country_en":"Virgin Islands, U.S.","name":"Coral Bay","name_adm0":"US Virgin Islands","name_adm1":"Saint John Island","name_adm2":"Coral Bay","name_en":"Coral Bay","iso":"VI"},"geometry":{"type":"Point","coordinates":[-64.612312,18.354362]}},{"type":"Feature","properties":{"country_en":"Virgin Islands, U.S.","name":"Orangegrove","name_adm0":"US Virgin Islands","name_adm1":"Saint Croix Island","name_adm2":"Northwest","name_en":"Orangegrove","iso":"VI"},"geometry":{"type":"Point","coordinates":[-64.85209,17.737199999999998]}},{"type":"Feature","properties":{"country_en":"Virgin Islands, U.S.","name":"Two Brothers","name_adm0":"US Virgin Islands","name_adm1":"Saint Croix Island","name_adm2":"Frederiksted","name_en":"Two Brothers","iso":"VI"},"geometry":{"type":"Point","coordinates":[-64.87931,17.70636]}},{"type":"Feature","properties":{"country_en":"Virgin Islands, U.S.","name":"East End","name_adm0":"US Virgin Islands","name_adm1":"Saint John Island","name_adm2":"East End","name_en":"East End","iso":"VI"},"geometry":{"type":"Point","coordinates":[-64.59816599999999,18.351002]}},{"type":"Feature","properties":{"country_en":"Virgin Islands, U.S.","name":"Charlotte Amalie","name_adm0":"US Virgin Islands","name_adm1":"Saint Thomas Island","name_adm2":"Charlotte Amalie","name_en":"Charlotte Amalie","iso":"VI"},"geometry":{"type":"Point","coordinates":[-64.920787,18.335440999999996]}},{"type":"Feature","properties":{"country_en":"Virgin Islands, U.S.","name":"Tutu","name_adm0":"US Virgin Islands","name_adm1":"Saint Thomas Island","name_adm2":"Tutu","name_en":"Tutu","iso":"VI"},"geometry":{"type":"Point","coordinates":[-64.88653,18.33884]}},{"type":"Feature","properties":{"country_en":"Virgin Islands, U.S.","name":"Donoe","name_adm0":"US Virgin Islands","name_adm1":"Saint Thomas Island","name_adm2":"Tutu","name_en":"Donoe","iso":"VI"},"geometry":{"type":"Point","coordinates":[-64.89764,18.33662]}},{"type":"Feature","properties":{"country_en":"Virgin Islands, U.S.","name":"Windberg","name_adm0":"US Virgin Islands","name_adm1":"Saint John Island","name_adm2":"Central","name_en":"Windberg","iso":"VI"},"geometry":{"type":"Point","coordinates":[-64.74041,18.3569]}},{"type":"Feature","properties":{"country_en":"Virgin Islands, U.S.","name":"Hard Labour","name_adm0":"US Virgin Islands","name_adm1":"Saint Croix Island","name_adm2":"Northwest","name_en":"Hard Labour","iso":"VI"},"geometry":{"type":"Point","coordinates":[-64.82653,17.74108]}},{"type":"Feature","properties":{"country_en":"Virgin Islands, U.S.","name":"Hermitage","name_adm0":"US Virgin Islands","name_adm1":"Saint Croix Island","name_adm2":"Northcentral","name_en":"Hermitage","iso":"VI"},"geometry":{"type":"Point","coordinates":[-64.80459,17.74942]}},{"type":"Feature","properties":{"country_en":"Virgin Islands, U.S.","name":"Recovery Hill","name_adm0":"US Virgin Islands","name_adm1":"Saint Croix Island","name_adm2":"Anna's Hope","name_en":"Recovery Hill","iso":"VI"},"geometry":{"type":"Point","coordinates":[-64.69792,17.73636]}},{"type":"Feature","properties":{"country_en":"Virgin Islands, U.S.","name":"Robe Hill","name_adm0":"US Virgin Islands","name_adm1":"Saint Croix Island","name_adm2":"Northwest","name_en":"Robe Hill","iso":"VI"},"geometry":{"type":"Point","coordinates":[-64.85126,17.71497]}},{"type":"Feature","properties":{"country_en":"Virgin Islands, U.S.","name":"Rosendal","name_adm0":"US Virgin Islands","name_adm1":"Saint Thomas Island","name_adm2":"Tutu","name_en":"Rosendal","iso":"VI"},"geometry":{"type":"Point","coordinates":[-64.91209,18.35218]}},{"type":"Feature","properties":{"country_en":"Virgin Islands, U.S.","name":"Ryan","name_adm0":"US Virgin Islands","name_adm1":"Saint Croix Island","name_adm2":"Anna's Hope","name_en":"Ryan","iso":"VI"},"geometry":{"type":"Point","coordinates":[-64.68291999999998,17.72803]}},{"type":"Feature","properties":{"country_en":"Virgin Islands, U.S.","name":"St. Peter","name_adm0":"US Virgin Islands","name_adm1":"Saint Croix Island","name_adm2":"Anna's Hope","name_en":"St. Peter","iso":"VI"},"geometry":{"type":"Point","coordinates":[-64.69264,17.74192]}},{"type":"Feature","properties":{"country_en":"Virgin Islands, U.S.","name":"Upper Bethlehem","name_adm0":"US Virgin Islands","name_adm1":"Saint Croix Island","name_adm2":"Southcentral","name_en":"Upper Bethlehem","iso":"VI"},"geometry":{"type":"Point","coordinates":[-64.79445,17.71795]}},{"type":"Feature","properties":{"country_en":"Virgin Islands, U.S.","name":"Upper Love","name_adm0":"US Virgin Islands","name_adm1":"Saint Croix Island","name_adm2":"Northcentral","name_en":"Upper Love","iso":"VI"},"geometry":{"type":"Point","coordinates":[-64.81542,17.73108]}},{"type":"Feature","properties":{"country_en":"Virgin Islands, U.S.","name":"Whites Bay","name_adm0":"US Virgin Islands","name_adm1":"Saint Croix Island","name_adm2":"Southwest","name_en":"Whites Bay","iso":"VI"},"geometry":{"type":"Point","coordinates":[-64.87376,17.68831]}},{"type":"Feature","properties":{"country_en":"Virgin Islands, U.S.","name":"Benner","name_adm0":"US Virgin Islands","name_adm1":"Saint Thomas Island","name_adm2":"East End","name_en":"Benner","iso":"VI"},"geometry":{"type":"Point","coordinates":[-64.86181,18.32218]}},{"type":"Feature","properties":{"country_en":"Virgin Islands, U.S.","name":"La Grande Princesse","name_adm0":"US Virgin Islands","name_adm1":"Saint Croix Island","name_adm2":"Sion Farm","name_en":"La Grande Princesse","iso":"VI"},"geometry":{"type":"Point","coordinates":[-64.73625,17.75747]}},{"type":"Feature","properties":{"country_en":"Virgin Islands, U.S.","name":"Southside","name_adm0":"US Virgin Islands","name_adm1":"Saint Thomas Island","name_adm2":"Southside","name_en":"Southside","iso":"VI"},"geometry":{"type":"Point","coordinates":[-64.883376,18.223042]}},{"type":"Feature","properties":{"country_en":"Virgin Islands, U.S.","name":"Cotton Valley","name_adm0":"US Virgin Islands","name_adm1":"Saint Croix Island","name_adm2":"East End","name_en":"Cotton Valley","iso":"VI"},"geometry":{"type":"Point","coordinates":[-64.61986,17.75053]}},{"type":"Feature","properties":{"country_en":"Virgin Islands, U.S.","name":"Cane","name_adm0":"US Virgin Islands","name_adm1":"Saint Croix Island","name_adm2":"Southwest","name_en":"Cane","iso":"VI"},"geometry":{"type":"Point","coordinates":[-64.84542,17.70498]}},{"type":"Feature","properties":{"country_en":"Virgin Islands, U.S.","name":"St. John","name_adm0":"US Virgin Islands","name_adm1":"Saint Croix Island","name_adm2":"Sion Farm","name_en":"St. John","iso":"VI"},"geometry":{"type":"Point","coordinates":[-64.745543,17.778889]}},{"type":"Feature","properties":{"country_en":"Virgin Islands, U.S.","name":"Anna's Hope","name_adm0":"US Virgin Islands","name_adm1":"Saint Croix Island","name_adm2":"Anna's Hope","name_en":"Anna's Hope","iso":"VI"},"geometry":{"type":"Point","coordinates":[-64.789123,17.74607]}},{"type":"Feature","properties":{"country_en":"Virgin Islands, U.S.","name":"Diamond","name_adm0":"US Virgin Islands","name_adm1":"Saint Croix Island","name_adm2":"Southwest","name_en":"Diamond","iso":"VI"},"geometry":{"type":"Point","coordinates":[-64.82542,17.70331]}},{"type":"Feature","properties":{"country_en":"Virgin Islands, U.S.","name":"Ensomned","name_adm0":"US Virgin Islands","name_adm1":"Saint Thomas Island","name_adm2":"Northside","name_en":"Ensomned","iso":"VI"},"geometry":{"type":"Point","coordinates":[-64.95237,18.36801]}},{"type":"Feature","properties":{"country_en":"Virgin Islands, U.S.","name":"Grove Place","name_adm0":"US Virgin Islands","name_adm1":"Saint Croix Island","name_adm2":"Northcentral","name_en":"Grove Place","iso":"VI"},"geometry":{"type":"Point","coordinates":[-64.82766,17.7228]}},{"type":"Feature","properties":{"country_en":"Virgin Islands, U.S.","name":"Mafolie","name_adm0":"US Virgin Islands","name_adm1":"Saint Thomas Island","name_adm2":"Northside","name_en":"Mafolie","iso":"VI"},"geometry":{"type":"Point","coordinates":[-64.93153,18.35246]}},{"type":"Feature","properties":{"country_en":"Virgin Islands, U.S.","name":"Mariendal","name_adm0":"US Virgin Islands","name_adm1":"Saint Thomas Island","name_adm2":"Southside","name_en":"Mariendal","iso":"VI"},"geometry":{"type":"Point","coordinates":[-64.88153,18.327729999999995]}},{"type":"Feature","properties":{"country_en":"Virgin Islands, U.S.","name":"Cathrines Rest","name_adm0":"US Virgin Islands","name_adm1":"Saint Croix Island","name_adm2":"Anna's Hope","name_en":"Cathrines Rest","iso":"VI"},"geometry":{"type":"Point","coordinates":[-64.71542,17.72247]}},{"type":"Feature","properties":{"country_en":"Virgin Islands, U.S.","name":"Clairmont","name_adm0":"US Virgin Islands","name_adm1":"Saint Croix Island","name_adm2":"Northcentral","name_en":"Clairmont","iso":"VI"},"geometry":{"type":"Point","coordinates":[-64.77959,17.77525]}},{"type":"Feature","properties":{"country_en":"Virgin Islands, U.S.","name":"Contant","name_adm0":"US Virgin Islands","name_adm1":"Saint John Island","name_adm2":"Cruz Bay","name_en":"Contant","iso":"VI"},"geometry":{"type":"Point","coordinates":[-64.79236,18.32551]}},{"type":"Feature","properties":{"country_en":"Virgin Islands, U.S.","name":"Cotton Grove","name_adm0":"US Virgin Islands","name_adm1":"Saint Croix Island","name_adm2":"East End","name_en":"Cotton Grove","iso":"VI"},"geometry":{"type":"Point","coordinates":[-64.63653,17.7322]}},{"type":"Feature","properties":{"country_en":"Virgin Islands, U.S.","name":"Northwest","name_adm0":"US Virgin Islands","name_adm1":"Saint Croix Island","name_adm2":"Northwest","name_en":"Northwest","iso":"VI"},"geometry":{"type":"Point","coordinates":[-64.838562,17.774843]}},{"type":"Feature","properties":{"country_en":"Virgin Islands, U.S.","name":"Frederiksted","name_adm0":"US Virgin Islands","name_adm1":"Saint Croix Island","name_adm2":"Frederiksted","name_en":"Frederiksted","iso":"VI"},"geometry":{"type":"Point","coordinates":[-64.79654699999999,17.771737]}},{"type":"Feature","properties":{"country_en":"Virgin Islands, U.S.","name":"Southwest","name_adm0":"US Virgin Islands","name_adm1":"Saint Croix Island","name_adm2":"Southwest","name_en":"Southwest","iso":"VI"},"geometry":{"type":"Point","coordinates":[-64.888667,17.577332999999996]}},{"type":"Feature","properties":{"country_en":"Virgin Islands, U.S.","name":"Richmond","name_adm0":"US Virgin Islands","name_adm1":"Saint Croix Island","name_adm2":"Anna's Hope","name_en":"Richmond","iso":"VI"},"geometry":{"type":"Point","coordinates":[-64.71598,17.74525]}},{"type":"Feature","properties":{"country_en":"Virgin Islands, U.S.","name":"Waldberggaard","name_adm0":"US Virgin Islands","name_adm1":"Saint Croix Island","name_adm2":"Northwest","name_en":"Waldberggaard","iso":"VI"},"geometry":{"type":"Point","coordinates":[-64.84431,17.71664]}},{"type":"Feature","properties":{"country_en":"Virgin Islands, U.S.","name":"Altona","name_adm0":"US Virgin Islands","name_adm1":"Saint Thomas Island","name_adm2":"Charlotte Amalie","name_en":"Altona","iso":"VI"},"geometry":{"type":"Point","coordinates":[-64.94875999999998,18.33885]}},{"type":"Feature","properties":{"country_en":"Virgin Islands, U.S.","name":"Fish Bay","name_adm0":"US Virgin Islands","name_adm1":"Saint John Island","name_adm2":"Cruz Bay","name_en":"Fish Bay","iso":"VI"},"geometry":{"type":"Point","coordinates":[-64.76625,18.32218]}},{"type":"Feature","properties":{"country_en":"Virgin Islands, U.S.","name":"Fountain","name_adm0":"US Virgin Islands","name_adm1":"Saint Croix Island","name_adm2":"Northwest","name_en":"Fountain","iso":"VI"},"geometry":{"type":"Point","coordinates":[-64.82765,17.74997]}},{"type":"Feature","properties":{"country_en":"Virgin Islands, U.S.","name":"Green Kay","name_adm0":"US Virgin Islands","name_adm1":"Saint Croix Island","name_adm2":"East End","name_en":"Green Kay","iso":"VI"},"geometry":{"type":"Point","coordinates":[-64.65403,17.75858]}},{"type":"Feature","properties":{"country_en":"Virgin Islands, U.S.","name":"Parasol","name_adm0":"US Virgin Islands","name_adm1":"Saint Croix Island","name_adm2":"Northcentral","name_en":"Parasol","iso":"VI"},"geometry":{"type":"Point","coordinates":[-64.81709,17.75386]}},{"type":"Feature","properties":{"country_en":"Virgin Islands, U.S.","name":"Annaly","name_adm0":"US Virgin Islands","name_adm1":"Saint Croix Island","name_adm2":"Northwest","name_en":"Annaly","iso":"VI"},"geometry":{"type":"Point","coordinates":[-64.85430999999998,17.7497]}},{"type":"Feature","properties":{"country_en":"Virgin Islands, U.S.","name":"Great Pond","name_adm0":"US Virgin Islands","name_adm1":"Saint Croix Island","name_adm2":"East End","name_en":"Great Pond","iso":"VI"},"geometry":{"type":"Point","coordinates":[-64.64875,17.724419999999995]}},{"type":"Feature","properties":{"country_en":"Virgin Islands, U.S.","name":"Tutu","name_adm0":"US Virgin Islands","name_adm1":"Saint Thomas Island","name_adm2":"Tutu","name_en":"Tutu","iso":"VI"},"geometry":{"type":"Point","coordinates":[-64.885001,18.430555]}},{"type":"Feature","properties":{"country_en":"Virgin Islands, U.S.","name":"Knight","name_adm0":"US Virgin Islands","name_adm1":"Saint Croix Island","name_adm2":"East End","name_en":"Knight","iso":"VI"},"geometry":{"type":"Point","coordinates":[-64.59403,17.75525]}},{"type":"Feature","properties":{"country_en":"Virgin Islands, U.S.","name":"Southcentral","name_adm0":"US Virgin Islands","name_adm1":"Saint Croix Island","name_adm2":"Southcentral","name_en":"Southcentral","iso":"VI"},"geometry":{"type":"Point","coordinates":[-64.784317,17.700143]}},{"type":"Feature","properties":{"country_en":"Virgin Islands, U.S.","name":"Fareham","name_adm0":"US Virgin Islands","name_adm1":"Saint Croix Island","name_adm2":"Anna's Hope","name_en":"Fareham","iso":"VI"},"geometry":{"type":"Point","coordinates":[-64.67042,17.71553]}},{"type":"Feature","properties":{"country_en":"Virgin Islands, U.S.","name":"Lilliendahl","name_adm0":"US Virgin Islands","name_adm1":"Saint Thomas Island","name_adm2":"Northside","name_en":"Lilliendahl","iso":"VI"},"geometry":{"type":"Point","coordinates":[-64.95209,18.3544]}},{"type":"Feature","properties":{"country_en":"Virgin Islands, U.S.","name":"Limetree","name_adm0":"US Virgin Islands","name_adm1":"Saint Croix Island","name_adm2":"Sion Farm","name_en":"Limetree","iso":"VI"},"geometry":{"type":"Point","coordinates":[-64.76431,17.73692]}},{"type":"Feature","properties":{"country_en":"Virgin Islands, U.S.","name":"Montpellier","name_adm0":"US Virgin Islands","name_adm1":"Saint Croix Island","name_adm2":"Northwest","name_en":"Montpellier","iso":"VI"},"geometry":{"type":"Point","coordinates":[-64.84237,17.73886]}},{"type":"Feature","properties":{"country_en":"Virgin Islands, U.S.","name":"Neltjeberg","name_adm0":"US Virgin Islands","name_adm1":"Saint Thomas Island","name_adm2":"Northside","name_en":"Neltjeberg","iso":"VI"},"geometry":{"type":"Point","coordinates":[-64.97292,18.366069999999997]}},{"type":"Feature","properties":{"country_en":"Virgin Islands, U.S.","name":"North Side","name_adm0":"US Virgin Islands","name_adm1":"Saint Croix Island","name_adm2":"Northwest","name_en":"North Side","iso":"VI"},"geometry":{"type":"Point","coordinates":[-64.8882,17.75858]}},{"type":"Feature","properties":{"country_en":"Virgin Islands, U.S.","name":"Sorgenfri","name_adm0":"US Virgin Islands","name_adm1":"Saint Thomas Island","name_adm2":"West End","name_en":"Sorgenfri","iso":"VI"},"geometry":{"type":"Point","coordinates":[-64.98292,18.36551]}},{"type":"Feature","properties":{"country_en":"Virgin Islands, U.S.","name":"Wheel of Fortune","name_adm0":"US Virgin Islands","name_adm1":"Saint Croix Island","name_adm2":"Frederiksted","name_en":"Wheel of Fortune","iso":"VI"},"geometry":{"type":"Point","coordinates":[-64.87098,17.7122]}},{"type":"Feature","properties":{"country_en":"Virgin Islands, U.S.","name":"Whim","name_adm0":"US Virgin Islands","name_adm1":"Saint Croix Island","name_adm2":"Southwest","name_en":"Whim","iso":"VI"},"geometry":{"type":"Point","coordinates":[-64.86209,17.69998]}},{"type":"Feature","properties":{"country_en":"Virgin Islands, U.S.","name":"Pleasant Vale","name_adm0":"US Virgin Islands","name_adm1":"Saint Croix Island","name_adm2":"Northwest","name_en":"Pleasant Vale","iso":"VI"},"geometry":{"type":"Point","coordinates":[-64.86126,17.74914]}},{"type":"Feature","properties":{"country_en":"Virgin Islands, U.S.","name":"Raphune","name_adm0":"US Virgin Islands","name_adm1":"Saint Thomas Island","name_adm2":"Charlotte Amalie","name_en":"Raphune","iso":"VI"},"geometry":{"type":"Point","coordinates":[-64.90903,18.3344]}},{"type":"Feature","properties":{"country_en":"Virgin Islands, U.S.","name":"Resolution","name_adm0":"US Virgin Islands","name_adm1":"Saint Thomas Island","name_adm2":"Northside","name_en":"Resolution","iso":"VI"},"geometry":{"type":"Point","coordinates":[-64.95654,18.3544]}},{"type":"Feature","properties":{"country_en":"Virgin Islands, U.S.","name":"Ruan Bay","name_adm0":"US Virgin Islands","name_adm1":"Saint Croix Island","name_adm2":"Southwest","name_en":"Ruan Bay","iso":"VI"},"geometry":{"type":"Point","coordinates":[-64.8432,17.69164]}},{"type":"Feature","properties":{"country_en":"Virgin Islands, U.S.","name":"Sion Farm","name_adm0":"US Virgin Islands","name_adm1":"Saint Croix Island","name_adm2":"Sion Farm","name_en":"Sion Farm","iso":"VI"},"geometry":{"type":"Point","coordinates":[-64.7432,17.73247]}},{"type":"Feature","properties":{"country_en":"Virgin Islands, U.S.","name":"East End","name_adm0":"US Virgin Islands","name_adm1":"Saint Croix Island","name_adm2":"East End","name_en":"East End","iso":"VI"},"geometry":{"type":"Point","coordinates":[-64.670917,17.760399999999997]}},{"type":"Feature","properties":{"country_en":"Virgin Islands, U.S.","name":"West End","name_adm0":"US Virgin Islands","name_adm1":"Saint Thomas Island","name_adm2":"West End","name_en":"West End","iso":"VI"},"geometry":{"type":"Point","coordinates":[-65.011596,18.343333]}},{"type":"Feature","properties":{"country_en":"Virgin Islands, U.S.","name":"Cabritaberg","name_adm0":"US Virgin Islands","name_adm1":"Saint Thomas Island","name_adm2":"Charlotte Amalie","name_en":"Cabritaberg","iso":"VI"},"geometry":{"type":"Point","coordinates":[-64.966793,18.335766999999997]}},{"type":"Feature","properties":{"country_en":"Virgin Islands, U.S.","name":"Annaberg","name_adm0":"US Virgin Islands","name_adm1":"Saint John Island","name_adm2":"Central","name_en":"Annaberg","iso":"VI"},"geometry":{"type":"Point","coordinates":[-64.73014,18.36301]}},{"type":"Feature","properties":{"country_en":"Virgin Islands, U.S.","name":"Bordeaux","name_adm0":"US Virgin Islands","name_adm1":"Saint John Island","name_adm2":"Central","name_en":"Bordeaux","iso":"VI"},"geometry":{"type":"Point","coordinates":[-64.72097,18.33523]}},{"type":"Feature","properties":{"country_en":"Virgin Islands, U.S.","name":"Catharinas Hope","name_adm0":"US Virgin Islands","name_adm1":"Saint Croix Island","name_adm2":"East End","name_en":"Catharinas Hope","iso":"VI"},"geometry":{"type":"Point","coordinates":[-64.61625,17.748029999999996]}},{"type":"Feature","properties":{"country_en":"Virgin Islands, U.S.","name":"Frederiksted","name_adm0":"US Virgin Islands","name_adm1":"Saint Croix Island","name_adm2":"Frederiksted","name_en":"Frederiksted","iso":"VI"},"geometry":{"type":"Point","coordinates":[-64.88154,17.71247]}},{"type":"Feature","properties":{"country_en":"Virgin Islands, U.S.","name":"Frydendal","name_adm0":"US Virgin Islands","name_adm1":"Saint Thomas Island","name_adm2":"East End","name_en":"Frydendal","iso":"VI"},"geometry":{"type":"Point","coordinates":[-64.87236,18.34579]}},{"type":"Feature","properties":{"country_en":"Virgin Islands, U.S.","name":"John Oley","name_adm0":"US Virgin Islands","name_adm1":"Saint Thomas Island","name_adm2":"West End","name_en":"John Oley","iso":"VI"},"geometry":{"type":"Point","coordinates":[-64.99709,18.359679999999997]}},{"type":"Feature","properties":{"country_en":"Virgin Islands, U.S.","name":"Cruz Bay","name_adm0":"US Virgin Islands","name_adm1":"Saint John Island","name_adm2":"Cruz Bay","name_en":"Cruz Bay","iso":"VI"},"geometry":{"type":"Point","coordinates":[-64.809722,18.335706]}},{"type":"Feature","properties":{"country_en":"Virgin Islands, U.S.","name":"Saint Croix Island","name_adm0":"US Virgin Islands","name_adm1":"Saint Croix Island","name_en":"Saint Croix Island","iso":"VI"},"geometry":{"type":"Point","coordinates":[-64.74795,17.73563]}},{"type":"Feature","properties":{"country_en":"Virgin Islands, U.S.","name":"Saint John Island","name_adm0":"US Virgin Islands","name_adm1":"Saint John Island","name_en":"Saint John Island","iso":"VI"},"geometry":{"type":"Point","coordinates":[-64.73771,18.32758]}},{"type":"Feature","properties":{"country_en":"Virgin Islands, U.S.","name":"Bethany","name_adm0":"US Virgin Islands","name_adm1":"Saint John Island","name_adm2":"Cruz Bay","name_en":"Bethany","iso":"VI"},"geometry":{"type":"Point","coordinates":[-64.78292,18.33107]}},{"type":"Feature","properties":{"country_en":"Virgin Islands, U.S.","name":"Bodkin","name_adm0":"US Virgin Islands","name_adm1":"Saint Croix Island","name_adm2":"Northwest","name_en":"Bodkin","iso":"VI"},"geometry":{"type":"Point","coordinates":[-64.84153,17.75136]}},{"type":"Feature","properties":{"country_en":"Virgin Islands, U.S.","name":"Bulows Minde","name_adm0":"US Virgin Islands","name_adm1":"Saint Croix Island","name_adm2":"Anna's Hope","name_en":"Bulows Minde","iso":"VI"},"geometry":{"type":"Point","coordinates":[-64.7282,17.74025]}},{"type":"Feature","properties":{"country_en":"Virgin Islands, U.S.","name":"Butler Bay","name_adm0":"US Virgin Islands","name_adm1":"Saint Croix Island","name_adm2":"Northwest","name_en":"Butler Bay","iso":"VI"},"geometry":{"type":"Point","coordinates":[-64.89154,17.74858]}},{"type":"Feature","properties":{"country_en":"Virgin Islands, U.S.","name":"Butzberg","name_adm0":"US Virgin Islands","name_adm1":"Saint Croix Island","name_adm2":"Anna's Hope","name_en":"Butzberg","iso":"VI"},"geometry":{"type":"Point","coordinates":[-64.67736,17.74664]}},{"type":"Feature","properties":{"country_en":"Virgin Islands, U.S.","name":"Canebay","name_adm0":"US Virgin Islands","name_adm1":"Saint Croix Island","name_adm2":"Northcentral","name_en":"Canebay","iso":"VI"},"geometry":{"type":"Point","coordinates":[-64.81014,17.77164]}},{"type":"Feature","properties":{"country_en":"Virgin Islands, U.S.","name":"Carlton","name_adm0":"US Virgin Islands","name_adm1":"Saint Croix Island","name_adm2":"Southwest","name_en":"Carlton","iso":"VI"},"geometry":{"type":"Point","coordinates":[-64.84987,17.70275]}},{"type":"Feature","properties":{"country_en":"Virgin Islands, U.S.","name":"Castle Coakley","name_adm0":"US Virgin Islands","name_adm1":"Saint Croix Island","name_adm2":"Southcentral","name_en":"Castle Coakley","iso":"VI"},"geometry":{"type":"Point","coordinates":[-64.74542,17.72331]}},{"type":"Feature","properties":{"country_en":"Virgin Islands, U.S.","name":"Contant","name_adm0":"US Virgin Islands","name_adm1":"Saint Thomas Island","name_adm2":"Charlotte Amalie","name_en":"Contant","iso":"VI"},"geometry":{"type":"Point","coordinates":[-64.95598,18.3419]}},{"type":"Feature","properties":{"country_en":"Virgin Islands, U.S.","name":"Hams Bay","name_adm0":"US Virgin Islands","name_adm1":"Saint Croix Island","name_adm2":"Northwest","name_en":"Hams Bay","iso":"VI"},"geometry":{"type":"Point","coordinates":[-64.8807,17.76553]}},{"type":"Feature","properties":{"country_en":"Virgin Islands, U.S.","name":"Dorothea","name_adm0":"US Virgin Islands","name_adm1":"Saint Thomas Island","name_adm2":"Northside","name_en":"Dorothea","iso":"VI"},"geometry":{"type":"Point","coordinates":[-64.96181,18.35857]}},{"type":"Feature","properties":{"country_en":"Virgin Islands, U.S.","name":"Enighed","name_adm0":"US Virgin Islands","name_adm1":"Saint John Island","name_adm2":"Cruz Bay","name_en":"Enighed","iso":"VI"},"geometry":{"type":"Point","coordinates":[-64.79153,18.32829]}},{"type":"Feature","properties":{"country_en":"Virgin Islands, U.S.","name":"Estate Thomas","name_adm0":"US Virgin Islands","name_adm1":"Saint Thomas Island","name_adm2":"Tutu","name_en":"Estate Thomas","iso":"VI"},"geometry":{"type":"Point","coordinates":[-64.91097999999998,18.33968]}},{"type":"Feature","properties":{"country_en":"Virgin Islands, U.S.","name":"Fredriksdal","name_adm0":"US Virgin Islands","name_adm1":"Saint John Island","name_adm2":"Central","name_en":"Fredriksdal","iso":"VI"},"geometry":{"type":"Point","coordinates":[-64.73625,18.359679999999997]}},{"type":"Feature","properties":{"country_en":"Virgin Islands, U.S.","name":"Frenchtown","name_adm0":"US Virgin Islands","name_adm1":"Saint Thomas Island","name_adm2":"Charlotte Amalie","name_en":"Frenchtown","iso":"VI"},"geometry":{"type":"Point","coordinates":[-64.94209,18.33829]}},{"type":"Feature","properties":{"country_en":"Virgin Islands, U.S.","name":"Hesselberg","name_adm0":"US Virgin Islands","name_adm1":"Saint Croix Island","name_adm2":"Southwest","name_en":"Hesselberg","iso":"VI"},"geometry":{"type":"Point","coordinates":[-64.87986999999998,17.69748]}},{"type":"Feature","properties":{"country_en":"Virgin Islands, U.S.","name":"Hogensborg","name_adm0":"US Virgin Islands","name_adm1":"Saint Croix Island","name_adm2":"Southwest","name_en":"Hogensborg","iso":"VI"},"geometry":{"type":"Point","coordinates":[-64.84681,17.70942]}},{"type":"Feature","properties":{"country_en":"Virgin Islands, U.S.","name":"Jerusalem and Figtree Hill","name_adm0":"US Virgin Islands","name_adm1":"Saint Croix Island","name_adm2":"Southcentral","name_en":"Jerusalem and Figtree Hill","iso":"VI"},"geometry":{"type":"Point","coordinates":[-64.75042,17.71247]}},{"type":"Feature","properties":{"country_en":"Virgin Islands, U.S.","name":"Johns Folly","name_adm0":"US Virgin Islands","name_adm1":"Saint John Island","name_adm2":"Coral Bay","name_en":"Johns Folly","iso":"VI"},"geometry":{"type":"Point","coordinates":[-64.70347,18.3194]}},{"type":"Feature","properties":{"country_en":"Virgin Islands, U.S.","name":"Jolly Hill","name_adm0":"US Virgin Islands","name_adm1":"Saint Croix Island","name_adm2":"Northwest","name_en":"Jolly Hill","iso":"VI"},"geometry":{"type":"Point","coordinates":[-64.86126,17.7322]}},{"type":"Feature","properties":{"country_en":"Virgin Islands, U.S.","name":"La Grange","name_adm0":"US Virgin Islands","name_adm1":"Saint Croix Island","name_adm2":"Frederiksted","name_en":"La Grange","iso":"VI"},"geometry":{"type":"Point","coordinates":[-64.87847999999998,17.71914]}},{"type":"Feature","properties":{"country_en":"Virgin Islands, U.S.","name":"La Vallee","name_adm0":"US Virgin Islands","name_adm1":"Saint Croix Island","name_adm2":"Northcentral","name_en":"La Vallee","iso":"VI"},"geometry":{"type":"Point","coordinates":[-64.80209,17.78358]}},{"type":"Feature","properties":{"country_en":"Virgin Islands, U.S.","name":"Louisenhoj","name_adm0":"US Virgin Islands","name_adm1":"Saint Thomas Island","name_adm2":"Charlotte Amalie","name_en":"Louisenhoj","iso":"VI"},"geometry":{"type":"Point","coordinates":[-64.92487,18.35107]}},{"type":"Feature","properties":{"country_en":"Virgin Islands, U.S.","name":"Madame Carty","name_adm0":"US Virgin Islands","name_adm1":"Saint Croix Island","name_adm2":"East End","name_en":"Madame Carty","iso":"VI"},"geometry":{"type":"Point","coordinates":[-64.61708,17.73608]}},{"type":"Feature","properties":{"country_en":"Virgin Islands, U.S.","name":"Teagues Bay","name_adm0":"US Virgin Islands","name_adm1":"Saint Croix Island","name_adm2":"East End","name_en":"Teagues Bay","iso":"VI"},"geometry":{"type":"Point","coordinates":[-64.60486,17.75192]}},{"type":"Feature","properties":{"country_en":"Virgin Islands, U.S.","name":"Misgen","name_adm0":"US Virgin Islands","name_adm1":"Saint Thomas Island","name_adm2":"Northside","name_en":"Misgen","iso":"VI"},"geometry":{"type":"Point","coordinates":[-64.93181,18.3544]}},{"type":"Feature","properties":{"country_en":"Virgin Islands, U.S.","name":"Ruby","name_adm0":"US Virgin Islands","name_adm1":"Saint Croix Island","name_adm2":"Sion Farm","name_en":"Ruby","iso":"VI"},"geometry":{"type":"Point","coordinates":[-64.75487,17.73692]}},{"type":"Feature","properties":{"country_en":"Virgin Islands, U.S.","name":"Christiansted","name_adm0":"US Virgin Islands","name_adm1":"Saint Croix Island","name_adm2":"Christiansted","name_en":"Christiansted","iso":"VI"},"geometry":{"type":"Point","coordinates":[-64.70355,17.74722]}},{"type":"Feature","properties":{"country_en":"Virgin Islands, U.S.","name":"Bonne Esperance","name_adm0":"US Virgin Islands","name_adm1":"Saint Thomas Island","name_adm2":"West End","name_en":"Bonne Esperance","iso":"VI"},"geometry":{"type":"Point","coordinates":[-64.98709,18.3544]}},{"type":"Feature","properties":{"country_en":"Virgin Islands, U.S.","name":"Kingshill","name_adm0":"US Virgin Islands","name_adm1":"Saint Croix Island","name_adm2":"Southwest","name_en":"Kingshill","iso":"VI"},"geometry":{"type":"Point","coordinates":[-64.78292,17.72303]}},{"type":"Feature","properties":{"country_en":"Virgin Islands, U.S.","name":"Cruz Bay","name_adm0":"US Virgin Islands","name_adm1":"Saint John Island","name_adm2":"Cruz Bay","name_en":"Cruz Bay","iso":"VI"},"geometry":{"type":"Point","coordinates":[-64.786048,18.335624]}},{"type":"Feature","properties":{"country_en":"Virgin Islands, U.S.","name":"US Virgin Islands","name_adm0":"US Virgin Islands","name_en":"US Virgin Islands","iso":"VI"},"geometry":{"type":"Point","coordinates":[-64.93592799999999,18.350719]}},{"type":"Feature","properties":{"country_en":"Virgin Islands, U.S.","name":"William","name_adm0":"US Virgin Islands","name_adm1":"Saint Croix Island","name_adm2":"Northwest","name_en":"William","iso":"VI"},"geometry":{"type":"Point","coordinates":[-64.88876,17.73442]}},{"type":"Feature","properties":{"country_en":"Virgin Islands, U.S.","name":"Contentment","name_adm0":"US Virgin Islands","name_adm1":"Saint Croix Island","name_adm2":"Anna's Hope","name_en":"Contentment","iso":"VI"},"geometry":{"type":"Point","coordinates":[-64.71292,17.73608]}},{"type":"Feature","properties":{"country_en":"Virgin Islands, U.S.","name":"Sion Hill","name_adm0":"US Virgin Islands","name_adm1":"Saint Croix Island","name_adm2":"Sion Farm","name_en":"Sion Hill","iso":"VI"},"geometry":{"type":"Point","coordinates":[-64.74709,17.74108]}},{"type":"Feature","properties":{"country_en":"Virgin Islands, U.S.","name":"Zambee","name_adm0":"US Virgin Islands","name_adm1":"Saint Thomas Island","name_adm2":"Northside","name_en":"Zambee","iso":"VI"},"geometry":{"type":"Point","coordinates":[-64.97654,18.35607]}},{"type":"Feature","properties":{"country_en":"Virgin Islands, U.S.","name":"L'esperance","name_adm0":"US Virgin Islands","name_adm1":"Saint John Island","name_adm2":"Central","name_en":"L'esperance","iso":"VI"},"geometry":{"type":"Point","coordinates":[-64.7593,18.340229999999995]}}]}